[
  {
    "school_name": "Szkoła Podstawowa w Korabiewicach",
    "longitude": 20.41707420349121,
    "latitude": 51.95400619506836,
    "education_level": "Unknown",
    "country_iso3_code": "POL",
    "giga_id_school": "bb3f1f84-a129-39db-9dbc-4719e9342435",
    "school_data_source": null
  },
  {
    "school_name": "XXXIV Liceum Ogólnokształcące z Oddziałami Dwujęzycznymi im. Miguela de Cervantesa",
    "longitude": 21.040678024291992,
    "latitude": 52.20488357543945,
    "education_level": "Unknown",
    "country_iso3_code": "POL",
    "giga_id_school": "a7f043a8-9cbb-3b05-a409-619af6b734b6",
    "school_data_source": null
  },
  {
    "school_name": "Szkoła Podstawowa nr 20",
    "longitude": 16.218244552612305,
    "latitude": 51.2031135559082,
    "education_level": "Unknown",
    "country_iso3_code": "POL",
    "giga_id_school": "94809ed2-8fd5-3230-92f7-771d9361239a",
    "school_data_source": null
  },
  {
    "school_name": "Szkoła Podstawowa nr 19",
    "longitude": 16.176422119140625,
    "latitude": 51.192752838134766,
    "education_level": "Unknown",
    "country_iso3_code": "POL",
    "giga_id_school": "40d69e55-ceb2-3a49-81f4-4ecef557c6ab",
    "school_data_source": null
  },
  {
    "school_name": "Szkoła Podstawowa nr 7",
    "longitude": 16.183942794799805,
    "latitude": 51.20899200439453,
    "education_level": "Unknown",
    "country_iso3_code": "POL",
    "giga_id_school": "97bad323-9f1c-3c1c-9494-4e419d4cd9f7",
    "school_data_source": null
  },
  {
    "school_name": "Szkoła Podstawowa nr 1 im. Stanisława Jachowicza w Bochni",
    "longitude": 20.427490234375,
    "latitude": 49.96958923339844,
    "education_level": "Unknown",
    "country_iso3_code": "POL",
    "giga_id_school": "e5c184c3-681b-3d6b-a2f3-1296cfd5e2f3",
    "school_data_source": null
  },
  {
    "school_name": "Hala Sportowa ZST",
    "longitude": 14.967391967773438,
    "latitude": 51.781341552734375,
    "education_level": "Unknown",
    "country_iso3_code": "POL",
    "giga_id_school": "0599e26e-148c-3dbe-9fee-7aca45975b17",
    "school_data_source": null
  },
  {
    "school_name": "II Liceum Ogólnokształcące im. księżnej Anny z Sapiehów Jabłonowskiej",
    "longitude": 23.13624382019043,
    "latitude": 53.144737243652344,
    "education_level": "Unknown",
    "country_iso3_code": "POL",
    "giga_id_school": "eb7b0bdf-0154-32cb-9619-4d58384aef0b",
    "school_data_source": null
  },
  {
    "school_name": "Szkoła Podstawowa nr 112 Przymierza Rodzin im. Jana Pawła II",
    "longitude": 21.055700302124023,
    "latitude": 52.15150451660156,
    "education_level": "Unknown",
    "country_iso3_code": "POL",
    "giga_id_school": "5aee8ed2-9a67-355d-8e1f-53d0dbb24d9e",
    "school_data_source": null
  },
  {
    "school_name": "Szkoła Podstawowa w Kiełpinach",
    "longitude": 19.82291030883789,
    "latitude": 53.34889602661133,
    "education_level": "Unknown",
    "country_iso3_code": "POL",
    "giga_id_school": "2a096d35-26f9-3c9a-aaf5-635e641bc629",
    "school_data_source": null
  },
  {
    "school_name": "Szkoła Podstawowa nr 79 im. Arkadego Fiedlera",
    "longitude": 16.89358139038086,
    "latitude": 52.36762619018555,
    "education_level": "Unknown",
    "country_iso3_code": "POL",
    "giga_id_school": "dc432c5c-1088-39b0-8af3-fa6ee797c81c",
    "school_data_source": null
  },
  {
    "school_name": "Zespół Szkolno-Przedszkolny w Bielanach Wrocławskich",
    "longitude": 16.97166633605957,
    "latitude": 51.03798294067383,
    "education_level": "Unknown",
    "country_iso3_code": "POL",
    "giga_id_school": "b0731560-25e6-3655-8891-ea64f2415b7f",
    "school_data_source": null
  },
  {
    "school_name": "Liceum Ogólnokształcące im. Janusza Stanislawa Pasierba",
    "longitude": 18.697710037231445,
    "latitude": 53.92953872680664,
    "education_level": "Unknown",
    "country_iso3_code": "POL",
    "giga_id_school": "a060738a-cc33-32ae-b2b1-2893b0b201fc",
    "school_data_source": null
  },
  {
    "school_name": "Publiczna Szkoła Podstawowa im. Marii Konopnickiej",
    "longitude": 18.65338897705078,
    "latitude": 53.863895416259766,
    "education_level": "Unknown",
    "country_iso3_code": "POL",
    "giga_id_school": "b5238e94-10e8-3617-a40b-4d64a74bd801",
    "school_data_source": null
  },
  {
    "school_name": "Zespół Szkół",
    "longitude": 21.93302345275879,
    "latitude": 51.548954010009766,
    "education_level": "Unknown",
    "country_iso3_code": "POL",
    "giga_id_school": "10a981f8-926c-39e8-ba6c-668659243086",
    "school_data_source": null
  },
  {
    "school_name": "Zespół Szkół Agrobiznesu",
    "longitude": 22.113239288330078,
    "latitude": 51.36314010620117,
    "education_level": "Unknown",
    "country_iso3_code": "POL",
    "giga_id_school": "186be697-fd36-3e64-ac25-b50cadb35897",
    "school_data_source": null
  },
  {
    "school_name": "Szkoła Podstawowa w Klementowicach",
    "longitude": 22.136253356933594,
    "latitude": 51.3589973449707,
    "education_level": "Unknown",
    "country_iso3_code": "POL",
    "giga_id_school": "43a927e9-7cb7-37d9-a53b-be36d2b82506",
    "school_data_source": null
  },
  {
    "school_name": "Biblioteka Gminna",
    "longitude": 21.9332332611084,
    "latitude": 51.40726852416992,
    "education_level": "Unknown",
    "country_iso3_code": "POL",
    "giga_id_school": "a916ae90-1566-34b5-a0c6-69b58c7c1813",
    "school_data_source": null
  },
  {
    "school_name": "Liceum Ogólnokształcące im. Bohaterów Westerplatte",
    "longitude": 22.30731773376465,
    "latitude": 51.521759033203125,
    "education_level": "Unknown",
    "country_iso3_code": "POL",
    "giga_id_school": "de2daf59-4376-3638-b525-a9da55a3b74e",
    "school_data_source": null
  },
  {
    "school_name": "Państwowa Szkoła Muzyczna I. stopnia nr 4 im. K. Kurpińskiego",
    "longitude": 21.009084701538086,
    "latitude": 52.198123931884766,
    "education_level": "Unknown",
    "country_iso3_code": "POL",
    "giga_id_school": "3066a793-5e3e-3426-9803-47d1fb1877dd",
    "school_data_source": null
  },
  {
    "school_name": "Szkoła Podstawowa nr 2 im. Jarosława Iwaszkiewicza",
    "longitude": 20.711406707763672,
    "latitude": 52.132789611816406,
    "education_level": "Unknown",
    "country_iso3_code": "POL",
    "giga_id_school": "68ecb76c-4e16-3aab-827b-bcba7da7b2e6",
    "school_data_source": null
  },
  {
    "school_name": "Liceum Ogólnokształcące im. Jarosława Iwaszkiewicza",
    "longitude": 20.71094512939453,
    "latitude": 52.132537841796875,
    "education_level": "Unknown",
    "country_iso3_code": "POL",
    "giga_id_school": "d37e82e4-1c02-3990-bec2-a45eaae9ac23",
    "school_data_source": null
  },
  {
    "school_name": "Szkoła Podstawowa Nr 8 imienia Bolesława Wirskiego",
    "longitude": 23.477060317993164,
    "latitude": 51.123531341552734,
    "education_level": "Unknown",
    "country_iso3_code": "POL",
    "giga_id_school": "b40475e0-4e4a-3086-bf51-6ad5508148b4",
    "school_data_source": null
  },
  {
    "school_name": "Szkoła Podstawowa Nr 4 imienia Stefana Wyszyńskiego",
    "longitude": 23.497087478637695,
    "latitude": 51.12855911254883,
    "education_level": "Unknown",
    "country_iso3_code": "POL",
    "giga_id_school": "4b70bef0-6b60-3ca9-a22b-e64997990959",
    "school_data_source": null
  },
  {
    "school_name": "Szkoła Podstawowa Specjalna nr 12",
    "longitude": 23.445798873901367,
    "latitude": 51.134788513183594,
    "education_level": "Unknown",
    "country_iso3_code": "POL",
    "giga_id_school": "96833206-9120-35fc-b4c0-0527d92bc189",
    "school_data_source": null
  },
  {
    "school_name": "ZSZ",
    "longitude": 22.14024543762207,
    "latitude": 50.51948165893555,
    "education_level": "Unknown",
    "country_iso3_code": "POL",
    "giga_id_school": "c1c37438-03ef-3b93-982b-d5dd36a8772d",
    "school_data_source": null
  },
  {
    "school_name": "Szkoła Podstawowa nr 10 im. Jerzego Popiełuszki",
    "longitude": 23.469636917114258,
    "latitude": 51.13268280029297,
    "education_level": "Unknown",
    "country_iso3_code": "POL",
    "giga_id_school": "51bd7004-11eb-3b16-8884-695ce536d6db",
    "school_data_source": null
  },
  {
    "school_name": "Liceum Profilowane",
    "longitude": 22.14063835144043,
    "latitude": 50.51933288574219,
    "education_level": "Unknown",
    "country_iso3_code": "POL",
    "giga_id_school": "5a55951c-a9aa-3970-8451-f561cdf890e9",
    "school_data_source": null
  },
  {
    "school_name": "Publiczna Szkoła Podstawowa im. św. Stanisława Kostki w Zarzeczu",
    "longitude": 22.20488739013672,
    "latitude": 50.523902893066406,
    "education_level": "Unknown",
    "country_iso3_code": "POL",
    "giga_id_school": "ed335043-5c35-39d0-b41e-564327790dda",
    "school_data_source": null
  },
  {
    "school_name": "Technikum",
    "longitude": 22.14043426513672,
    "latitude": 50.519386291503906,
    "education_level": "Unknown",
    "country_iso3_code": "POL",
    "giga_id_school": "731b2f4a-c6b5-351f-8727-c0e25aea96f4",
    "school_data_source": null
  },
  {
    "school_name": "Szkoła Podstawowa nr 3 imienia Adama Mickiewicza",
    "longitude": 23.450138092041016,
    "latitude": 51.14466094970703,
    "education_level": "Unknown",
    "country_iso3_code": "POL",
    "giga_id_school": "33dcdfbc-ad37-3c26-8ec7-c33f01201e26",
    "school_data_source": null
  },
  {
    "school_name": "Publiczna Szkoła Podstawowa Nr 4 w Nisku",
    "longitude": 22.172590255737305,
    "latitude": 50.49538040161133,
    "education_level": "Unknown",
    "country_iso3_code": "POL",
    "giga_id_school": "c4ac86e0-3fee-32c7-ab0b-a65464a9fa86",
    "school_data_source": null
  },
  {
    "school_name": "Zespół Szkolno-Przedszkolny w Zarzeczu",
    "longitude": 22.205089569091797,
    "latitude": 50.523799896240234,
    "education_level": "Unknown",
    "country_iso3_code": "POL",
    "giga_id_school": "f885912b-8606-3716-8d8f-c9ec38bc0d67",
    "school_data_source": null
  },
  {
    "school_name": "Specjalny Ośrodek Szkolno-Wychowawczy",
    "longitude": 23.22378921508789,
    "latitude": 50.72148513793945,
    "education_level": "Unknown",
    "country_iso3_code": "POL",
    "giga_id_school": "cca6a0a3-8bc3-3d65-9d40-fcc59c8e114b",
    "school_data_source": null
  },
  {
    "school_name": "Zespół Szkół Ponadpodstawowych nr 5 im. J. Piłsudskiego",
    "longitude": 23.21623992919922,
    "latitude": 50.71277618408203,
    "education_level": "Unknown",
    "country_iso3_code": "POL",
    "giga_id_school": "8a769448-01b3-32e8-9c24-567acf1217fc",
    "school_data_source": null
  },
  {
    "school_name": "Szkoła Podstawowa w Kobierzycach",
    "longitude": 16.933351516723633,
    "latitude": 50.97209930419922,
    "education_level": "Unknown",
    "country_iso3_code": "POL",
    "giga_id_school": "045e5da4-ba92-3c11-a495-65e00b2db187",
    "school_data_source": null
  },
  {
    "school_name": "Szkoła Podstawowa im. Bohaterów Powstania Styczniowego w Nowej Słupi",
    "longitude": 21.084976196289062,
    "latitude": 50.85886001586914,
    "education_level": "Unknown",
    "country_iso3_code": "POL",
    "giga_id_school": "d574bc51-3922-3901-b9c7-6fabf658f83a",
    "school_data_source": null
  },
  {
    "school_name": "Szkoła Podstawowa imienia Marii Konopnickiej",
    "longitude": 19.97285270690918,
    "latitude": 52.0870475769043,
    "education_level": "Unknown",
    "country_iso3_code": "POL",
    "giga_id_school": "1b58d6db-a9bd-3c1d-9703-01cdb0f25b4a",
    "school_data_source": null
  },
  {
    "school_name": "Szkoła Podstawowa",
    "longitude": 20.068937301635742,
    "latitude": 52.083709716796875,
    "education_level": "Unknown",
    "country_iso3_code": "POL",
    "giga_id_school": "c752f82f-c94a-31af-989b-99306de27dac",
    "school_data_source": null
  },
  {
    "school_name": "Szkoła Podstawowa nr 44",
    "longitude": 18.889753341674805,
    "latitude": 50.33443069458008,
    "education_level": "Unknown",
    "country_iso3_code": "POL",
    "giga_id_school": "58a7faf8-4dbc-3772-97ff-a01a33640913",
    "school_data_source": null
  },
  {
    "school_name": "Wyższe Seminarium Duchowne Zakonu Braci Mniejszych pw bł. Jana Dunsa Szkota OFM",
    "longitude": 16.376314163208008,
    "latitude": 52.710811614990234,
    "education_level": "Unknown",
    "country_iso3_code": "POL",
    "giga_id_school": "05de9fc3-637f-3cfc-9f6d-0983a5d0ac53",
    "school_data_source": null
  },
  {
    "school_name": "Medyczne Studium Zawodowe",
    "longitude": 16.880922317504883,
    "latitude": 52.4143180847168,
    "education_level": "Unknown",
    "country_iso3_code": "POL",
    "giga_id_school": "0bf6bf85-bb82-358d-88c8-2a417f7821c3",
    "school_data_source": null
  },
  {
    "school_name": "Szkoła podstawowa nr 12",
    "longitude": 20.495946884155273,
    "latitude": 53.750694274902344,
    "education_level": "Unknown",
    "country_iso3_code": "POL",
    "giga_id_school": "217bb9a7-6df1-30cd-a03e-19ab3e6e8173",
    "school_data_source": null
  },
  {
    "school_name": "Zespół Szkół Ogólnokształcących nr 3, Szkoła Podstawowa nr 25",
    "longitude": 20.487646102905273,
    "latitude": 53.75483703613281,
    "education_level": "Unknown",
    "country_iso3_code": "POL",
    "giga_id_school": "f443ac11-90ed-3310-bed1-73b0dafb4cbf",
    "school_data_source": null
  },
  {
    "school_name": "Szkoła Podstawowa nr 53",
    "longitude": 14.508089065551758,
    "latitude": 53.44660186767578,
    "education_level": "Unknown",
    "country_iso3_code": "POL",
    "giga_id_school": "514a2df2-8f5d-3e4f-b59f-3534aad3e731",
    "school_data_source": null
  },
  {
    "school_name": "Szkoła Przysposabiająca do Pracy",
    "longitude": 16.509286880493164,
    "latitude": 50.40557098388672,
    "education_level": "Unknown",
    "country_iso3_code": "POL",
    "giga_id_school": "fe1fce3b-2437-3c78-9887-34613f4472aa",
    "school_data_source": null
  },
  {
    "school_name": "Szkoła Podstawowa Specjalna",
    "longitude": 16.50977897644043,
    "latitude": 50.40557098388672,
    "education_level": "Unknown",
    "country_iso3_code": "POL",
    "giga_id_school": "461b2610-cc1c-3f13-98e9-61589d7c2300",
    "school_data_source": null
  },
  {
    "school_name": "Technikum Ekonomiczne",
    "longitude": 16.16254425048828,
    "latitude": 51.20502471923828,
    "education_level": "Unknown",
    "country_iso3_code": "POL",
    "giga_id_school": "a72a0de3-34f4-391b-905b-18d03c6635bc",
    "school_data_source": null
  },
  {
    "school_name": "Zespół Szkół Technicznych i Ogólnokształcących - Henrykówka",
    "longitude": 16.145267486572266,
    "latitude": 51.19886016845703,
    "education_level": "Unknown",
    "country_iso3_code": "POL",
    "giga_id_school": "e924e53e-46d6-3cab-85dd-5918a2388123",
    "school_data_source": null
  },
  {
    "school_name": "Zespół Szkół Integracyjnych nr 1",
    "longitude": 19.39472007751465,
    "latitude": 51.74200439453125,
    "education_level": "Unknown",
    "country_iso3_code": "POL",
    "giga_id_school": "8cd1701d-2d1c-3f3a-897b-293d787713d5",
    "school_data_source": null
  },
  {
    "school_name": "Kolegium Języków Obcych",
    "longitude": 20.615339279174805,
    "latitude": 52.878639221191406,
    "education_level": "Unknown",
    "country_iso3_code": "POL",
    "giga_id_school": "dd3c4463-116e-3b3a-bde8-2cfb9e116578",
    "school_data_source": null
  },
  {
    "school_name": "III Liceum Ogólnokształcące imienia Stanisława Staszica",
    "longitude": 20.60150909423828,
    "latitude": 52.882568359375,
    "education_level": "Unknown",
    "country_iso3_code": "POL",
    "giga_id_school": "b038b44f-7d7b-3595-a31d-3235c899bfca",
    "school_data_source": null
  },
  {
    "school_name": "Szkoła Podstawowa Nr 6",
    "longitude": 20.60590171813965,
    "latitude": 52.87828063964844,
    "education_level": "Unknown",
    "country_iso3_code": "POL",
    "giga_id_school": "0b153fb8-f8cc-37e2-8f0f-6ca91bdf7c7a",
    "school_data_source": null
  },
  {
    "school_name": "Miejski Zespół Szkół Nr 2",
    "longitude": 20.597190856933594,
    "latitude": 52.870670318603516,
    "education_level": "Unknown",
    "country_iso3_code": "POL",
    "giga_id_school": "269d3b3a-1b70-38a0-964c-6071a7e2c91a",
    "school_data_source": null
  },
  {
    "school_name": "Liceum Ogólnokształcące",
    "longitude": 21.362730026245117,
    "latitude": 53.48119354248047,
    "education_level": "Unknown",
    "country_iso3_code": "POL",
    "giga_id_school": "1833d2aa-adbc-3bf0-8826-28f2fcf3f28b",
    "school_data_source": null
  },
  {
    "school_name": "Zasadnicza Szkoła Zawodowa",
    "longitude": 21.362869262695312,
    "latitude": 53.481101989746094,
    "education_level": "Unknown",
    "country_iso3_code": "POL",
    "giga_id_school": "3e55bd3b-1f46-37eb-919b-324f0f4f7a0d",
    "school_data_source": null
  },
  {
    "school_name": "Zespół Szkół w Karczmiskach",
    "longitude": 21.99471664428711,
    "latitude": 51.230098724365234,
    "education_level": "Unknown",
    "country_iso3_code": "POL",
    "giga_id_school": "affb29be-8eb2-3dba-8e4c-3d9a150a6891",
    "school_data_source": null
  },
  {
    "school_name": "Szkoła Podstawowa im. Stanisława ze Skalbmierza",
    "longitude": 20.38996124267578,
    "latitude": 50.317806243896484,
    "education_level": "Unknown",
    "country_iso3_code": "POL",
    "giga_id_school": "23be1a3b-bb63-3e9c-85f7-8810870098bf",
    "school_data_source": null
  },
  {
    "school_name": "AP Edukacja",
    "longitude": 19.934110641479492,
    "latitude": 50.06275177001953,
    "education_level": "Unknown",
    "country_iso3_code": "POL",
    "giga_id_school": "192338dd-f68c-3a97-ac13-d09f76b993d2",
    "school_data_source": null
  },
  {
    "school_name": "Szkoła Podstawowa nr 66 im. Edwarda Dembowskiego w Krakowie",
    "longitude": 19.87366485595703,
    "latitude": 50.0167350769043,
    "education_level": "Unknown",
    "country_iso3_code": "POL",
    "giga_id_school": "b499220c-d300-3aaa-90e1-a1955eb790b9",
    "school_data_source": null
  },
  {
    "school_name": "Prywatna Szkoła Podstawowa nr 5",
    "longitude": 19.937776565551758,
    "latitude": 50.06428146362305,
    "education_level": "Unknown",
    "country_iso3_code": "POL",
    "giga_id_school": "e547b5ae-0fc1-30c2-bd97-2beaa4de763f",
    "school_data_source": null
  },
  {
    "school_name": "Prywatne Liceum Ogólnokształcące przy Klasztorze Prezentek",
    "longitude": 19.939014434814453,
    "latitude": 50.063499450683594,
    "education_level": "Unknown",
    "country_iso3_code": "POL",
    "giga_id_school": "3306fb5e-6d03-33ab-bcc3-0c908e7cd4a6",
    "school_data_source": null
  },
  {
    "school_name": "Zespół Szkół nr 6 imienia Mikołaja Reja",
    "longitude": 14.540201187133789,
    "latitude": 53.418418884277344,
    "education_level": "Unknown",
    "country_iso3_code": "POL",
    "giga_id_school": "f33532e9-b6a4-31aa-9b8e-190a391131a1",
    "school_data_source": null
  },
  {
    "school_name": "Zespół Szkół nr 3 imienia Oskara Langego",
    "longitude": 14.541088104248047,
    "latitude": 53.41830825805664,
    "education_level": "Unknown",
    "country_iso3_code": "POL",
    "giga_id_school": "2659ea1b-7b17-35c0-81b4-763c3a3e2146",
    "school_data_source": null
  },
  {
    "school_name": "Szkoła Podstawowa w Święcieńcu",
    "longitude": 19.916379928588867,
    "latitude": 52.5257682800293,
    "education_level": "Unknown",
    "country_iso3_code": "POL",
    "giga_id_school": "f313a9aa-b777-3f5a-972b-9b5fa7795d20",
    "school_data_source": null
  },
  {
    "school_name": "Szkoła Podstawowa w Męczeninie",
    "longitude": 19.841550827026367,
    "latitude": 52.60353088378906,
    "education_level": "Unknown",
    "country_iso3_code": "POL",
    "giga_id_school": "451b3385-69b9-39d2-8614-fcab021a532a",
    "school_data_source": null
  },
  {
    "school_name": "Zespół Szkół Ogólnokształcących nr 1",
    "longitude": 19.541048049926758,
    "latitude": 51.755584716796875,
    "education_level": "Unknown",
    "country_iso3_code": "POL",
    "giga_id_school": "56e8dede-23e0-3d4c-a29a-2d4ab2423659",
    "school_data_source": null
  },
  {
    "school_name": "Liceum Ogólnokształcące dla Dorosłych",
    "longitude": 20.476512908935547,
    "latitude": 53.780296325683594,
    "education_level": "Unknown",
    "country_iso3_code": "POL",
    "giga_id_school": "b43edb0a-aee6-3f90-8403-84596ce62449",
    "school_data_source": null
  },
  {
    "school_name": "II Liceum Ogólnokształcące im. K. I. Gałczyńskiego",
    "longitude": 20.4765567779541,
    "latitude": 53.780479431152344,
    "education_level": "Unknown",
    "country_iso3_code": "POL",
    "giga_id_school": "29078649-d939-31c4-a366-3fcd485726f8",
    "school_data_source": null
  },
  {
    "school_name": "Szkoła podstawowa nr 311 z oddziałami dwujęzycznymi i sportowymi",
    "longitude": 20.492948532104492,
    "latitude": 53.77772521972656,
    "education_level": "Unknown",
    "country_iso3_code": "POL",
    "giga_id_school": "aa3c1eef-3947-356b-a42d-a89e341a2641",
    "school_data_source": null
  },
  {
    "school_name": "XI Liceum Ogólnokształcące",
    "longitude": 20.493375778198242,
    "latitude": 53.77803421020508,
    "education_level": "Unknown",
    "country_iso3_code": "POL",
    "giga_id_school": "9ffe15a9-1ae5-3669-be1b-b7c3e3dde338",
    "school_data_source": null
  },
  {
    "school_name": "Szkoła Podstawowa nr 10",
    "longitude": 17.130929946899414,
    "latitude": 51.14400100708008,
    "education_level": "Unknown",
    "country_iso3_code": "POL",
    "giga_id_school": "62e62905-6a20-391f-bda7-e76b07533cc1",
    "school_data_source": null
  },
  {
    "school_name": "Szkoła Podstawowa nr 1 im. Karola Miarki",
    "longitude": 18.419618606567383,
    "latitude": 50.05838394165039,
    "education_level": "Unknown",
    "country_iso3_code": "POL",
    "giga_id_school": "92e2c7c2-1c7a-3af9-8f39-83809baf7f49",
    "school_data_source": null
  },
  {
    "school_name": "Szkoła Podstawowa nr 3",
    "longitude": 19.378108978271484,
    "latitude": 51.65491485595703,
    "education_level": "Unknown",
    "country_iso3_code": "POL",
    "giga_id_school": "cd4dd372-9ad9-3801-9371-1dccd9864507",
    "school_data_source": null
  },
  {
    "school_name": "Technikum Informatyczne SCI",
    "longitude": 14.555196762084961,
    "latitude": 53.43070983886719,
    "education_level": "Unknown",
    "country_iso3_code": "POL",
    "giga_id_school": "452307e4-cd69-3877-b1cc-e45cf18fbc4c",
    "school_data_source": null
  },
  {
    "school_name": "Zespół Szkół nr 1 w Nowym Sączu",
    "longitude": 20.69445037841797,
    "latitude": 49.61481475830078,
    "education_level": "Unknown",
    "country_iso3_code": "POL",
    "giga_id_school": "f215da15-6d63-3aa5-9854-4a7e13e1db31",
    "school_data_source": null
  },
  {
    "school_name": "Prywatna Szkoła Podstawowa Leonarda Piwoni",
    "longitude": 14.528902053833008,
    "latitude": 53.43175506591797,
    "education_level": "Unknown",
    "country_iso3_code": "POL",
    "giga_id_school": "5d0323eb-6eb5-371f-9580-85fa1eed0a3d",
    "school_data_source": null
  },
  {
    "school_name": "Instytut Ekonomiczny PWSZ",
    "longitude": 20.696136474609375,
    "latitude": 49.61666488647461,
    "education_level": "Unknown",
    "country_iso3_code": "POL",
    "giga_id_school": "3b856ca1-e047-338d-92fc-34b86bcfa23d",
    "school_data_source": null
  },
  {
    "school_name": "Państwowa Wyższa Szkoła Zawodowa w Nowym Sączu",
    "longitude": 20.695911407470703,
    "latitude": 49.61703109741211,
    "education_level": "Unknown",
    "country_iso3_code": "POL",
    "giga_id_school": "fff79212-11a5-3f94-a966-bc0f8fa062ba",
    "school_data_source": null
  },
  {
    "school_name": "Wyższa Szkoła Języków Obcych",
    "longitude": 16.922149658203125,
    "latitude": 52.40674591064453,
    "education_level": "Unknown",
    "country_iso3_code": "POL",
    "giga_id_school": "d10fed67-0a04-3480-91d3-38e14b2a8815",
    "school_data_source": null
  },
  {
    "school_name": "Studium Języków Obcych",
    "longitude": 16.92243194580078,
    "latitude": 52.40708541870117,
    "education_level": "Unknown",
    "country_iso3_code": "POL",
    "giga_id_school": "828f5d46-c459-360a-891d-150fd1ef30c7",
    "school_data_source": null
  },
  {
    "school_name": "KPU",
    "longitude": 21.711219787597656,
    "latitude": 49.718971252441406,
    "education_level": "Unknown",
    "country_iso3_code": "POL",
    "giga_id_school": "be38228e-0082-3cd1-aa9a-f6ccd17ac956",
    "school_data_source": null
  },
  {
    "school_name": "Technikum nr 5",
    "longitude": 16.15928840637207,
    "latitude": 51.204898834228516,
    "education_level": "Unknown",
    "country_iso3_code": "POL",
    "giga_id_school": "9b98df5b-950a-335b-acac-ca001f121ea2",
    "school_data_source": null
  },
  {
    "school_name": "Szkoła Podstawowa nr 35 imienia Jana Pawła II",
    "longitude": 14.555828094482422,
    "latitude": 53.45012283325195,
    "education_level": "Unknown",
    "country_iso3_code": "POL",
    "giga_id_school": "e56dd793-c345-33ec-95b2-12d67b832cac",
    "school_data_source": null
  },
  {
    "school_name": "Publiczna Szkoła Podstawowa Nr 1 Im. Królowej Jadwigi W Brzesku",
    "longitude": 20.61421012878418,
    "latitude": 49.96786117553711,
    "education_level": "Unknown",
    "country_iso3_code": "POL",
    "giga_id_school": "e84b7af3-842c-3cd0-88a0-de595ea91ffd",
    "school_data_source": null
  },
  {
    "school_name": "Szkoła Podstawowa Nr 1",
    "longitude": 20.61422348022461,
    "latitude": 49.96831512451172,
    "education_level": "Unknown",
    "country_iso3_code": "POL",
    "giga_id_school": "38336682-c877-3736-87ad-078a808f3e92",
    "school_data_source": null
  },
  {
    "school_name": "Szkoła Podstawowa nr 17 im. Eugeniusza Kwiatkowskiego w Tarnowie",
    "longitude": 20.927976608276367,
    "latitude": 49.99955368041992,
    "education_level": "Unknown",
    "country_iso3_code": "POL",
    "giga_id_school": "642c4054-b6ba-3d42-a09f-95c17648d57d",
    "school_data_source": null
  },
  {
    "school_name": "IV Liceum Ogólnokształcące im. Jana Pawła II w Tarnowie",
    "longitude": 20.928041458129883,
    "latitude": 49.999263763427734,
    "education_level": "Unknown",
    "country_iso3_code": "POL",
    "giga_id_school": "9f267efe-bd17-3dba-a657-e260832f62a3",
    "school_data_source": null
  },
  {
    "school_name": "Niepubliczna Niepłatna Szkoła Podstawowa w Tarnowie",
    "longitude": 21.010637283325195,
    "latitude": 50.004764556884766,
    "education_level": "Unknown",
    "country_iso3_code": "POL",
    "giga_id_school": "797b31c8-bd97-3ddf-a1ab-e3ec4987e258",
    "school_data_source": null
  },
  {
    "school_name": "ZSME",
    "longitude": 20.97528076171875,
    "latitude": 50.01546859741211,
    "education_level": "Unknown",
    "country_iso3_code": "POL",
    "giga_id_school": "5e198c38-5b58-3532-971f-f2b5173e7e99",
    "school_data_source": null
  },
  {
    "school_name": "Zespół Szkół Specjalnych dla Niesłyszących i Słabo Słyszących w Tarnowie",
    "longitude": 20.984468460083008,
    "latitude": 50.02360916137695,
    "education_level": "Unknown",
    "country_iso3_code": "POL",
    "giga_id_school": "e3b7f2b1-aa09-324a-a923-67ea1b076602",
    "school_data_source": null
  },
  {
    "school_name": "Zespół Szkół Muzycznych im. Ignacego Jana Paderewskiego w Tarnowie",
    "longitude": 20.984487533569336,
    "latitude": 50.02399444580078,
    "education_level": "Unknown",
    "country_iso3_code": "POL",
    "giga_id_school": "86a81989-8b14-3d1f-a25f-402587640e5f",
    "school_data_source": null
  },
  {
    "school_name": "Bydgoska Szkoła Wyższa",
    "longitude": 17.991159439086914,
    "latitude": 53.1327018737793,
    "education_level": "Unknown",
    "country_iso3_code": "POL",
    "giga_id_school": "9eba0691-6660-347b-ac31-bb5182093046",
    "school_data_source": null
  },
  {
    "school_name": "Szkoła Podstawowa nr 5 im. Polskich Olimpijczyków",
    "longitude": 18.404565811157227,
    "latitude": 53.40220642089844,
    "education_level": "Unknown",
    "country_iso3_code": "POL",
    "giga_id_school": "95f36555-6b01-3186-a352-e0ee8be6ef63",
    "school_data_source": null
  },
  {
    "school_name": "Zespół Szkół Specjalnych nr 1",
    "longitude": 18.423181533813477,
    "latitude": 53.406925201416016,
    "education_level": "Unknown",
    "country_iso3_code": "POL",
    "giga_id_school": "e919aae5-ee8f-3904-99dd-460bad49a9c7",
    "school_data_source": null
  },
  {
    "school_name": "Szkoła Podstawowa nr 1 im. Wojska Polskiego w Świeciu",
    "longitude": 18.44519805908203,
    "latitude": 53.41090393066406,
    "education_level": "Unknown",
    "country_iso3_code": "POL",
    "giga_id_school": "ec631546-6914-363b-b5b9-eaa48bb2b993",
    "school_data_source": null
  },
  {
    "school_name": "Zespół Szkół Ponadpodstawowych w Gryfinie",
    "longitude": 14.489151000976562,
    "latitude": 53.23775863647461,
    "education_level": "Unknown",
    "country_iso3_code": "POL",
    "giga_id_school": "ac36ad2e-ed9f-3fe5-98a6-c4452fb83a6f",
    "school_data_source": null
  },
  {
    "school_name": "Szkoła Podstawowa nr 1",
    "longitude": 16.377527236938477,
    "latitude": 52.710655212402344,
    "education_level": "Unknown",
    "country_iso3_code": "POL",
    "giga_id_school": "8081e46b-f44a-30ad-b00c-7c941fc86eae",
    "school_data_source": null
  },
  {
    "school_name": "Katolicka Szkoła Podstawowa",
    "longitude": 23.14764404296875,
    "latitude": 53.14127731323242,
    "education_level": "Unknown",
    "country_iso3_code": "POL",
    "giga_id_school": "c77fb101-3f8d-3513-bb8a-8eee9ed8f009",
    "school_data_source": null
  },
  {
    "school_name": "X Liceum Ogólnokształcące",
    "longitude": 14.523859024047852,
    "latitude": 53.40719985961914,
    "education_level": "Unknown",
    "country_iso3_code": "POL",
    "giga_id_school": "7c01a1ec-3729-3749-9500-e8d96bd7c751",
    "school_data_source": null
  },
  {
    "school_name": "Szkoła Podstawowa nr 55",
    "longitude": 14.523235321044922,
    "latitude": 53.407310485839844,
    "education_level": "Unknown",
    "country_iso3_code": "POL",
    "giga_id_school": "456d3cf4-87f0-3bd6-a0d4-f52637f32f20",
    "school_data_source": null
  },
  {
    "school_name": "Liceum Ogólnokształcące im. ks. Sajny",
    "longitude": 21.219196319580078,
    "latitude": 51.983917236328125,
    "education_level": "Unknown",
    "country_iso3_code": "POL",
    "giga_id_school": "10f5cf27-bfb3-3b0d-966c-0beaea2bc8aa",
    "school_data_source": null
  },
  {
    "school_name": "Szkoła Podstawowa im. Jana Pawła II w Łubienku",
    "longitude": 21.569765090942383,
    "latitude": 49.65092849731445,
    "education_level": "Unknown",
    "country_iso3_code": "POL",
    "giga_id_school": "3895ebc5-ea28-3fb1-9d7c-81b54b9e49cf",
    "school_data_source": null
  },
  {
    "school_name": "Zespół Szkół Zawodowych",
    "longitude": 20.943634033203125,
    "latitude": 49.708213806152344,
    "education_level": "Unknown",
    "country_iso3_code": "POL",
    "giga_id_school": "2deaf99e-5f42-3f95-be0a-5c78bb69d9c0",
    "school_data_source": null
  },
  {
    "school_name": "VII Liceum Ogólnokształcące im. Dąbrówki",
    "longitude": 16.892982482910156,
    "latitude": 52.416839599609375,
    "education_level": "Unknown",
    "country_iso3_code": "POL",
    "giga_id_school": "1fdbe978-f96b-3deb-bac6-da45ea968b89",
    "school_data_source": null
  },
  {
    "school_name": "Szkoła Podstawowa nr 16",
    "longitude": 18.9100284576416,
    "latitude": 50.312984466552734,
    "education_level": "Unknown",
    "country_iso3_code": "POL",
    "giga_id_school": "b848e4a3-8599-3cd1-9a59-e25429a67d1b",
    "school_data_source": null
  },
  {
    "school_name": "Szkoła Podstawowa im. Bolesława Chrobrego",
    "longitude": 16.904430389404297,
    "latitude": 51.467655181884766,
    "education_level": "Unknown",
    "country_iso3_code": "POL",
    "giga_id_school": "ce4ac36b-0f5f-385e-b4d5-ebb04361922d",
    "school_data_source": null
  },
  {
    "school_name": "Technikum nr 4",
    "longitude": 18.996122360229492,
    "latitude": 50.24458694458008,
    "education_level": "Unknown",
    "country_iso3_code": "POL",
    "giga_id_school": "4a43fcf8-6bc8-3ddc-983f-35fae4237e54",
    "school_data_source": null
  },
  {
    "school_name": "V Liceum Ogólnokształcące z Oddziałami Dwujęzycznymi im. Adama Asnyka",
    "longitude": 14.554842948913574,
    "latitude": 53.44065856933594,
    "education_level": "Unknown",
    "country_iso3_code": "POL",
    "giga_id_school": "ff2e6268-a615-3e0a-a6b8-66d9fd34e586",
    "school_data_source": null
  },
  {
    "school_name": "Szkoła Podstawowa im. Komisji Edukacji Narodowej w Zbylitowskiej Górze",
    "longitude": 20.902603149414062,
    "latitude": 49.98938751220703,
    "education_level": "Unknown",
    "country_iso3_code": "POL",
    "giga_id_school": "cab26e44-7ebc-306d-a4ab-b311bfea3bc3",
    "school_data_source": null
  },
  {
    "school_name": "XIV Liceum Ogólnokształcące",
    "longitude": 14.542490005493164,
    "latitude": 53.42235565185547,
    "education_level": "Unknown",
    "country_iso3_code": "POL",
    "giga_id_school": "1a690afc-4f35-3f6d-a82b-f0cfa7707384",
    "school_data_source": null
  },
  {
    "school_name": "Szkoła Podstawowa Nr 18",
    "longitude": 16.15597915649414,
    "latitude": 51.196739196777344,
    "education_level": "Unknown",
    "country_iso3_code": "POL",
    "giga_id_school": "662f0011-ec4d-31cb-9f87-8ae063e1ae50",
    "school_data_source": null
  },
  {
    "school_name": "Zespół Szkół Zawodowych nr 2 \"Gastronomik\"",
    "longitude": 20.016752243041992,
    "latitude": 51.5242919921875,
    "education_level": "Unknown",
    "country_iso3_code": "POL",
    "giga_id_school": "9c81bf84-df6f-3a4c-9d40-8e615e26d467",
    "school_data_source": null
  },
  {
    "school_name": "I Liceum Ogólnokształcące",
    "longitude": 20.014995574951172,
    "latitude": 51.53007125854492,
    "education_level": "Unknown",
    "country_iso3_code": "POL",
    "giga_id_school": "754e7ab9-65e7-3eb6-8724-dbb7d9cc2c3c",
    "school_data_source": null
  },
  {
    "school_name": "Zespół Szkół Nr 4",
    "longitude": 19.999298095703125,
    "latitude": 51.54263687133789,
    "education_level": "Unknown",
    "country_iso3_code": "POL",
    "giga_id_school": "dcce4ffb-b1f7-3523-b31a-3c63872fe2c3",
    "school_data_source": null
  },
  {
    "school_name": "Państwowa Szkoła Muzyczna II stopnia",
    "longitude": 20.0185489654541,
    "latitude": 51.528602600097656,
    "education_level": "Unknown",
    "country_iso3_code": "POL",
    "giga_id_school": "3ec723a2-9305-3bac-b57d-d68afe860b2b",
    "school_data_source": null
  },
  {
    "school_name": "Ośrodek Szkolno-Wychowawczy",
    "longitude": 20.021026611328125,
    "latitude": 51.53141403198242,
    "education_level": "Unknown",
    "country_iso3_code": "POL",
    "giga_id_school": "2ea8b9c2-426c-339b-a359-d673c29f05d5",
    "school_data_source": null
  },
  {
    "school_name": "II Liceum Ogólnokształcące",
    "longitude": 20.025793075561523,
    "latitude": 51.52590560913086,
    "education_level": "Unknown",
    "country_iso3_code": "POL",
    "giga_id_school": "2dc0e95a-691d-314b-b053-37fd64f88e95",
    "school_data_source": null
  },
  {
    "school_name": "Branżowa Szkoła I stopnia nr 8",
    "longitude": 14.669800758361816,
    "latitude": 53.398826599121094,
    "education_level": "Unknown",
    "country_iso3_code": "POL",
    "giga_id_school": "668d4f57-8d11-3da4-934c-a4360440886c",
    "school_data_source": null
  },
  {
    "school_name": "Technikum Kształtowania Środowiska",
    "longitude": 14.670400619506836,
    "latitude": 53.39872360229492,
    "education_level": "Unknown",
    "country_iso3_code": "POL",
    "giga_id_school": "0f7b846c-0ae5-3883-a99c-3447d77e9f17",
    "school_data_source": null
  },
  {
    "school_name": "Zespół Szkół Samorządowych numer 4",
    "longitude": 20.386064529418945,
    "latitude": 49.73891830444336,
    "education_level": "Unknown",
    "country_iso3_code": "POL",
    "giga_id_school": "b0e00894-fee0-3c59-bc45-8c434c4ff4ee",
    "school_data_source": null
  },
  {
    "school_name": "Zespół Szkół nr 1",
    "longitude": 18.770584106445312,
    "latitude": 53.023494720458984,
    "education_level": "Unknown",
    "country_iso3_code": "POL",
    "giga_id_school": "33d64cff-2cce-3eb1-b56a-018dc4b6bad9",
    "school_data_source": null
  },
  {
    "school_name": "Szkoła Podstawowa dla Dorosłych nr 4 im. Komisji Edukacji Narodowej",
    "longitude": 14.562570571899414,
    "latitude": 53.427738189697266,
    "education_level": "Unknown",
    "country_iso3_code": "POL",
    "giga_id_school": "bafc3f41-787b-3ebc-aa87-7780cdcc6078",
    "school_data_source": null
  },
  {
    "school_name": "Szkoła Podstawowa nr 33 im. Osadników Wojskowych i Pionierów Ziemi Szczecińskiej",
    "longitude": 14.562967300415039,
    "latitude": 53.4278450012207,
    "education_level": "Unknown",
    "country_iso3_code": "POL",
    "giga_id_school": "720cd517-11fe-37a8-a9d1-9d485e8c7147",
    "school_data_source": null
  },
  {
    "school_name": "XII Liceum Ogólnokształcące",
    "longitude": 14.56265926361084,
    "latitude": 53.42791748046875,
    "education_level": "Unknown",
    "country_iso3_code": "POL",
    "giga_id_school": "e954e91d-6e78-3de8-bcbe-97c5a5dac1c5",
    "school_data_source": null
  },
  {
    "school_name": "Szkoła Podstawowa Nr 15",
    "longitude": 14.540292739868164,
    "latitude": 53.42828369140625,
    "education_level": "Unknown",
    "country_iso3_code": "POL",
    "giga_id_school": "8ab5efe0-12f0-321d-b8e3-085dcfccafef",
    "school_data_source": null
  },
  {
    "school_name": "XXV Liceum Ogólnokształcące im. Stefana Żeromskiego",
    "longitude": 20.016050338745117,
    "latitude": 50.01974868774414,
    "education_level": "Unknown",
    "country_iso3_code": "POL",
    "giga_id_school": "1a958957-2042-3285-ab4a-0358a57217ed",
    "school_data_source": null
  },
  {
    "school_name": "Szkoła Podstawowa Specjalna nr 121 im. św. Franciszka z Asyżu",
    "longitude": 20.016624450683594,
    "latitude": 50.01974868774414,
    "education_level": "Unknown",
    "country_iso3_code": "POL",
    "giga_id_school": "0a0632f0-eac2-30d1-84f8-fdc0f9f70ceb",
    "school_data_source": null
  },
  {
    "school_name": "Szkoła Podstawowa nr 2 z Oddziałami Dwujęzycznymi",
    "longitude": 14.487886428833008,
    "latitude": 53.452632904052734,
    "education_level": "Unknown",
    "country_iso3_code": "POL",
    "giga_id_school": "287ccc86-f8b4-3077-9d1e-ca88236cb459",
    "school_data_source": null
  },
  {
    "school_name": "Zespół Szkół Mielnik",
    "longitude": 23.044214248657227,
    "latitude": 52.33240509033203,
    "education_level": "Unknown",
    "country_iso3_code": "POL",
    "giga_id_school": "912c2054-df42-3f8e-b2d4-233a03c0c507",
    "school_data_source": null
  },
  {
    "school_name": "Społeczne Liceum Ogólnokształcące nr 5 STO",
    "longitude": 20.67159652709961,
    "latitude": 52.1201286315918,
    "education_level": "Unknown",
    "country_iso3_code": "POL",
    "giga_id_school": "bbcace6b-dce2-32bb-86eb-edb19428415e",
    "school_data_source": null
  },
  {
    "school_name": "Szkoła Podstawowa nr 1 imienia Tadeusza Kościuszki",
    "longitude": 20.248945236206055,
    "latitude": 51.76222610473633,
    "education_level": "Unknown",
    "country_iso3_code": "POL",
    "giga_id_school": "0a9df178-82f7-3fd7-8415-a72e2ac5ed39",
    "school_data_source": null
  },
  {
    "school_name": "Szkoła podstawowa nr 1 im. Św. Jana Pawła II",
    "longitude": 19.197734832763672,
    "latitude": 52.05778884887695,
    "education_level": "Unknown",
    "country_iso3_code": "POL",
    "giga_id_school": "18333357-f250-3cb3-bdb1-74b946a741b1",
    "school_data_source": null
  },
  {
    "school_name": "Szkoła podstawowa",
    "longitude": 17.22796058654785,
    "latitude": 50.98900604248047,
    "education_level": "Unknown",
    "country_iso3_code": "POL",
    "giga_id_school": "184ad3bf-0a69-381e-bd35-0d309d36fca2",
    "school_data_source": null
  },
  {
    "school_name": "Clark University",
    "longitude": 19.450302124023438,
    "latitude": 51.76089096069336,
    "education_level": "Unknown",
    "country_iso3_code": "POL",
    "giga_id_school": "133a446d-6fcc-3414-ae6a-5cc62a5f50a1",
    "school_data_source": null
  },
  {
    "school_name": "Ekonomik",
    "longitude": 20.40233039855957,
    "latitude": 51.1922607421875,
    "education_level": "Unknown",
    "country_iso3_code": "POL",
    "giga_id_school": "71b0c85b-3c54-3855-a2ea-d80ae014c4b1",
    "school_data_source": null
  },
  {
    "school_name": "Zakład Doskonalenia Zawodowego w Kielcach",
    "longitude": 20.4005126953125,
    "latitude": 51.19242477416992,
    "education_level": "Unknown",
    "country_iso3_code": "POL",
    "giga_id_school": "2f11d88d-58f3-30ce-a210-114102a25d9d",
    "school_data_source": null
  },
  {
    "school_name": "Zespół Szkół nr 3",
    "longitude": 16.632476806640625,
    "latitude": 52.0742301940918,
    "education_level": "Unknown",
    "country_iso3_code": "POL",
    "giga_id_school": "914efb85-bc2f-3400-b94d-0ed899277ccc",
    "school_data_source": null
  },
  {
    "school_name": "Szkoła językowa",
    "longitude": 19.477075576782227,
    "latitude": 51.702369689941406,
    "education_level": "Unknown",
    "country_iso3_code": "POL",
    "giga_id_school": "1ce332ce-b700-3bf5-a22e-d4f8c7c4924d",
    "school_data_source": null
  },
  {
    "school_name": "Technikum nr 1",
    "longitude": 20.403038024902344,
    "latitude": 51.19889831542969,
    "education_level": "Unknown",
    "country_iso3_code": "POL",
    "giga_id_school": "98659aea-df64-3826-b302-06eaada78419",
    "school_data_source": null
  },
  {
    "school_name": "Ośrodek Szkolno-wychowawczy nr 1",
    "longitude": 19.92820930480957,
    "latitude": 50.06279754638672,
    "education_level": "Unknown",
    "country_iso3_code": "POL",
    "giga_id_school": "b38dbf25-3d74-3838-92af-7d92d5b6f2c8",
    "school_data_source": null
  },
  {
    "school_name": "Szkoła Podstawowa im. Pierwszych Osadników",
    "longitude": 15.098930358886719,
    "latitude": 51.439857482910156,
    "education_level": "Unknown",
    "country_iso3_code": "POL",
    "giga_id_school": "d23bd262-48fa-3edf-ace0-a80517bc66a6",
    "school_data_source": null
  },
  {
    "school_name": "Szkoła Podstawowa Specjalna nr 39",
    "longitude": 19.468111038208008,
    "latitude": 51.80788803100586,
    "education_level": "Unknown",
    "country_iso3_code": "POL",
    "giga_id_school": "6ae0afc1-14f2-387f-a306-f452a9802877",
    "school_data_source": null
  },
  {
    "school_name": "LVI Liceum Ogólnokształcące Specjalne",
    "longitude": 19.46830940246582,
    "latitude": 51.80767822265625,
    "education_level": "Unknown",
    "country_iso3_code": "POL",
    "giga_id_school": "9b25b62b-e5b7-322d-b436-b866a78bc89f",
    "school_data_source": null
  },
  {
    "school_name": "Technikum Specjalne nr 23",
    "longitude": 19.467702865600586,
    "latitude": 51.80770492553711,
    "education_level": "Unknown",
    "country_iso3_code": "POL",
    "giga_id_school": "d618ae41-cbd1-3bf8-9714-064f136258c0",
    "school_data_source": null
  },
  {
    "school_name": "Zaoczne Liceum Ogólnokształcące „Cosinus II”",
    "longitude": 19.449420928955078,
    "latitude": 51.775028228759766,
    "education_level": "Unknown",
    "country_iso3_code": "POL",
    "giga_id_school": "9c5f9dba-0fa6-37b3-9244-5b4cd273ddbb",
    "school_data_source": null
  },
  {
    "school_name": "Liceum Ogólnokształcące dla dorosłych Profesja",
    "longitude": 19.455873489379883,
    "latitude": 51.77433776855469,
    "education_level": "Unknown",
    "country_iso3_code": "POL",
    "giga_id_school": "a7dc61dd-fbc1-3fa2-8401-1348410be80a",
    "school_data_source": null
  },
  {
    "school_name": "SP 10",
    "longitude": 19.392772674560547,
    "latitude": 51.87669372558594,
    "education_level": "Unknown",
    "country_iso3_code": "POL",
    "giga_id_school": "33690b84-000f-31bb-adae-0c10407c4cd1",
    "school_data_source": null
  },
  {
    "school_name": "LO im. Stefana Żeromskiego – Zespół Szkół Ogólnokształcących",
    "longitude": 19.28949546813965,
    "latitude": 51.96186065673828,
    "education_level": "Unknown",
    "country_iso3_code": "POL",
    "giga_id_school": "ef88dc1e-6988-33c3-b2e4-6988244456b9",
    "school_data_source": null
  },
  {
    "school_name": "Zespół Szkół Zawodowych ul. J. Słowackiego 2",
    "longitude": 19.2910213470459,
    "latitude": 51.967185974121094,
    "education_level": "Unknown",
    "country_iso3_code": "POL",
    "giga_id_school": "42533fa4-8722-3415-a708-47e6c95b3ffb",
    "school_data_source": null
  },
  {
    "school_name": "Szkoła Podstawowa nr 4 w Ozorkowie",
    "longitude": 19.306751251220703,
    "latitude": 51.95888137817383,
    "education_level": "Unknown",
    "country_iso3_code": "POL",
    "giga_id_school": "7713cf90-9fd6-3ee7-9027-244ebc87a028",
    "school_data_source": null
  },
  {
    "school_name": "Szkoła Podstawowa nr 5 w Ozorkowie 4-5",
    "longitude": 19.278772354125977,
    "latitude": 51.96119689941406,
    "education_level": "Unknown",
    "country_iso3_code": "POL",
    "giga_id_school": "7b6d26eb-27ee-3a75-8241-72c3dd21738e",
    "school_data_source": null
  },
  {
    "school_name": "Szkoła Podstawowa nr 5 w Ozorkowie 1-3",
    "longitude": 19.277109146118164,
    "latitude": 51.95753479003906,
    "education_level": "Unknown",
    "country_iso3_code": "POL",
    "giga_id_school": "b4a86871-9b30-34e9-8753-7290f98b1322",
    "school_data_source": null
  },
  {
    "school_name": "Computer College",
    "longitude": 16.192108154296875,
    "latitude": 54.18229675292969,
    "education_level": "Unknown",
    "country_iso3_code": "POL",
    "giga_id_school": "c128657e-888e-3913-bf73-f528558e9c18",
    "school_data_source": null
  },
  {
    "school_name": "Szkoła Podstawowa Nr 28 im. Synów Pułku Ziemi Lubelskiej",
    "longitude": 22.531375885009766,
    "latitude": 51.22867202758789,
    "education_level": "Unknown",
    "country_iso3_code": "POL",
    "giga_id_school": "cd16b535-34a0-3611-aeee-38cca80b5ba9",
    "school_data_source": null
  },
  {
    "school_name": "Szkoła podstawowa numer 13 imienia Henryka Sienkiewicza",
    "longitude": 19.158039093017578,
    "latitude": 50.22348403930664,
    "education_level": "Unknown",
    "country_iso3_code": "POL",
    "giga_id_school": "a69e5847-3193-39a2-b8e8-efac11dc5337",
    "school_data_source": null
  },
  {
    "school_name": "I Społeczna Szkoła Podstawowa Towarzystwa Przyjaciół Zgierza",
    "longitude": 19.390546798706055,
    "latitude": 51.860618591308594,
    "education_level": "Unknown",
    "country_iso3_code": "POL",
    "giga_id_school": "c4cd4426-e9f2-3024-8ca6-7770b26f1856",
    "school_data_source": null
  },
  {
    "school_name": "Liceum Ogólnokształcące im. Romualda Traugutta",
    "longitude": 23.172731399536133,
    "latitude": 51.197322845458984,
    "education_level": "Unknown",
    "country_iso3_code": "POL",
    "giga_id_school": "454fff8f-0e08-383d-a74a-743a27c8963a",
    "school_data_source": null
  },
  {
    "school_name": "Zespół Szkół Ogólnokształcących numer 14",
    "longitude": 20.006633758544922,
    "latitude": 50.08349609375,
    "education_level": "Unknown",
    "country_iso3_code": "POL",
    "giga_id_school": "90465fac-9d74-3354-91c8-bb4d33e6a8bf",
    "school_data_source": null
  },
  {
    "school_name": "Zespół Szkół Zawodowych Nr 3 im. Wincentego Rzymowskiego w Skierniewicach",
    "longitude": 20.15629005432129,
    "latitude": 51.985015869140625,
    "education_level": "Unknown",
    "country_iso3_code": "POL",
    "giga_id_school": "da12469d-aad9-3216-b830-d72417fdeb9d",
    "school_data_source": null
  },
  {
    "school_name": "Zespół Szkół Rolniczych",
    "longitude": 15.76188850402832,
    "latitude": 53.77219009399414,
    "education_level": "Unknown",
    "country_iso3_code": "POL",
    "giga_id_school": "1720dc13-bc84-3c2f-bd1c-31d843ae0782",
    "school_data_source": null
  },
  {
    "school_name": "Zespół Szkół Specjalnych",
    "longitude": 15.71092700958252,
    "latitude": 53.90232849121094,
    "education_level": "Unknown",
    "country_iso3_code": "POL",
    "giga_id_school": "72f3c2d2-131a-33c3-b39a-fa127adc8085",
    "school_data_source": null
  },
  {
    "school_name": "Publiczna Szkoła Podstawowa nr 1 im. Tadeusza Kościuszki",
    "longitude": 15.702884674072266,
    "latitude": 53.88908386230469,
    "education_level": "Unknown",
    "country_iso3_code": "POL",
    "giga_id_school": "6fda16b7-e336-3f46-8f6e-dc48886d6c1f",
    "school_data_source": null
  },
  {
    "school_name": "Publiczna Szkoła Podstawowa z Oddziałami Integracyjnymi nr 2 im. ppor. Emilii Gierczak",
    "longitude": 15.778969764709473,
    "latitude": 53.78090286254883,
    "education_level": "Unknown",
    "country_iso3_code": "POL",
    "giga_id_school": "e5692c47-bd0d-378e-8076-501253185739",
    "school_data_source": null
  },
  {
    "school_name": "Technikum nr 2 Architektoniczno-Budowlane",
    "longitude": 19.187828063964844,
    "latitude": 50.30238723754883,
    "education_level": "Unknown",
    "country_iso3_code": "POL",
    "giga_id_school": "86f757bb-14d6-3c11-b2b6-18d2a038e517",
    "school_data_source": null
  },
  {
    "school_name": "Publiczna Szkoła Podstawowa nr 4 im. Osadników Wojskowych",
    "longitude": 15.78372859954834,
    "latitude": 53.772438049316406,
    "education_level": "Unknown",
    "country_iso3_code": "POL",
    "giga_id_school": "b214b6dc-e369-3153-9a35-9ce83da56e83",
    "school_data_source": null
  },
  {
    "school_name": "SP nr 3",
    "longitude": 15.825284004211426,
    "latitude": 53.777626037597656,
    "education_level": "Unknown",
    "country_iso3_code": "POL",
    "giga_id_school": "b554474c-acaf-3118-9fab-2e885fe2e670",
    "school_data_source": null
  },
  {
    "school_name": "Szkoła Katolicka",
    "longitude": 16.190893173217773,
    "latitude": 54.206417083740234,
    "education_level": "Unknown",
    "country_iso3_code": "POL",
    "giga_id_school": "8be10ef2-4741-3023-8a65-86a5c13979d7",
    "school_data_source": null
  },
  {
    "school_name": "Zespół Szkół im. Armii Krajowej",
    "longitude": 22.104450225830078,
    "latitude": 50.603485107421875,
    "education_level": "Unknown",
    "country_iso3_code": "POL",
    "giga_id_school": "ca15bd17-c8ef-34fc-8960-9699043e6c7e",
    "school_data_source": null
  },
  {
    "school_name": "Szkoła Podstawowa w Krutyni",
    "longitude": 21.42989158630371,
    "latitude": 53.687252044677734,
    "education_level": "Unknown",
    "country_iso3_code": "POL",
    "giga_id_school": "d26767fd-5b13-3e64-bcd8-91b5b41c50f1",
    "school_data_source": null
  },
  {
    "school_name": "Publiczna Szkoła Podstawowa im. Filipa Roboty w Łączniku",
    "longitude": 17.725522994995117,
    "latitude": 50.45542526245117,
    "education_level": "Unknown",
    "country_iso3_code": "POL",
    "giga_id_school": "3ebc9e8b-ce13-36d6-91fd-8f9e00772a6d",
    "school_data_source": null
  },
  {
    "school_name": "Szkoła Podstawowa Stowarzyszenia Pro Liberis Silesiae",
    "longitude": 17.99746322631836,
    "latitude": 50.62295150756836,
    "education_level": "Unknown",
    "country_iso3_code": "POL",
    "giga_id_school": "f06e12ba-6a38-372d-a46f-cdfb24925172",
    "school_data_source": null
  },
  {
    "school_name": "Publiczna Szkoła Podstawowa nr 24",
    "longitude": 17.962299346923828,
    "latitude": 50.626007080078125,
    "education_level": "Unknown",
    "country_iso3_code": "POL",
    "giga_id_school": "32f2b6ef-e009-3c59-b94e-0ff3ea590b86",
    "school_data_source": null
  },
  {
    "school_name": "III Liceum Ogólnokształcące",
    "longitude": 17.605098724365234,
    "latitude": 52.5341911315918,
    "education_level": "Unknown",
    "country_iso3_code": "POL",
    "giga_id_school": "09616fe4-09d4-3e78-a3ce-b13c71d2010e",
    "school_data_source": null
  },
  {
    "school_name": "Zespół Szkół Przyrodniczo-Usługowych",
    "longitude": 17.604707717895508,
    "latitude": 52.533878326416016,
    "education_level": "Unknown",
    "country_iso3_code": "POL",
    "giga_id_school": "351c95f8-eb09-39fa-8733-e62a411432d3",
    "school_data_source": null
  },
  {
    "school_name": "Szkoła Podstawowa w Rzymkowicach",
    "longitude": 17.680011749267578,
    "latitude": 50.493919372558594,
    "education_level": "Unknown",
    "country_iso3_code": "POL",
    "giga_id_school": "75fa722b-818d-3dc1-a873-41148e65ee2c",
    "school_data_source": null
  },
  {
    "school_name": "Instytut Zdrowia PWSZ",
    "longitude": 20.69651222229004,
    "latitude": 49.616641998291016,
    "education_level": "Unknown",
    "country_iso3_code": "POL",
    "giga_id_school": "5f5ef199-29af-3d6d-897b-515a20ad2f4a",
    "school_data_source": null
  },
  {
    "school_name": "Jezuickie Centrum Edukacji",
    "longitude": 20.691450119018555,
    "latitude": 49.62684631347656,
    "education_level": "Unknown",
    "country_iso3_code": "POL",
    "giga_id_school": "710c41f2-a787-32b8-9af0-35a3dad09731",
    "school_data_source": null
  },
  {
    "school_name": "Szkoła Podstawowa nr 12 imienia Armii Krajowej",
    "longitude": 19.379898071289062,
    "latitude": 51.864017486572266,
    "education_level": "Unknown",
    "country_iso3_code": "POL",
    "giga_id_school": "0a616874-2b36-33ed-a23e-df77816030ad",
    "school_data_source": null
  },
  {
    "school_name": "Szkoła Podstawowa nr 33 im. Stefana Banacha w Gdańsku",
    "longitude": 18.479074478149414,
    "latitude": 54.42094802856445,
    "education_level": "Unknown",
    "country_iso3_code": "POL",
    "giga_id_school": "f137e992-098d-3a25-b6d4-df339f4a288b",
    "school_data_source": null
  },
  {
    "school_name": "Zespół Szkół nr 1 im. Powstańców Wielkopolskich",
    "longitude": 16.377349853515625,
    "latitude": 52.71782684326172,
    "education_level": "Unknown",
    "country_iso3_code": "POL",
    "giga_id_school": "e87ca3e6-1329-3ea0-ad72-59299ce35fc2",
    "school_data_source": null
  },
  {
    "school_name": "I LO im. Kazimierza Wielkiego",
    "longitude": 18.93805694580078,
    "latitude": 51.60200500488281,
    "education_level": "Unknown",
    "country_iso3_code": "POL",
    "giga_id_school": "9dcda8ea-f450-3b79-b19d-9c82b8bb459f",
    "school_data_source": null
  },
  {
    "school_name": "Kujawsko-Pomorskie Centrum Edukacji Ekologicznej",
    "longitude": 18.01976203918457,
    "latitude": 53.16727066040039,
    "education_level": "Unknown",
    "country_iso3_code": "POL",
    "giga_id_school": "7e2a8155-6fe0-3a6a-be64-6353dbc4d899",
    "school_data_source": null
  },
  {
    "school_name": "Szkoła Podstawowa Nr 109 imienia Kornela Makuszyńskiego w Krakowie",
    "longitude": 19.94599151611328,
    "latitude": 50.093448638916016,
    "education_level": "Unknown",
    "country_iso3_code": "POL",
    "giga_id_school": "dd64b304-3480-3fe5-9b34-b43abc52e565",
    "school_data_source": null
  },
  {
    "school_name": "Samorządowe Przedszkole nr 30",
    "longitude": 19.946613311767578,
    "latitude": 50.093326568603516,
    "education_level": "Unknown",
    "country_iso3_code": "POL",
    "giga_id_school": "6a7f7961-d4de-3a19-84f8-f403b74e79ff",
    "school_data_source": null
  },
  {
    "school_name": "Szkoła Zawodowa Buk",
    "longitude": 16.5209903717041,
    "latitude": 52.354103088378906,
    "education_level": "Unknown",
    "country_iso3_code": "POL",
    "giga_id_school": "e985c7b5-1613-3ded-9b5d-1f821dba39de",
    "school_data_source": null
  },
  {
    "school_name": "Szkoła Podstawowa Dobieżyn",
    "longitude": 16.540185928344727,
    "latitude": 52.331058502197266,
    "education_level": "Unknown",
    "country_iso3_code": "POL",
    "giga_id_school": "e752a83a-b039-3fe0-b7c2-b262c81b72ff",
    "school_data_source": null
  },
  {
    "school_name": "Szkoła Podstawowa nr 2",
    "longitude": 20.36539077758789,
    "latitude": 49.55898666381836,
    "education_level": "Unknown",
    "country_iso3_code": "POL",
    "giga_id_school": "9d74c565-8e94-3df4-b49a-9c848d9f5d02",
    "school_data_source": null
  },
  {
    "school_name": "Szkoła Podstawowa im. Bogdana Jańskiego",
    "longitude": 20.02064323425293,
    "latitude": 50.07992172241211,
    "education_level": "Unknown",
    "country_iso3_code": "POL",
    "giga_id_school": "496b7c81-2104-31ae-b109-4b91e2c70b0c",
    "school_data_source": null
  },
  {
    "school_name": "Zespół Szkół Elektrycznych nr 2",
    "longitude": 20.048423767089844,
    "latitude": 50.07771682739258,
    "education_level": "Unknown",
    "country_iso3_code": "POL",
    "giga_id_school": "ad35b0f6-a7bf-355c-bace-036fc6d93056",
    "school_data_source": null
  },
  {
    "school_name": "I Liceum Ogólnokształcące Sportowe",
    "longitude": 20.034618377685547,
    "latitude": 50.079254150390625,
    "education_level": "Unknown",
    "country_iso3_code": "POL",
    "giga_id_school": "64b744b3-4c3e-345f-bdaa-3549d72cc578",
    "school_data_source": null
  },
  {
    "school_name": "Szkoła Podstawowa nr 87 - Sportowa im. dr Henryka Jordana",
    "longitude": 20.034860610961914,
    "latitude": 50.07937240600586,
    "education_level": "Unknown",
    "country_iso3_code": "POL",
    "giga_id_school": "74dad353-562b-3bf3-ac53-d485cf24051d",
    "school_data_source": null
  },
  {
    "school_name": "Szkoła Podstawowa im. Jana Brzechwy",
    "longitude": 17.114168167114258,
    "latitude": 51.04619598388672,
    "education_level": "Unknown",
    "country_iso3_code": "POL",
    "giga_id_school": "71f10702-1ca7-3211-9f21-7387a8b3eb28",
    "school_data_source": null
  },
  {
    "school_name": "Szkoła Podstawowa im. Kawalerów Orderu Uśmiechu",
    "longitude": 17.080169677734375,
    "latitude": 52.447933197021484,
    "education_level": "Unknown",
    "country_iso3_code": "POL",
    "giga_id_school": "2d97c9b7-3237-3371-9f95-dc1bb52ca3a0",
    "school_data_source": null
  },
  {
    "school_name": "Zespół Szkół nr 3 w Grajewie",
    "longitude": 22.465721130371094,
    "latitude": 53.64588165283203,
    "education_level": "Unknown",
    "country_iso3_code": "POL",
    "giga_id_school": "b3fe68ce-d503-377b-becb-8007872904e4",
    "school_data_source": null
  },
  {
    "school_name": "LX Liceum Ogólnokształcące im. Wojciecha Górskiego",
    "longitude": 20.932819366455078,
    "latitude": 52.283687591552734,
    "education_level": "Unknown",
    "country_iso3_code": "POL",
    "giga_id_school": "0a51a0c1-8c36-3b1d-94ed-c067e83aafc1",
    "school_data_source": null
  },
  {
    "school_name": "II Liceum Ogólnokształcące im. Mikołaja Kopernika w Kędzierzynie-Koźlu",
    "longitude": 18.21160125732422,
    "latitude": 50.34304428100586,
    "education_level": "Unknown",
    "country_iso3_code": "POL",
    "giga_id_school": "ac9f5c8f-d44e-33ee-85bf-be4259a45b32",
    "school_data_source": null
  },
  {
    "school_name": "Powiatowy Zespół Nr 10 Szkół Mechaniczno-Elektrycznych",
    "longitude": 19.21841049194336,
    "latitude": 49.87369918823242,
    "education_level": "Unknown",
    "country_iso3_code": "POL",
    "giga_id_school": "992a5ca2-7054-38f8-9115-11918ec08f96",
    "school_data_source": null
  },
  {
    "school_name": "Szkoła Podstawowa w Kunowicach  im. Kornela Makuszyńskiego",
    "longitude": 14.631672859191895,
    "latitude": 52.35054397583008,
    "education_level": "Unknown",
    "country_iso3_code": "POL",
    "giga_id_school": "492d6ee5-a017-3ee7-9ab3-ffe8bd5c8be1",
    "school_data_source": null
  },
  {
    "school_name": "Szkoła Podstawowa nr 301 im. Gen. Zygmunta Berlinga",
    "longitude": 20.91314697265625,
    "latitude": 52.22572326660156,
    "education_level": "Unknown",
    "country_iso3_code": "POL",
    "giga_id_school": "fcb94fd2-640d-3ef6-91dd-9c764453c70e",
    "school_data_source": null
  },
  {
    "school_name": "Wyższa Szkoła Agrobiznesu w Łomży",
    "longitude": 22.03936195373535,
    "latitude": 53.17265701293945,
    "education_level": "Unknown",
    "country_iso3_code": "POL",
    "giga_id_school": "44c8d35c-3be5-3d46-91be-b774f1fc1909",
    "school_data_source": null
  },
  {
    "school_name": "Zespół Szkól Zawodowych",
    "longitude": 20.95171546936035,
    "latitude": 49.62630081176758,
    "education_level": "Unknown",
    "country_iso3_code": "POL",
    "giga_id_school": "77045d6b-9f5a-3215-96f3-c9adde71012a",
    "school_data_source": null
  },
  {
    "school_name": "Liceum Ogólnokształcące im. Grottgera",
    "longitude": 20.9449405670166,
    "latitude": 49.624725341796875,
    "education_level": "Unknown",
    "country_iso3_code": "POL",
    "giga_id_school": "6b94be5f-9c0f-3f45-9547-16a4349d95f6",
    "school_data_source": null
  },
  {
    "school_name": "Szkoła Podstawowa nr 27 im. K. K. Baczyńskiego w Kielcach",
    "longitude": 20.64466667175293,
    "latitude": 50.89236831665039,
    "education_level": "Unknown",
    "country_iso3_code": "POL",
    "giga_id_school": "f488479c-b929-3c7d-bb7c-39c5f7be0bd9",
    "school_data_source": null
  },
  {
    "school_name": "V Liceum Ogólnokształcące im. ks. Piotra Ściegiennego w Kielcach",
    "longitude": 20.64443588256836,
    "latitude": 50.8920783996582,
    "education_level": "Unknown",
    "country_iso3_code": "POL",
    "giga_id_school": "e185a5f6-7c9f-35b5-a18e-43fb69419b62",
    "school_data_source": null
  },
  {
    "school_name": "Zespół Szkół Zawodowych imienia Tadeusza Kutrzeby",
    "longitude": 16.80889320373535,
    "latitude": 52.64765167236328,
    "education_level": "Unknown",
    "country_iso3_code": "POL",
    "giga_id_school": "af225cf0-008d-37ca-a29b-1479b56fbda6",
    "school_data_source": null
  },
  {
    "school_name": "Szkoła Podstawowa im. Kornela Makuszyńskiego",
    "longitude": 18.488962173461914,
    "latitude": 52.98655319213867,
    "education_level": "Unknown",
    "country_iso3_code": "POL",
    "giga_id_school": "6d6ae87c-ed70-3327-b2ff-a8881d12fcca",
    "school_data_source": null
  },
  {
    "school_name": "Zespół Szkół im. ks. A. Kwiatkowskiego w Bychawie",
    "longitude": 22.542293548583984,
    "latitude": 51.01256561279297,
    "education_level": "Unknown",
    "country_iso3_code": "POL",
    "giga_id_school": "4821184a-070a-323d-9c82-7c9df91d3c9a",
    "school_data_source": null
  },
  {
    "school_name": "Szkoła Podstawowa im. Polski Niepodległej w Bychawie",
    "longitude": 22.531774520874023,
    "latitude": 51.01435089111328,
    "education_level": "Unknown",
    "country_iso3_code": "POL",
    "giga_id_school": "a209b5ac-4273-3ebb-b2ce-4c843d0e703d",
    "school_data_source": null
  },
  {
    "school_name": "Wielokulturowe Liceum Humanistyczne im. Jacka Kuronia",
    "longitude": 21.035682678222656,
    "latitude": 52.252235412597656,
    "education_level": "Unknown",
    "country_iso3_code": "POL",
    "giga_id_school": "f37de766-5ee2-3bd1-89f2-a611592ba123",
    "school_data_source": null
  },
  {
    "school_name": "Szkoła Podstawowa nr 260 im. Jana Matejki",
    "longitude": 21.039960861206055,
    "latitude": 52.204864501953125,
    "education_level": "Unknown",
    "country_iso3_code": "POL",
    "giga_id_school": "74481102-8be0-3607-ac6c-25f701a5a80a",
    "school_data_source": null
  },
  {
    "school_name": "Liceum Ogólnokształcące dla Dorosłych \"Bakałarz\"",
    "longitude": 19.40152931213379,
    "latitude": 51.8634147644043,
    "education_level": "Unknown",
    "country_iso3_code": "POL",
    "giga_id_school": "396089bc-2fb8-3b62-88b2-7db679b0e44f",
    "school_data_source": null
  },
  {
    "school_name": "SP8",
    "longitude": 19.38282585144043,
    "latitude": 51.86001205444336,
    "education_level": "Unknown",
    "country_iso3_code": "POL",
    "giga_id_school": "b7482d76-b77b-3f24-ad54-d9b54d2dc234",
    "school_data_source": null
  },
  {
    "school_name": "Wyższa Szkoła Finansów i Zarządzania",
    "longitude": 21.882497787475586,
    "latitude": 52.796722412109375,
    "education_level": "Unknown",
    "country_iso3_code": "POL",
    "giga_id_school": "b47a2ed7-d564-3147-9839-c3d9625bc5ef",
    "school_data_source": null
  },
  {
    "school_name": "Szkoła Podstawowa im. Henryka Sienkiewicza w Jastrzębiu",
    "longitude": 20.471405029296875,
    "latitude": 49.59580612182617,
    "education_level": "Unknown",
    "country_iso3_code": "POL",
    "giga_id_school": "fffe562d-fcd8-3286-9700-cd1443577aed",
    "school_data_source": null
  },
  {
    "school_name": "Wyższa Szkoła Ekonomii i Administracji",
    "longitude": 18.89431381225586,
    "latitude": 50.3337516784668,
    "education_level": "Unknown",
    "country_iso3_code": "POL",
    "giga_id_school": "7a2e7b99-3b80-39da-9fa1-5d3d52c1d3dd",
    "school_data_source": null
  },
  {
    "school_name": "Szkoła Podstawowa nr 26",
    "longitude": 18.838666915893555,
    "latitude": 50.36363220214844,
    "education_level": "Unknown",
    "country_iso3_code": "POL",
    "giga_id_school": "4acee808-4d62-37bc-93bb-3be835a6d8d7",
    "school_data_source": null
  },
  {
    "school_name": "Powiatowy Zespół Szkół im. Jana Pawła II",
    "longitude": 16.90369987487793,
    "latitude": 51.46337127685547,
    "education_level": "Unknown",
    "country_iso3_code": "POL",
    "giga_id_school": "7fb15fb5-5be2-3d5c-be3f-a2bacca059b3",
    "school_data_source": null
  },
  {
    "school_name": "Zespół Szkół Ogólnokształcących im. Ignacego Jana Paderewskiego w Łasku-Kolumnie",
    "longitude": 19.206892013549805,
    "latitude": 51.61216354370117,
    "education_level": "Unknown",
    "country_iso3_code": "POL",
    "giga_id_school": "996eac2c-acfb-3fd9-9fbb-a1d9398b103c",
    "school_data_source": null
  },
  {
    "school_name": "Szkoła Podstawowa Specjalna nr 79",
    "longitude": 20.05512237548828,
    "latitude": 50.06879425048828,
    "education_level": "Unknown",
    "country_iso3_code": "POL",
    "giga_id_school": "81a3bb55-78c1-3ba1-9cf3-2b1615faa5b1",
    "school_data_source": null
  },
  {
    "school_name": "Szkoła Specjalna Przysposabiająca do Pracy nr 7",
    "longitude": 20.05548667907715,
    "latitude": 50.06880187988281,
    "education_level": "Unknown",
    "country_iso3_code": "POL",
    "giga_id_school": "c377135a-3edd-3ab0-ba2b-d57fcba07079",
    "school_data_source": null
  },
  {
    "school_name": "Szkoła Podstawowa im. Jana Pawła II w Domaniewicach",
    "longitude": 19.80876350402832,
    "latitude": 52.00736618041992,
    "education_level": "Unknown",
    "country_iso3_code": "POL",
    "giga_id_school": "1c0ed555-bede-3381-9bb6-ce2b024186ff",
    "school_data_source": null
  },
  {
    "school_name": "Szkoła Podstawowa nr 42",
    "longitude": 16.92473793029785,
    "latitude": 52.39897537231445,
    "education_level": "Unknown",
    "country_iso3_code": "POL",
    "giga_id_school": "0d8e3b74-bdd5-3ecd-9630-19b2dead030b",
    "school_data_source": null
  },
  {
    "school_name": "SP 3",
    "longitude": 15.40254020690918,
    "latitude": 53.16670608520508,
    "education_level": "Unknown",
    "country_iso3_code": "POL",
    "giga_id_school": "1ceecd57-4129-3a9a-be7f-6a7c4698e559",
    "school_data_source": null
  },
  {
    "school_name": "Miejska Szkoła Podstawowa nr 14",
    "longitude": 19.50763702392578,
    "latitude": 50.47772216796875,
    "education_level": "Unknown",
    "country_iso3_code": "POL",
    "giga_id_school": "fdbda34a-6919-3d57-a334-48ddd7c1c59d",
    "school_data_source": null
  },
  {
    "school_name": "Specjalny Ośrodek Szkolno-Wychowawczy w Pucku",
    "longitude": 18.409635543823242,
    "latitude": 54.72130584716797,
    "education_level": "Unknown",
    "country_iso3_code": "POL",
    "giga_id_school": "8d81d25d-cba4-37a5-958f-6a5731f932cd",
    "school_data_source": null
  },
  {
    "school_name": "Szkoła Podstawowa Im. Mariusza Zaruskiego",
    "longitude": 18.420448303222656,
    "latitude": 54.71574783325195,
    "education_level": "Unknown",
    "country_iso3_code": "POL",
    "giga_id_school": "fee0224a-4fe8-3093-a504-8dfa3732226b",
    "school_data_source": null
  },
  {
    "school_name": "Państwowa Szkoła Muzyczna I st. Im. Stanisława Moniuszki",
    "longitude": 18.41591453552246,
    "latitude": 54.71685028076172,
    "education_level": "Unknown",
    "country_iso3_code": "POL",
    "giga_id_school": "88180b93-e282-333a-bb99-dcd7dd76d59b",
    "school_data_source": null
  },
  {
    "school_name": "Szkoła Podstawowa nr 38",
    "longitude": 16.970476150512695,
    "latitude": 51.1227912902832,
    "education_level": "Unknown",
    "country_iso3_code": "POL",
    "giga_id_school": "364f60f2-7597-3cf8-8a6a-bbcee11c35a6",
    "school_data_source": null
  },
  {
    "school_name": "Primus. Szkoła podstawowa",
    "longitude": 17.048460006713867,
    "latitude": 51.11909866333008,
    "education_level": "Unknown",
    "country_iso3_code": "POL",
    "giga_id_school": "200bc4dd-7881-38d9-8106-7824e6ca65e9",
    "school_data_source": null
  },
  {
    "school_name": "Szkoła Podstawowa w Brzozie",
    "longitude": 18.013063430786133,
    "latitude": 53.02667236328125,
    "education_level": "Unknown",
    "country_iso3_code": "POL",
    "giga_id_school": "4099c75d-99dd-37cb-8c34-e7bf1da48772",
    "school_data_source": null
  },
  {
    "school_name": "Przedszkole Miejskie nr 1 im. Janiny Porazińskiej",
    "longitude": 15.205714225769043,
    "latitude": 53.0010986328125,
    "education_level": "Unknown",
    "country_iso3_code": "POL",
    "giga_id_school": "d1b79361-fd7a-3c9a-a445-e40ab6cd7277",
    "school_data_source": null
  },
  {
    "school_name": "Szkoła Podstawowa Nr 4 im. Henryka Sienkiewicza",
    "longitude": 15.207071304321289,
    "latitude": 53.001609802246094,
    "education_level": "Unknown",
    "country_iso3_code": "POL",
    "giga_id_school": "a4331f31-4933-37ce-a61d-db344955838c",
    "school_data_source": null
  },
  {
    "school_name": "Zasadnicza Szkoła Zawodowa nr 2",
    "longitude": 20.047714233398438,
    "latitude": 50.080162048339844,
    "education_level": "Unknown",
    "country_iso3_code": "POL",
    "giga_id_school": "78579f03-e69d-30ed-88cd-728e74438f27",
    "school_data_source": null
  },
  {
    "school_name": "Liceum Profilowane nr 2",
    "longitude": 20.047555923461914,
    "latitude": 50.08001708984375,
    "education_level": "Unknown",
    "country_iso3_code": "POL",
    "giga_id_school": "b921f96e-11b3-3ad1-9c35-145e0b138ec2",
    "school_data_source": null
  },
  {
    "school_name": "Technikum Uzupełniające dla Dorosłych Nr 2",
    "longitude": 20.047975540161133,
    "latitude": 50.080406188964844,
    "education_level": "Unknown",
    "country_iso3_code": "POL",
    "giga_id_school": "21ba58f7-e360-3dbd-bd95-4ad154d1dced",
    "school_data_source": null
  },
  {
    "school_name": "Technikum nr 2",
    "longitude": 20.047447204589844,
    "latitude": 50.07989501953125,
    "education_level": "Unknown",
    "country_iso3_code": "POL",
    "giga_id_school": "d2f76b81-086c-3650-b199-80c0829fd05e",
    "school_data_source": null
  },
  {
    "school_name": "Zasadnicza Szkoła Zawodowa dla Dorosłych Nr 1",
    "longitude": 20.04782485961914,
    "latitude": 50.08027267456055,
    "education_level": "Unknown",
    "country_iso3_code": "POL",
    "giga_id_school": "261a368e-fb1c-3a5e-969b-9e9ec9652ed9",
    "school_data_source": null
  },
  {
    "school_name": "Prywatne Żeńskie Szkoły imienia Cecylii Plater Zyberkówny",
    "longitude": 21.018115997314453,
    "latitude": 52.22386932373047,
    "education_level": "Unknown",
    "country_iso3_code": "POL",
    "giga_id_school": "389f5e2e-c01c-3ad3-b190-45e5775d4ede",
    "school_data_source": null
  },
  {
    "school_name": "Publiczna Katolicka Szkoła Podstawowa im. św. Stanisława Kostki",
    "longitude": 14.4985933303833,
    "latitude": 53.45148468017578,
    "education_level": "Unknown",
    "country_iso3_code": "POL",
    "giga_id_school": "65f1e348-cce7-37bf-bff3-e92868b3b5b2",
    "school_data_source": null
  },
  {
    "school_name": "Szkoła Podstawowa nr 3 im. Marii Konopnickiej",
    "longitude": 22.84238624572754,
    "latitude": 52.976261138916016,
    "education_level": "Unknown",
    "country_iso3_code": "POL",
    "giga_id_school": "2bc81f0b-790e-3be3-be2a-d28252babf4f",
    "school_data_source": null
  },
  {
    "school_name": "Zespół Szkolno-Przedszkolny im. Jana Pawła II w Górkach Śląskich",
    "longitude": 18.388460159301758,
    "latitude": 50.14046859741211,
    "education_level": "Unknown",
    "country_iso3_code": "POL",
    "giga_id_school": "3b1d938e-d267-3bd9-b3d7-a23f4274f0c6",
    "school_data_source": null
  },
  {
    "school_name": "Centrum Języków Obcych \"Kontakt\"",
    "longitude": 16.93622589111328,
    "latitude": 52.40422439575195,
    "education_level": "Unknown",
    "country_iso3_code": "POL",
    "giga_id_school": "5eed837f-b952-34f7-bc18-efe6d72fdde6",
    "school_data_source": null
  },
  {
    "school_name": "Szkoła Podstawowa nr 160 Zgromadzenia Sióstr Augustianek",
    "longitude": 19.941091537475586,
    "latitude": 50.04896545410156,
    "education_level": "Unknown",
    "country_iso3_code": "POL",
    "giga_id_school": "c31dc291-1bc1-3832-a1f3-5eb3b6aeb12b",
    "school_data_source": null
  },
  {
    "school_name": "Liceum Ogólnokształcące Zgromadzenia Sióstr Augustianek im. św. Rity",
    "longitude": 19.94088363647461,
    "latitude": 50.048927307128906,
    "education_level": "Unknown",
    "country_iso3_code": "POL",
    "giga_id_school": "8a65805f-6a70-3cb5-916e-2b1721c18494",
    "school_data_source": null
  },
  {
    "school_name": "Technikum Ekonomiczne i Elektroniczne nr 23",
    "longitude": 19.957658767700195,
    "latitude": 50.05679702758789,
    "education_level": "Unknown",
    "country_iso3_code": "POL",
    "giga_id_school": "0d43125c-31e5-3681-a638-5de4f95af3f6",
    "school_data_source": null
  },
  {
    "school_name": "XXII Liceum Profilowane",
    "longitude": 19.957035064697266,
    "latitude": 50.056785583496094,
    "education_level": "Unknown",
    "country_iso3_code": "POL",
    "giga_id_school": "24d0ef16-c228-30cb-8230-0786f9817007",
    "school_data_source": null
  },
  {
    "school_name": "Zasadnicza Szkoła Zawodowa nr 24",
    "longitude": 19.957290649414062,
    "latitude": 50.05674743652344,
    "education_level": "Unknown",
    "country_iso3_code": "POL",
    "giga_id_school": "0ed9689f-ecc8-356c-8d84-416b200446e5",
    "school_data_source": null
  },
  {
    "school_name": "Szkoła CDS-Lider",
    "longitude": 16.508670806884766,
    "latitude": 52.359371185302734,
    "education_level": "Unknown",
    "country_iso3_code": "POL",
    "giga_id_school": "4b1e1962-27d0-3756-bc98-8c982e3a94da",
    "school_data_source": null
  },
  {
    "school_name": "Zespół Szkół w Lipnicy",
    "longitude": 17.405582427978516,
    "latitude": 53.99611282348633,
    "education_level": "Unknown",
    "country_iso3_code": "POL",
    "giga_id_school": "3ee48c81-43bc-38ad-b7ad-5b5188669cb6",
    "school_data_source": null
  },
  {
    "school_name": "Prywatna Szkoła Podstawowa nr 6 im. bł. M. Marceliny Darowskiej",
    "longitude": 21.07587242126465,
    "latitude": 52.1281623840332,
    "education_level": "Unknown",
    "country_iso3_code": "POL",
    "giga_id_school": "53136f08-4f17-33e4-a6c4-95389663f00b",
    "school_data_source": null
  },
  {
    "school_name": "Prywatna Szkoła Podstawowa nr 114",
    "longitude": 21.10320472717285,
    "latitude": 52.245567321777344,
    "education_level": "Unknown",
    "country_iso3_code": "POL",
    "giga_id_school": "2ee472b7-51f5-374b-b62f-1486f43e60e8",
    "school_data_source": null
  },
  {
    "school_name": "Zespół Szkół Zawodowych nr 1",
    "longitude": 21.57624626159668,
    "latitude": 53.0818977355957,
    "education_level": "Unknown",
    "country_iso3_code": "POL",
    "giga_id_school": "029f75cd-db59-3167-96d2-f8943afde6b6",
    "school_data_source": null
  },
  {
    "school_name": "II Społeczne Liceum Ogólnokształcące im. Toniego Halika",
    "longitude": 21.574779510498047,
    "latitude": 53.08195495605469,
    "education_level": "Unknown",
    "country_iso3_code": "POL",
    "giga_id_school": "0c1aa3da-4e81-3ac4-ad6a-c38e999073d0",
    "school_data_source": null
  },
  {
    "school_name": "Zespół Szkół Społecznych",
    "longitude": 16.477754592895508,
    "latitude": 50.45876693725586,
    "education_level": "Unknown",
    "country_iso3_code": "POL",
    "giga_id_school": "3ef5b979-27e3-3015-8ae2-64ef9fd0cf3a",
    "school_data_source": null
  },
  {
    "school_name": "Szkoła Podstawowa nr 5 Specjalna w Sanoku",
    "longitude": 22.210506439208984,
    "latitude": 49.551719665527344,
    "education_level": "Unknown",
    "country_iso3_code": "POL",
    "giga_id_school": "20602397-b107-3cec-af76-c55c9ee76023",
    "school_data_source": null
  },
  {
    "school_name": "IV Liceum Ogólnokształcące",
    "longitude": 19.94666862487793,
    "latitude": 52.103614807128906,
    "education_level": "Unknown",
    "country_iso3_code": "POL",
    "giga_id_school": "06ea5e96-d8f3-3a2d-87b5-bf177b230129",
    "school_data_source": null
  },
  {
    "school_name": "Prywatne Liceum Ogólnokształcące Sióstr Nazaretanek z Oddziałami Międzynarodowymi",
    "longitude": 21.046926498413086,
    "latitude": 52.21097183227539,
    "education_level": "Unknown",
    "country_iso3_code": "POL",
    "giga_id_school": "4bb30954-37b6-390b-b3ff-ac58380f6963",
    "school_data_source": null
  },
  {
    "school_name": "Centrum Edukacji Muzycznej",
    "longitude": 19.933725357055664,
    "latitude": 52.105125427246094,
    "education_level": "Unknown",
    "country_iso3_code": "POL",
    "giga_id_school": "8eed5aa9-e65f-35d1-8e9d-6fb6bd7fae07",
    "school_data_source": null
  },
  {
    "school_name": "Szkoła Podstawowa imienia Tadeusza Kościuszki",
    "longitude": 20.03099250793457,
    "latitude": 52.001522064208984,
    "education_level": "Unknown",
    "country_iso3_code": "POL",
    "giga_id_school": "c1f34223-0ed6-3eea-9084-7ca3870457ff",
    "school_data_source": null
  },
  {
    "school_name": "Szkoła w Zespole Placówek Wspierania Rodziny „Szansa”",
    "longitude": 17.94818878173828,
    "latitude": 52.402584075927734,
    "education_level": "Unknown",
    "country_iso3_code": "POL",
    "giga_id_school": "48b91abe-377e-355e-b901-acc7fd4a6c74",
    "school_data_source": null
  },
  {
    "school_name": "Wyższa Szkoła Zarządzania Marketingowego i Języków Obcych \"Gallus\"",
    "longitude": 18.99355125427246,
    "latitude": 50.2435188293457,
    "education_level": "Unknown",
    "country_iso3_code": "POL",
    "giga_id_school": "33b6911a-ac30-3cfa-a3c4-cf7311eaf543",
    "school_data_source": null
  },
  {
    "school_name": "Szkoła Podstawowa nr 3 Specjalna w Koluszkach",
    "longitude": 19.83098793029785,
    "latitude": 51.746620178222656,
    "education_level": "Unknown",
    "country_iso3_code": "POL",
    "giga_id_school": "a0207f49-cba8-3491-8d58-e63111a0a948",
    "school_data_source": null
  },
  {
    "school_name": "II Liceum Ogólnokształcące w Koluszkach",
    "longitude": 19.829797744750977,
    "latitude": 51.74632263183594,
    "education_level": "Unknown",
    "country_iso3_code": "POL",
    "giga_id_school": "22be957d-6301-3ca8-be87-9a2a30f4d8f4",
    "school_data_source": null
  },
  {
    "school_name": "Technikum nr 2 w Koluszkach",
    "longitude": 19.830224990844727,
    "latitude": 51.74635314941406,
    "education_level": "Unknown",
    "country_iso3_code": "POL",
    "giga_id_school": "d826a547-0511-3415-859e-f2f15b46d07a",
    "school_data_source": null
  },
  {
    "school_name": "Specjalny Ośrodek Szkolno-Wychowawczy w Koluszkach",
    "longitude": 19.830669403076172,
    "latitude": 51.74628829956055,
    "education_level": "Unknown",
    "country_iso3_code": "POL",
    "giga_id_school": "f16c72ed-c629-3932-b202-06850e1c147a",
    "school_data_source": null
  },
  {
    "school_name": "Szkoła Podstawowa im. Leokadii Ostrowskiej",
    "longitude": 20.02523422241211,
    "latitude": 52.05998611450195,
    "education_level": "Unknown",
    "country_iso3_code": "POL",
    "giga_id_school": "67fb35db-7669-3c1b-a673-4e10bd5c579e",
    "school_data_source": null
  },
  {
    "school_name": "Zespół Oświatowy w Wiśniewie",
    "longitude": 22.303165435791016,
    "latitude": 52.0709342956543,
    "education_level": "Unknown",
    "country_iso3_code": "POL",
    "giga_id_school": "698ca696-4d4d-3b59-947a-09229b3e4f2f",
    "school_data_source": null
  },
  {
    "school_name": "Zespół Szkół Rolnicze Centrum Kształcenia Ustawicznego",
    "longitude": 19.8353214263916,
    "latitude": 51.495582580566406,
    "education_level": "Unknown",
    "country_iso3_code": "POL",
    "giga_id_school": "0ed62df3-17fc-35b8-b12c-7def4acc4fc6",
    "school_data_source": null
  },
  {
    "school_name": "Szkoła Podstawowa nr 8 im. Kardynała Augusta Hlonda",
    "longitude": 14.835354804992676,
    "latitude": 53.56694030761719,
    "education_level": "Unknown",
    "country_iso3_code": "POL",
    "giga_id_school": "a7405486-7e82-3bff-a3f9-fb4d5151a9b7",
    "school_data_source": null
  },
  {
    "school_name": "Zespół Szkół Ogólnokształcących",
    "longitude": 14.717233657836914,
    "latitude": 51.95774459838867,
    "education_level": "Unknown",
    "country_iso3_code": "POL",
    "giga_id_school": "798b92e9-8dd7-3c11-9495-110598141412",
    "school_data_source": null
  },
  {
    "school_name": "Inter Lang & Text English and German School",
    "longitude": 19.928874969482422,
    "latitude": 50.066768646240234,
    "education_level": "Unknown",
    "country_iso3_code": "POL",
    "giga_id_school": "204bcd7c-8d58-3a4d-b8f0-dcbd34991f84",
    "school_data_source": null
  },
  {
    "school_name": "II Liceum Ogólnokształcące im. Krzysztofa Kamila Baczyńskiego",
    "longitude": 19.44875144958496,
    "latitude": 51.0716438293457,
    "education_level": "Unknown",
    "country_iso3_code": "POL",
    "giga_id_school": "4f8a32ed-4ffd-3e22-842b-9360fbf26f61",
    "school_data_source": null
  },
  {
    "school_name": "Liceum Sztuk Plastycznych",
    "longitude": 18.92701530456543,
    "latitude": 51.604251861572266,
    "education_level": "Unknown",
    "country_iso3_code": "POL",
    "giga_id_school": "79360c2b-ad69-35da-a27e-174b80299cba",
    "school_data_source": null
  },
  {
    "school_name": "Szkoła Podstawowa im. św. Jadwigi Królowej",
    "longitude": 19.55683135986328,
    "latitude": 51.676204681396484,
    "education_level": "Unknown",
    "country_iso3_code": "POL",
    "giga_id_school": "bfa26815-0153-3f03-a17a-c63e90c2e827",
    "school_data_source": null
  },
  {
    "school_name": "Szkoła Podstawowa w Rzechcie",
    "longitude": 18.83899688720703,
    "latitude": 51.58961868286133,
    "education_level": "Unknown",
    "country_iso3_code": "POL",
    "giga_id_school": "0a9909ee-5b50-352f-a4e0-c3dcfb999b63",
    "school_data_source": null
  },
  {
    "school_name": "Prywatna Szkoła Muzyczna",
    "longitude": 19.941593170166016,
    "latitude": 50.05904769897461,
    "education_level": "Unknown",
    "country_iso3_code": "POL",
    "giga_id_school": "1f56463b-4d43-33f1-8d2b-fb0b9d1d3946",
    "school_data_source": null
  },
  {
    "school_name": "Publiczna Szkoła Podstawowa w Pawłowicach",
    "longitude": 20.088979721069336,
    "latitude": 50.5826530456543,
    "education_level": "Unknown",
    "country_iso3_code": "POL",
    "giga_id_school": "b4fcf930-0491-3871-8961-127b1af50512",
    "school_data_source": null
  },
  {
    "school_name": "II Liceum Ogólnokształcące im. Mikołaja Kopernika",
    "longitude": 18.634553909301758,
    "latitude": 49.745750427246094,
    "education_level": "Unknown",
    "country_iso3_code": "POL",
    "giga_id_school": "9d11fca0-d71e-3cfb-9bbf-4d0304f46f2d",
    "school_data_source": null
  },
  {
    "school_name": "ZSPiG im. kard. Stefana Wyszyńskiego w Grabnie",
    "longitude": 20.778310775756836,
    "latitude": 49.927852630615234,
    "education_level": "Unknown",
    "country_iso3_code": "POL",
    "giga_id_school": "5fd273d8-5833-36af-9ece-67f04ee00697",
    "school_data_source": null
  },
  {
    "school_name": "Zespół Szkół Terenów Zieleni",
    "longitude": 21.178844451904297,
    "latitude": 52.41594696044922,
    "education_level": "Unknown",
    "country_iso3_code": "POL",
    "giga_id_school": "652c2ce4-885c-39bd-9070-782d0696cd5f",
    "school_data_source": null
  },
  {
    "school_name": "Szkoła Podstawowa w Rycerce",
    "longitude": 19.084228515625,
    "latitude": 49.484683990478516,
    "education_level": "Unknown",
    "country_iso3_code": "POL",
    "giga_id_school": "1c4be8ef-81e4-3832-9263-886988f2b2b3",
    "school_data_source": null
  },
  {
    "school_name": "Aeroklub Włocławski",
    "longitude": 19.010936737060547,
    "latitude": 52.58635330200195,
    "education_level": "Unknown",
    "country_iso3_code": "POL",
    "giga_id_school": "0a8a0d95-1193-35ea-acbc-19364a20450d",
    "school_data_source": null
  },
  {
    "school_name": "Szkoła Rolnicza",
    "longitude": 22.078908920288086,
    "latitude": 49.5634765625,
    "education_level": "Unknown",
    "country_iso3_code": "POL",
    "giga_id_school": "eeb66ec6-6ab6-373e-885d-288e1d523780",
    "school_data_source": null
  },
  {
    "school_name": "LO 1",
    "longitude": 19.57879066467285,
    "latitude": 50.27701950073242,
    "education_level": "Unknown",
    "country_iso3_code": "POL",
    "giga_id_school": "771696d7-40f9-378e-ad10-497d0f5f3c03",
    "school_data_source": null
  },
  {
    "school_name": "Szkoła Podstawowa numer 105 imienia Ludwiki Wawrzyńskiej",
    "longitude": 20.042238235473633,
    "latitude": 50.077999114990234,
    "education_level": "Unknown",
    "country_iso3_code": "POL",
    "giga_id_school": "17f49586-3f14-3f8f-9d6f-ce0ea2dd0443",
    "school_data_source": null
  },
  {
    "school_name": "Securcom - Niepubliczna Placówka Kształcenia Ustawicznego",
    "longitude": 20.041303634643555,
    "latitude": 50.08222198486328,
    "education_level": "Unknown",
    "country_iso3_code": "POL",
    "giga_id_school": "5a36b852-4af9-3b5f-8a3a-9e632062a5b8",
    "school_data_source": null
  },
  {
    "school_name": "Podstawowa Szkoła Specjalna nr 71 im. Marii Grzegorzewskiej",
    "longitude": 20.041343688964844,
    "latitude": 50.08236312866211,
    "education_level": "Unknown",
    "country_iso3_code": "POL",
    "giga_id_school": "6b7961c2-262b-338a-8027-8ac789446578",
    "school_data_source": null
  },
  {
    "school_name": "Szkoła Specjalna Przysposabiająca do Pracy nr 1",
    "longitude": 20.041173934936523,
    "latitude": 50.081871032714844,
    "education_level": "Unknown",
    "country_iso3_code": "POL",
    "giga_id_school": "e8d0f6e1-9e19-33bc-ba11-674296da27ba",
    "school_data_source": null
  },
  {
    "school_name": "Branżowa Szkoła Specjalna I Stopnia nr 31",
    "longitude": 20.041223526000977,
    "latitude": 50.082008361816406,
    "education_level": "Unknown",
    "country_iso3_code": "POL",
    "giga_id_school": "7287e316-fae9-3203-9f53-1da9c8c94a7a",
    "school_data_source": null
  },
  {
    "school_name": "Szkoła Specjalna Przysposabiająca do Pracy w Sanoku",
    "longitude": 22.21057891845703,
    "latitude": 49.55162811279297,
    "education_level": "Unknown",
    "country_iso3_code": "POL",
    "giga_id_school": "0117cdf3-62a0-30d0-ba7f-cad1fa470513",
    "school_data_source": null
  },
  {
    "school_name": "II liceum ogólnokształcące",
    "longitude": 17.022422790527344,
    "latitude": 54.47085189819336,
    "education_level": "Unknown",
    "country_iso3_code": "POL",
    "giga_id_school": "93d7c4e2-d95b-3833-86c3-90a4127dd7d4",
    "school_data_source": null
  },
  {
    "school_name": "Szkoła podstawowa nr 9",
    "longitude": 17.02414321899414,
    "latitude": 54.473628997802734,
    "education_level": "Unknown",
    "country_iso3_code": "POL",
    "giga_id_school": "60b3fc1a-c27e-316e-9f19-ffab9b994612",
    "school_data_source": null
  },
  {
    "school_name": "Wojewódzki zespół szkół policealnych",
    "longitude": 17.026830673217773,
    "latitude": 54.47471237182617,
    "education_level": "Unknown",
    "country_iso3_code": "POL",
    "giga_id_school": "3269b9e1-1297-3999-9624-7d29f0e78779",
    "school_data_source": null
  },
  {
    "school_name": "Szkoła Podstawowa nr 135 imienia księdza profesora Józefa Tischnera",
    "longitude": 19.950363159179688,
    "latitude": 49.98420333862305,
    "education_level": "Unknown",
    "country_iso3_code": "POL",
    "giga_id_school": "5db36e7c-9856-3637-bba4-2cb94619edd0",
    "school_data_source": null
  },
  {
    "school_name": "Prywatna Szkoła Podstawowa „Kornelówka”",
    "longitude": 19.474193572998047,
    "latitude": 51.78935623168945,
    "education_level": "Unknown",
    "country_iso3_code": "POL",
    "giga_id_school": "085a8b87-165d-3ffb-a8ec-c8f5bfe841e6",
    "school_data_source": null
  },
  {
    "school_name": "Szkoła Podstawowa nr 2 im. Adama Mickiewicza",
    "longitude": 19.927993774414062,
    "latitude": 52.10443878173828,
    "education_level": "Unknown",
    "country_iso3_code": "POL",
    "giga_id_school": "6bb01c33-6db6-3471-9056-8ecbf2aab883",
    "school_data_source": null
  },
  {
    "school_name": "Zespół Szkół nr 5 Mistrzostwa Sportowego",
    "longitude": 18.131683349609375,
    "latitude": 53.15046310424805,
    "education_level": "Unknown",
    "country_iso3_code": "POL",
    "giga_id_school": "bc74a983-5c3c-3dae-ac05-1fad9e450be8",
    "school_data_source": null
  },
  {
    "school_name": "Szkoła Podstawowa nr 3 im. Kardynała Karola Wojtyły – Papieża Polaka",
    "longitude": 19.945363998413086,
    "latitude": 52.1191520690918,
    "education_level": "Unknown",
    "country_iso3_code": "POL",
    "giga_id_school": "3c0f15ea-bafb-32f5-82ff-ad139609f0de",
    "school_data_source": null
  },
  {
    "school_name": "Liceum Ogólnokształcące Nr 1 im. Henryka Sienkiewicza",
    "longitude": 20.365726470947266,
    "latitude": 52.622535705566406,
    "education_level": "Unknown",
    "country_iso3_code": "POL",
    "giga_id_school": "42da700f-f32e-31cc-9f32-49517f08226e",
    "school_data_source": null
  },
  {
    "school_name": "Zespół Szkół Zawodowych Nr1",
    "longitude": 20.37749671936035,
    "latitude": 52.62919998168945,
    "education_level": "Unknown",
    "country_iso3_code": "POL",
    "giga_id_school": "20c377f0-e2a8-3e5e-8613-1bb15437b037",
    "school_data_source": null
  },
  {
    "school_name": "Szkoła Podstawowa nr 1 im. Tadeusza Kościuszki",
    "longitude": 18.87196922302246,
    "latitude": 50.28879928588867,
    "education_level": "Unknown",
    "country_iso3_code": "POL",
    "giga_id_school": "887ab2f2-34f7-3e13-a4c6-f6bc6d28b9b5",
    "school_data_source": null
  },
  {
    "school_name": "Technikum nr 1 im. Powstańców Śląskich",
    "longitude": 18.8728084564209,
    "latitude": 50.2889404296875,
    "education_level": "Unknown",
    "country_iso3_code": "POL",
    "giga_id_school": "451df8e2-4ea1-340b-b0fe-55d14c811399",
    "school_data_source": null
  },
  {
    "school_name": "Szkoła Podstawowa im. Króla Kazimierza III Wielkiego w Rudniku",
    "longitude": 19.832918167114258,
    "latitude": 49.85483169555664,
    "education_level": "Unknown",
    "country_iso3_code": "POL",
    "giga_id_school": "9b408059-f0f1-3c24-b6fe-eb7d0422f619",
    "school_data_source": null
  },
  {
    "school_name": "CXXV Liceum Ogólnokształcące im. Waldemara Milewicza",
    "longitude": 20.986328125,
    "latitude": 52.23683547973633,
    "education_level": "Unknown",
    "country_iso3_code": "POL",
    "giga_id_school": "9a0c496c-a169-3873-a985-1126e4a66a42",
    "school_data_source": null
  },
  {
    "school_name": "Zespół Szkół w Kamienicy Polskiej",
    "longitude": 19.131179809570312,
    "latitude": 50.670658111572266,
    "education_level": "Unknown",
    "country_iso3_code": "POL",
    "giga_id_school": "2e2f53f4-24f4-367e-844a-50a19f7a4a18",
    "school_data_source": null
  },
  {
    "school_name": "Szkoła Podstawowa Nr 1 w Przeciszowie",
    "longitude": 19.371129989624023,
    "latitude": 49.998714447021484,
    "education_level": "Unknown",
    "country_iso3_code": "POL",
    "giga_id_school": "c4939b04-b3a5-364b-8aeb-e70fa7fcbe9b",
    "school_data_source": null
  },
  {
    "school_name": "Szkoła Muzyczna",
    "longitude": 19.950063705444336,
    "latitude": 50.04584503173828,
    "education_level": "Unknown",
    "country_iso3_code": "POL",
    "giga_id_school": "e7ab282e-9753-31af-a5a1-13c48fbbeb1d",
    "school_data_source": null
  },
  {
    "school_name": "Szkoła Podstawowa Nr 4 im. Stefana Grota-Roweckiego w Markach",
    "longitude": 21.125572204589844,
    "latitude": 52.332645416259766,
    "education_level": "Unknown",
    "country_iso3_code": "POL",
    "giga_id_school": "ed3c3ca9-95f4-3dbf-83f5-6cd154fefcab",
    "school_data_source": null
  },
  {
    "school_name": "Kępa Auto Szkoła",
    "longitude": 22.60029411315918,
    "latitude": 51.24945068359375,
    "education_level": "Unknown",
    "country_iso3_code": "POL",
    "giga_id_school": "c30bb7e7-d12a-3cf4-9ee0-9602df868dcc",
    "school_data_source": null
  },
  {
    "school_name": "Zespół Szkół nr 1 im. Jana Pawła II w Męcinie",
    "longitude": 20.553983688354492,
    "latitude": 49.67954635620117,
    "education_level": "Unknown",
    "country_iso3_code": "POL",
    "giga_id_school": "43368683-8150-3c92-bc76-57ed70d9ed4e",
    "school_data_source": null
  },
  {
    "school_name": "Zespół Szkół w Pisarzowej",
    "longitude": 20.50585174560547,
    "latitude": 49.69015121459961,
    "education_level": "Unknown",
    "country_iso3_code": "POL",
    "giga_id_school": "60b9e20f-f1f6-31ef-9cfe-ea1966c20060",
    "school_data_source": null
  },
  {
    "school_name": "Szkoła Podstawowa im. Marii Konopnickiej",
    "longitude": 18.816431045532227,
    "latitude": 50.95204162597656,
    "education_level": "Unknown",
    "country_iso3_code": "POL",
    "giga_id_school": "4742f44b-8fb9-3f64-9925-32e15146b881",
    "school_data_source": null
  },
  {
    "school_name": "Szkoła Podstawowa im. ks. Jana Twardowskiego",
    "longitude": 21.726055145263672,
    "latitude": 53.388275146484375,
    "education_level": "Unknown",
    "country_iso3_code": "POL",
    "giga_id_school": "5edc8e49-61c7-3f5e-8b81-4e19049275a0",
    "school_data_source": null
  },
  {
    "school_name": "Szkoła Podstawowa w Bożejewie Starym",
    "longitude": 22.292688369750977,
    "latitude": 53.19047927856445,
    "education_level": "Unknown",
    "country_iso3_code": "POL",
    "giga_id_school": "0ba31e61-940b-348c-897b-ba6fff505775",
    "school_data_source": null
  },
  {
    "school_name": "Autorska Szkoła Muzyczna",
    "longitude": 21.060636520385742,
    "latitude": 52.18623352050781,
    "education_level": "Unknown",
    "country_iso3_code": "POL",
    "giga_id_school": "9fabc794-2ea4-3e3f-8e45-b057298c62a9",
    "school_data_source": null
  },
  {
    "school_name": "CX Liceum ogólnokształcące imienia Roberta Schumana",
    "longitude": 21.056058883666992,
    "latitude": 52.18476486206055,
    "education_level": "Unknown",
    "country_iso3_code": "POL",
    "giga_id_school": "9a42e8a2-3b13-38c4-acb7-14cd68f51862",
    "school_data_source": null
  },
  {
    "school_name": "Szkoła Podstawowa nr 371",
    "longitude": 21.055709838867188,
    "latitude": 52.18497085571289,
    "education_level": "Unknown",
    "country_iso3_code": "POL",
    "giga_id_school": "709c19fd-eaa4-3908-9174-7ec9cbfcf420",
    "school_data_source": null
  },
  {
    "school_name": "K&K School of English",
    "longitude": 20.01434326171875,
    "latitude": 50.07353591918945,
    "education_level": "Unknown",
    "country_iso3_code": "POL",
    "giga_id_school": "f0c290e5-860d-3958-8047-8623451c34fa",
    "school_data_source": null
  },
  {
    "school_name": "Instytut Pedagogiczny PWSZ",
    "longitude": 20.720182418823242,
    "latitude": 49.624847412109375,
    "education_level": "Unknown",
    "country_iso3_code": "POL",
    "giga_id_school": "afc0dcfc-2fee-38d0-9cf9-0c5f9b51940d",
    "school_data_source": null
  },
  {
    "school_name": "Szkoła Podstawowa nr 18 im. Jana Matejki",
    "longitude": 16.198829650878906,
    "latitude": 54.211334228515625,
    "education_level": "Unknown",
    "country_iso3_code": "POL",
    "giga_id_school": "5d327533-f12c-3a27-8b77-8c69b2e1102b",
    "school_data_source": null
  },
  {
    "school_name": "Zespół Szkół Stowarzyszenia Rozwoju Wsi Waliszew i Okolic im. Jana Pawła II w Starym Waliszewie",
    "longitude": 19.635814666748047,
    "latitude": 52.03759002685547,
    "education_level": "Unknown",
    "country_iso3_code": "POL",
    "giga_id_school": "564a2944-adae-3092-a5b8-c569287631d5",
    "school_data_source": null
  },
  {
    "school_name": "Szkoła Podstawowa nr 9",
    "longitude": 16.559280395507812,
    "latitude": 51.846778869628906,
    "education_level": "Unknown",
    "country_iso3_code": "POL",
    "giga_id_school": "2a32a5c9-7535-3727-89f8-95ba65ee89cc",
    "school_data_source": null
  },
  {
    "school_name": "Zespół Szkół Zawodowych Nr 1",
    "longitude": 19.396390914916992,
    "latitude": 54.155433654785156,
    "education_level": "Unknown",
    "country_iso3_code": "POL",
    "giga_id_school": "58b6968a-8e43-3b24-a812-f11a5044c221",
    "school_data_source": null
  },
  {
    "school_name": "Zespół Szkół Techniczno-Informatycznych",
    "longitude": 19.397581100463867,
    "latitude": 54.15622329711914,
    "education_level": "Unknown",
    "country_iso3_code": "POL",
    "giga_id_school": "b0ae8db0-fbc4-3bf8-8d21-696051b8ecc1",
    "school_data_source": null
  },
  {
    "school_name": "SP 5",
    "longitude": 19.416484832763672,
    "latitude": 51.84696578979492,
    "education_level": "Unknown",
    "country_iso3_code": "POL",
    "giga_id_school": "34d6f516-5ad0-315c-8d7e-803f0d1e3a46",
    "school_data_source": null
  },
  {
    "school_name": "'ELEFUNT' kursy językowe",
    "longitude": 19.203590393066406,
    "latitude": 50.04082107543945,
    "education_level": "Unknown",
    "country_iso3_code": "POL",
    "giga_id_school": "a999c917-73b5-3ef2-a19a-657cdd43bacf",
    "school_data_source": null
  },
  {
    "school_name": "XII Liceum Ogólnokształcące im. Marii i Georga Dietrichów",
    "longitude": 20.45981788635254,
    "latitude": 53.781124114990234,
    "education_level": "Unknown",
    "country_iso3_code": "POL",
    "giga_id_school": "b28f0b34-f31d-3706-a2c2-9f356643b348",
    "school_data_source": null
  },
  {
    "school_name": "Zespół Szkół w Siemiątkowie",
    "longitude": 20.034711837768555,
    "latitude": 52.88010025024414,
    "education_level": "Unknown",
    "country_iso3_code": "POL",
    "giga_id_school": "f83aade9-315d-3b45-aaf0-d0399de1134d",
    "school_data_source": null
  },
  {
    "school_name": "Szkoła podstawowa im. Mikołaja Kopernika w Szymanowie",
    "longitude": 20.374549865722656,
    "latitude": 52.161041259765625,
    "education_level": "Unknown",
    "country_iso3_code": "POL",
    "giga_id_school": "2122dfce-f69f-3ed9-bf6d-da9f39f01a18",
    "school_data_source": null
  },
  {
    "school_name": "Szkoła Podstawowa im. Ewarysta Estkowskiego w Pakości",
    "longitude": 18.087608337402344,
    "latitude": 52.80805206298828,
    "education_level": "Unknown",
    "country_iso3_code": "POL",
    "giga_id_school": "36a1dcf5-d121-39fa-8764-7d4b0a72eeae",
    "school_data_source": null
  },