[
  {
    "school_name": "СОШ г.Бишкек Свердловский р-н № 16",
    "longitude": 74.61681365966797,
    "latitude": 42.92049026489258,
    "education_level": "Unknown",
    "country_iso3_code": "KGZ",
    "giga_id_school": "47cd1aff-3c4e-3a27-9f2e-34e483d6ad80",
    "school_data_source": null
  },
  {
    "school_name": "СОШ г. Бишкек, Первомайский р-н № 86",
    "longitude": 74.61587524414062,
    "latitude": 42.830039978027344,
    "education_level": "Unknown",
    "country_iso3_code": "KGZ",
    "giga_id_school": "b45453ee-51a6-300d-9fc9-0030a4b9117a",
    "school_data_source": null
  },
  {
    "school_name": "СОШ г.Бишкек Первомайский р-н №54",
    "longitude": 74.63082885742188,
    "latitude": 42.81841278076172,
    "education_level": "Unknown",
    "country_iso3_code": "KGZ",
    "giga_id_school": "cd829e3a-a72d-3ca1-8787-ec665f24930c",
    "school_data_source": null
  },
  {
    "school_name": "СОШ г.Бишкек Октябрьский р-н № 73",
    "longitude": 74.5696792602539,
    "latitude": 42.91579055786133,
    "education_level": "Unknown",
    "country_iso3_code": "KGZ",
    "giga_id_school": "aa008c59-60a5-3328-ad62-ac2301e0c6e3",
    "school_data_source": null
  },
  {
    "school_name": "СОШ №87 г. Бишкек Свердловский р-н",
    "longitude": 74.60596466064453,
    "latitude": 42.93655776977539,
    "education_level": "Unknown",
    "country_iso3_code": "KGZ",
    "giga_id_school": "aaddc8b6-7695-3dd2-8a9a-cbcc249b954d",
    "school_data_source": null
  },
  {
    "school_name": "СОШ г.Бишкек Свердловкий р-н № 94",
    "longitude": 74.62521362304688,
    "latitude": 42.93650436401367,
    "education_level": "Unknown",
    "country_iso3_code": "KGZ",
    "giga_id_school": "06a9409f-db67-3075-bed5-9f5e6012035e",
    "school_data_source": null
  },
  {
    "school_name": "Аблас Сулайманов атындагы орто мектеп",
    "longitude": 74.63204193115234,
    "latitude": 42.92829513549805,
    "education_level": "Unknown",
    "country_iso3_code": "KGZ",
    "giga_id_school": "6ade97f1-a673-30d2-9a63-3b4c493b7bd4",
    "school_data_source": null
  },
  {
    "school_name": "СОШ г.Бишкек Первомайский р-н № 81",
    "longitude": 74.56291961669922,
    "latitude": 42.884769439697266,
    "education_level": "Unknown",
    "country_iso3_code": "KGZ",
    "giga_id_school": "872214e8-429a-384f-b238-eb8438be1edd",
    "school_data_source": null
  },
  {
    "school_name": "СОШ г.Бишкек Ленинский р-н № 82",
    "longitude": 74.47808074951172,
    "latitude": 42.86338424682617,
    "education_level": "Unknown",
    "country_iso3_code": "KGZ",
    "giga_id_school": "cf791fc5-959a-35a1-8ca7-e123dda88f3f",
    "school_data_source": null
  },
  {
    "school_name": "Учреждение \"Средняя общеобразовательная школа №32 Свердловского района г.Бишкек\"",
    "longitude": 74.58949279785156,
    "latitude": 42.937503814697266,
    "education_level": "Unknown",
    "country_iso3_code": "KGZ",
    "giga_id_school": "8b15f34d-b9a8-315c-bf37-1a4660e46937",
    "school_data_source": null
  },
  {
    "school_name": "СОШ г.Бишкек Ленинский р-н № 84",
    "longitude": 74.5538330078125,
    "latitude": 42.8038330078125,
    "education_level": "Unknown",
    "country_iso3_code": "KGZ",
    "giga_id_school": "ab1abbb4-5446-3711-a735-5eff15de84bc",
    "school_data_source": null
  },
  {
    "school_name": "СОШ  г.Бишкек Свердловский р-н № 46",
    "longitude": 74.61031341552734,
    "latitude": 42.906551361083984,
    "education_level": "Unknown",
    "country_iso3_code": "KGZ",
    "giga_id_school": "eba8598f-4a55-31cf-b553-0102cb3f6f61",
    "school_data_source": null
  },
  {
    "school_name": "СОШ г.Бишкек Октябрьский р-н № 88",
    "longitude": 74.59135437011719,
    "latitude": 42.92367172241211,
    "education_level": "Unknown",
    "country_iso3_code": "KGZ",
    "giga_id_school": "eb939b92-846c-3578-8025-55b3bdf74021",
    "school_data_source": null
  },
  {
    "school_name": "СОШ г.Бишкек  Ленинский  р-н № 77",
    "longitude": 74.51895904541016,
    "latitude": 42.841312408447266,
    "education_level": "Unknown",
    "country_iso3_code": "KGZ",
    "giga_id_school": "7f87ae56-ec9e-3cf1-b942-ec5f7c05e706",
    "school_data_source": null
  },
  {
    "school_name": "СОШ г.Бишкек Ленинский р-н № 96",
    "longitude": 74.50471496582031,
    "latitude": 42.85285186767578,
    "education_level": "Unknown",
    "country_iso3_code": "KGZ",
    "giga_id_school": "a23e4ed8-1feb-3d04-a1a4-81b515985ed3",
    "school_data_source": null
  },
  {
    "school_name": "СОШ г. Бишкек Первомайский р-н №19",
    "longitude": 74.58960723876953,
    "latitude": 42.84883499145508,
    "education_level": "Unknown",
    "country_iso3_code": "KGZ",
    "giga_id_school": "356f6394-44db-3890-afcb-7bc88513f533",
    "school_data_source": null
  },
  {
    "school_name": "ШГ г. Бишкек Октябрский р-н № 91",
    "longitude": 74.52615356445312,
    "latitude": 42.88187026977539,
    "education_level": "Unknown",
    "country_iso3_code": "KGZ",
    "giga_id_school": "12e30d55-940c-3ba5-81d6-6f43eaeaf79e",
    "school_data_source": null
  },
  {
    "school_name": "СШ №4 имени Э.Ибраева",
    "longitude": 75.99286651611328,
    "latitude": 41.42544937133789,
    "education_level": "Unknown",
    "country_iso3_code": "KGZ",
    "giga_id_school": "462661f0-1cfa-39d5-8dc0-ae687155bb26",
    "school_data_source": null
  },
  {
    "school_name": "СШ Сосновская средняя школа",
    "longitude": 73.9195327758789,
    "latitude": 42.67164993286133,
    "education_level": "Unknown",
    "country_iso3_code": "KGZ",
    "giga_id_school": "375f85a2-a911-38b5-939c-d200292ef138",
    "school_data_source": null
  },
  {
    "school_name": "СОШ \" Кок-Ойская общеобразовательная  средняя школа имени Т.Кушчубаевой Таласского района Таласской области\"",
    "longitude": 72.1969985961914,
    "latitude": 42.55165100097656,
    "education_level": "Unknown",
    "country_iso3_code": "KGZ",
    "giga_id_school": "70921b50-eecc-3f76-b2de-4de81b7138dd",
    "school_data_source": null
  },
  {
    "school_name": "СОШ Средняя образовательная школа №6 города Каракол",
    "longitude": 78.3935317993164,
    "latitude": 42.4722785949707,
    "education_level": "Unknown",
    "country_iso3_code": "KGZ",
    "giga_id_school": "a0d9c3c9-5211-388b-80f7-92b05631110d",
    "school_data_source": null
  },
  {
    "school_name": "СШ Киргшелкская средняя школа Ысыкатинского района Чуйской области",
    "longitude": 74.78932189941406,
    "latitude": 42.88285827636719,
    "education_level": "Unknown",
    "country_iso3_code": "KGZ",
    "giga_id_school": "52b39e3e-d86b-3ad0-8d50-dc601b7d2590",
    "school_data_source": null
  },
  {
    "school_name": "СОШ Средняя общеобразовательная школа №5 имени Ч. Айтматова (Балыкчы)",
    "longitude": 76.16820526123047,
    "latitude": 42.453433990478516,
    "education_level": "Unknown",
    "country_iso3_code": "KGZ",
    "giga_id_school": "fee9de72-7e29-309e-9069-1de2c0d8a748",
    "school_data_source": null
  },
  {
    "school_name": "СОШ Учреждение \"Общеобразовательная Средняя школа № 63 имени Эргеша Торобаева\"",
    "longitude": 73.0113296508789,
    "latitude": 41.04265213012695,
    "education_level": "Unknown",
    "country_iso3_code": "KGZ",
    "giga_id_school": "21102e01-fff5-38ff-bd3f-1df95c389912",
    "school_data_source": null
  },
  {
    "school_name": "СШ Учреждение Средняя школа №48 \"Гулбаар\"",
    "longitude": 72.79786682128906,
    "latitude": 40.571571350097656,
    "education_level": "Unknown",
    "country_iso3_code": "KGZ",
    "giga_id_school": "8df92d7e-63e9-3399-b873-9150df864477",
    "school_data_source": null
  },
  {
    "school_name": "СШ Средняя школа \"Орук-Зар\" Кадамжайского района",
    "longitude": 71.04354858398438,
    "latitude": 40.20497131347656,
    "education_level": "Unknown",
    "country_iso3_code": "KGZ",
    "giga_id_school": "b7d0a427-7535-3301-a232-0f0e4aa93ce1",
    "school_data_source": null
  },
  {
    "school_name": "ШГ Учреждение школа-гимназия №17 имени Ю.А.Гагарина",
    "longitude": 72.77400207519531,
    "latitude": 40.60066604614258,
    "education_level": "Unknown",
    "country_iso3_code": "KGZ",
    "giga_id_school": "1a319dbf-3d0b-319f-b948-efd3ab774eb0",
    "school_data_source": null
  },
  {
    "school_name": "ШГ Учреждение  \"Школа-гимназия №39 имени Бектурсуна Алымова\"",
    "longitude": 74.59586334228516,
    "latitude": 42.846778869628906,
    "education_level": "Unknown",
    "country_iso3_code": "KGZ",
    "giga_id_school": "934de472-be9d-369c-9b83-ac29db0653c0",
    "school_data_source": null
  },
  {
    "school_name": "СШ Средняя школа имени Аскара Турдакунова",
    "longitude": 75.06026458740234,
    "latitude": 41.41225051879883,
    "education_level": "Unknown",
    "country_iso3_code": "KGZ",
    "giga_id_school": "a6893a85-3164-399f-aba3-b7cb6b72a0cf",
    "school_data_source": null
  },
  {
    "school_name": "СШ Средняя школа имени Мурзабека Балбакова",
    "longitude": 74.84569549560547,
    "latitude": 41.2242431640625,
    "education_level": "Unknown",
    "country_iso3_code": "KGZ",
    "giga_id_school": "4588d3e2-db96-3f3c-8b34-777205f692cc",
    "school_data_source": null
  },
  {
    "school_name": "СШ Средняя школа Сабитакуна Жусупбаева",
    "longitude": 74.85771179199219,
    "latitude": 41.268062591552734,
    "education_level": "Unknown",
    "country_iso3_code": "KGZ",
    "giga_id_school": "60244f86-2cf9-34be-8392-73a326a253d3",
    "school_data_source": null
  },
  {
    "school_name": "СШ Средняя школа имени Шукурбека Бейшеналиева",
    "longitude": 74.9648666381836,
    "latitude": 41.2674674987793,
    "education_level": "Unknown",
    "country_iso3_code": "KGZ",
    "giga_id_school": "1d17976e-94c1-3fb2-a302-45d446aa1a5d",
    "school_data_source": null
  },
  {
    "school_name": "СШ Средняя школа имени Эсенгула Карасартова",
    "longitude": 74.94758605957031,
    "latitude": 41.26598358154297,
    "education_level": "Unknown",
    "country_iso3_code": "KGZ",
    "giga_id_school": "7ff09c58-cce7-3952-8f16-fc715d5ddae9",
    "school_data_source": null
  },
  {
    "school_name": "СШ Средняя школа имени Бакый Мусуралиева",
    "longitude": 74.94017028808594,
    "latitude": 41.301063537597656,
    "education_level": "Unknown",
    "country_iso3_code": "KGZ",
    "giga_id_school": "6e65411c-c42f-346f-a729-70d903ef4642",
    "school_data_source": null
  },
  {
    "school_name": "СШ Средняя школа имени Калыя Молдобасанова",
    "longitude": 74.99687957763672,
    "latitude": 41.23121643066406,
    "education_level": "Unknown",
    "country_iso3_code": "KGZ",
    "giga_id_school": "4c7aae2b-5ce7-3be0-9ad1-2f776c5089c0",
    "school_data_source": null
  },
  {
    "school_name": "СШ Средняя школа имени Мукаша Базаркулова",
    "longitude": 74.7081298828125,
    "latitude": 41.20849609375,
    "education_level": "Unknown",
    "country_iso3_code": "KGZ",
    "giga_id_school": "6a222411-8200-3d7e-a2c4-9c5ef8d1264c",
    "school_data_source": null
  },
  {
    "school_name": "СШ Средняя школа имени Насипа Жыргалбековой",
    "longitude": 74.5996322631836,
    "latitude": 41.248634338378906,
    "education_level": "Unknown",
    "country_iso3_code": "KGZ",
    "giga_id_school": "cc74bd89-73f8-3c05-9234-2afa41b10e83",
    "school_data_source": null
  },
  {
    "school_name": "Средняя школа имени Бердалы Календерова",
    "longitude": 74.5399398803711,
    "latitude": 41.237464904785156,
    "education_level": "Unknown",
    "country_iso3_code": "KGZ",
    "giga_id_school": "27b82eb9-e36b-3532-8863-9ad5d1c380c7",
    "school_data_source": null
  },
  {
    "school_name": "СШ Средняя школа имени Итикула Молдобаева",
    "longitude": 74.40953826904297,
    "latitude": 41.126304626464844,
    "education_level": "Unknown",
    "country_iso3_code": "KGZ",
    "giga_id_school": "5a701540-25f0-3671-8ca8-bf1c711799c5",
    "school_data_source": null
  },
  {
    "school_name": "СШ Средняя школа имени Эргеша Мейманова",
    "longitude": 74.25899505615234,
    "latitude": 41.08244705200195,
    "education_level": "Unknown",
    "country_iso3_code": "KGZ",
    "giga_id_school": "0fc87eec-131e-35fa-a14c-f1ddf7bf4d55",
    "school_data_source": null
  },
  {
    "school_name": "СШ Средняя школа имени Суйумбека Атамбекова",
    "longitude": 75.24281311035156,
    "latitude": 41.5059700012207,
    "education_level": "Unknown",
    "country_iso3_code": "KGZ",
    "giga_id_school": "b9b090ab-4e0a-3a86-8dbb-362128e260ea",
    "school_data_source": null
  },
  {
    "school_name": "Средняя школа имени Байымбета",
    "longitude": 75.01705169677734,
    "latitude": 41.45695877075195,
    "education_level": "Unknown",
    "country_iso3_code": "KGZ",
    "giga_id_school": "59a2ffc1-0222-3bc4-bb60-efa71bc9a39a",
    "school_data_source": null
  },
  {
    "school_name": "СШ Средняя школа имени Жоробека Сатылганова",
    "longitude": 75.11797332763672,
    "latitude": 41.456111907958984,
    "education_level": "Unknown",
    "country_iso3_code": "KGZ",
    "giga_id_school": "8161699c-3d30-348c-b249-d1aa48d0a1d1",
    "school_data_source": null
  },
  {
    "school_name": "СШ Средняя школа имени Асаналы Абдраимова",
    "longitude": 74.83645629882812,
    "latitude": 41.45134735107422,
    "education_level": "Unknown",
    "country_iso3_code": "KGZ",
    "giga_id_school": "0d524f3f-c43c-3adf-bbdc-ef7816da6b92",
    "school_data_source": null
  },
  {
    "school_name": "СШ Средняя школа имени Муса Баетова",
    "longitude": 74.84740447998047,
    "latitude": 41.40766906738281,
    "education_level": "Unknown",
    "country_iso3_code": "KGZ",
    "giga_id_school": "c81fca58-a916-3fd3-84f9-094f69edb7cc",
    "school_data_source": null
  },
  {
    "school_name": "СШ Средняя школа имени Табриса Оторова",
    "longitude": 74.92523956298828,
    "latitude": 41.357120513916016,
    "education_level": "Unknown",
    "country_iso3_code": "KGZ",
    "giga_id_school": "08f42628-d630-3bb3-97a2-04f3fffa3d0d",
    "school_data_source": null
  },
  {
    "school_name": "СШ Учреждение \"Средняя школа им.Жаналы уулу Абдыракмана\"",
    "longitude": 75.7881851196289,
    "latitude": 41.17228317260742,
    "education_level": "Unknown",
    "country_iso3_code": "KGZ",
    "giga_id_school": "b2c031c7-5dd4-3697-a6ac-29968a5f48ae",
    "school_data_source": null
  },
  {
    "school_name": "СШ Учреждение \"Средняя школа имени Апыша Койчуманова\"",
    "longitude": 76.05156707763672,
    "latitude": 41.21651840209961,
    "education_level": "Unknown",
    "country_iso3_code": "KGZ",
    "giga_id_school": "716d5987-e710-3203-84de-84506e564bf8",
    "school_data_source": null
  },
  {
    "school_name": "СШ Учреждение \"Средняя школа имени Самудина Мурзакматов\"",
    "longitude": 75.94190216064453,
    "latitude": 41.20775604248047,
    "education_level": "Unknown",
    "country_iso3_code": "KGZ",
    "giga_id_school": "20b811c1-a446-3fe9-a9e8-e3da065e2771",
    "school_data_source": null
  },
  {
    "school_name": "СШ Учреждение \"Средняя школа им.Боогачы\"",
    "longitude": 75.13389587402344,
    "latitude": 41.23604202270508,
    "education_level": "Unknown",
    "country_iso3_code": "KGZ",
    "giga_id_school": "92c537a4-9bc7-3458-af25-4bf06484d756",
    "school_data_source": null
  },
  {
    "school_name": "СШ Учреждение \"Средняя школа имени Токтомуша Адыранова\"",
    "longitude": 75.6725845336914,
    "latitude": 41.089168548583984,
    "education_level": "Unknown",
    "country_iso3_code": "KGZ",
    "giga_id_school": "98816ea8-6497-3cd3-88e6-2f27477dfe90",
    "school_data_source": null
  },
  {
    "school_name": "СШ Учреждение \"Средняя школа имени Анварбека Чортекова\"",
    "longitude": 75.73268127441406,
    "latitude": 41.118534088134766,
    "education_level": "Unknown",
    "country_iso3_code": "KGZ",
    "giga_id_school": "4538f912-9dff-3cc7-8755-fb7b31747234",
    "school_data_source": null
  },
  {
    "school_name": "СШ Учреждение \"Средняя школа имени Касыке Мамбеталиева\"",
    "longitude": 75.81843566894531,
    "latitude": 41.16946792602539,
    "education_level": "Unknown",
    "country_iso3_code": "KGZ",
    "giga_id_school": "6117b6e1-89ae-3fb2-86f8-a8f3b9587044",
    "school_data_source": null
  },
  {
    "school_name": "Средняя школа имени Карыбек уулу Акматаалы села Ат-Башы\"",
    "longitude": 75.81403350830078,
    "latitude": 41.17018508911133,
    "education_level": "Unknown",
    "country_iso3_code": "KGZ",
    "giga_id_school": "89f90b54-a936-335d-a905-49540fc44a8e",
    "school_data_source": null
  },
  {
    "school_name": "СШ Учреждение \"Средняя школа им.Абдыралы Керимбаева\"",
    "longitude": 75.827880859375,
    "latitude": 41.1644172668457,
    "education_level": "Unknown",
    "country_iso3_code": "KGZ",
    "giga_id_school": "813e8ac6-449b-3e74-855b-cda127f900fa",
    "school_data_source": null
  },
  {
    "school_name": "СШ Учреждение \"Средняя школа Ой-Теpскен\"",
    "longitude": 75.81383514404297,
    "latitude": 41.14043426513672,
    "education_level": "Unknown",
    "country_iso3_code": "KGZ",
    "giga_id_school": "e2a61e0c-71f8-32c0-9d0c-41bda1745194",
    "school_data_source": null
  },
  {
    "school_name": "СШ Учреждение \"Средняя школа имени Чыпая Асекова\"",
    "longitude": 75.90802001953125,
    "latitude": 41.156532287597656,
    "education_level": "Unknown",
    "country_iso3_code": "KGZ",
    "giga_id_school": "4de006eb-083c-357a-ba60-94c929b9e79a",
    "school_data_source": null
  },
  {
    "school_name": "СШ Учреждение \"Средняя школа имени Апыша Табылдиева\"",
    "longitude": 75.97852325439453,
    "latitude": 41.162654876708984,
    "education_level": "Unknown",
    "country_iso3_code": "KGZ",
    "giga_id_school": "0edb090f-6717-3e95-8f57-261d02efd252",
    "school_data_source": null
  },
  {
    "school_name": "СШ Учреждение \"Средняя школа имени Нааматбека Усеналиева\"",
    "longitude": 75.53780364990234,
    "latitude": 41.03336715698242,
    "education_level": "Unknown",
    "country_iso3_code": "KGZ",
    "giga_id_school": "6557ec13-a3a2-309d-8907-a2d67ad315fe",
    "school_data_source": null
  },
  {
    "school_name": "Средняя школа имени Жолдубая Кайыпова",
    "longitude": 75.63128662109375,
    "latitude": 41.06948471069336,
    "education_level": "Unknown",
    "country_iso3_code": "KGZ",
    "giga_id_school": "dca74a72-2371-36fd-8b2f-e2b1a7db51e2",
    "school_data_source": null
  },
  {
    "school_name": "СШ Учреждение \"Средняя школа имени Калкана Керималиева\"",
    "longitude": 75.5515365600586,
    "latitude": 41.05440139770508,
    "education_level": "Unknown",
    "country_iso3_code": "KGZ",
    "giga_id_school": "48fbafa4-1c75-3953-9ea9-b9402d9333c8",
    "school_data_source": null
  },
  {
    "school_name": "СШ Учреждение \"Средняя школа имени Абыла Искендерова\"",
    "longitude": 75.59088134765625,
    "latitude": 41.09524154663086,
    "education_level": "Unknown",
    "country_iso3_code": "KGZ",
    "giga_id_school": "0796074b-ae30-32c9-b93a-b99bd96345b4",
    "school_data_source": null
  },
  {
    "school_name": "СШ Учреждение \"Средняя школа имени Карыбека Карпекова\"",
    "longitude": 75.68160247802734,
    "latitude": 41.12813186645508,
    "education_level": "Unknown",
    "country_iso3_code": "KGZ",
    "giga_id_school": "d3d0a14d-2dd3-30d2-8a36-e1bbec969134",
    "school_data_source": null
  },
  {
    "school_name": "СШ Учреждение \"Средняя школа имени Акиша Капарова\"",
    "longitude": 75.72789001464844,
    "latitude": 41.16487121582031,
    "education_level": "Unknown",
    "country_iso3_code": "KGZ",
    "giga_id_school": "327e3bd4-1177-3114-9204-f1de21014448",
    "school_data_source": null
  },
  {
    "school_name": "СШ Учреждение \"Средняя школа имени Абийбуллы Осмоналиева\"",
    "longitude": 76.1384506225586,
    "latitude": 41.18903350830078,
    "education_level": "Unknown",
    "country_iso3_code": "KGZ",
    "giga_id_school": "6c28745d-7ee8-3be1-af47-97c6afc12475",
    "school_data_source": null
  },
  {
    "school_name": "СШ Учреждение \"Средняя школа имени Султанбека Райымбекова\"",
    "longitude": 76.20548248291016,
    "latitude": 41.21062469482422,
    "education_level": "Unknown",
    "country_iso3_code": "KGZ",
    "giga_id_school": "dc6e163e-ff24-321c-866a-9f4c863b0af2",
    "school_data_source": null
  },
  {
    "school_name": "СШ Учреждение \"Средняя школа имени Токтобая Тынымбаева\"",
    "longitude": 76.04645538330078,
    "latitude": 41.17350769042969,
    "education_level": "Unknown",
    "country_iso3_code": "KGZ",
    "giga_id_school": "6ac0b672-d0aa-3c4e-8f4f-a02f754205ba",
    "school_data_source": null
  },
  {
    "school_name": "СШ Учреждение \"Средняя школа имени Шатмана Садыбакасова\"",
    "longitude": 74.65499877929688,
    "latitude": 42.005001068115234,
    "education_level": "Unknown",
    "country_iso3_code": "KGZ",
    "giga_id_school": "98adeafb-4f00-345d-9f9a-2d35c4db4325",
    "school_data_source": null
  },
  {
    "school_name": "СШ Средняя школа имени профессора Айып Идинова",
    "longitude": 74.95249938964844,
    "latitude": 41.98400115966797,
    "education_level": "Unknown",
    "country_iso3_code": "KGZ",
    "giga_id_school": "d9cd5e4d-ee07-3730-96a7-b65868244579",
    "school_data_source": null
  },
  {
    "school_name": "СШ Средняя школа имени Касымбек уулу Мамбеталы",
    "longitude": 74.15008544921875,
    "latitude": 41.15972137451172,
    "education_level": "Unknown",
    "country_iso3_code": "KGZ",
    "giga_id_school": "74135953-f9d6-3739-a5f2-c3c8d5b26de1",
    "school_data_source": null
  },
  {
    "school_name": "СШ Средняя школа имени Рысалы Солтонбекова",
    "longitude": 74.96666717529297,
    "latitude": 41.98833465576172,
    "education_level": "Unknown",
    "country_iso3_code": "KGZ",
    "giga_id_school": "b93621ca-6d9b-3cb5-ac62-aa02941133c5",
    "school_data_source": null
  },
  {
    "school_name": "СШ Средняя школа имени Мыскал Омурканова",
    "longitude": 74.98332977294922,
    "latitude": 42.03499984741211,
    "education_level": "Unknown",
    "country_iso3_code": "KGZ",
    "giga_id_school": "f24af08a-98fe-3497-957e-b12e6d0291fc",
    "school_data_source": null
  },
  {
    "school_name": "СШ Средняя школа \"Лама\"",
    "longitude": 74.91130828857422,
    "latitude": 42.03968811035156,
    "education_level": "Unknown",
    "country_iso3_code": "KGZ",
    "giga_id_school": "01ce08fe-dccc-3d0c-909b-ec0a8ff7ed80",
    "school_data_source": null
  },
  {
    "school_name": "СШ Средняя школа имени Исакбека Орозалиева",
    "longitude": 74.20553588867188,
    "latitude": 41.72293472290039,
    "education_level": "Unknown",
    "country_iso3_code": "KGZ",
    "giga_id_school": "b0944ea5-c578-3214-a094-0982dc3f63c1",
    "school_data_source": null
  },
  {
    "school_name": "Учреждение \"Средняя школа имени Бубуайда Кожоналиевой\"",
    "longitude": 74.33246612548828,
    "latitude": 41.84769821166992,
    "education_level": "Unknown",
    "country_iso3_code": "KGZ",
    "giga_id_school": "a9a25c40-4d34-3434-90e7-29b52dd2c7da",
    "school_data_source": null
  },
  {
    "school_name": "СШ Учреждение \"Средняя школа Кызыл-Октябрь\"",
    "longitude": 74.17556762695312,
    "latitude": 42.02277374267578,
    "education_level": "Unknown",
    "country_iso3_code": "KGZ",
    "giga_id_school": "e16ddacf-06ae-354a-a91f-0191b04ce820",
    "school_data_source": null
  },
  {
    "school_name": "СШ Средняя школа имени Турусбек уулу Султан",
    "longitude": 74.41999816894531,
    "latitude": 41.8849983215332,
    "education_level": "Unknown",
    "country_iso3_code": "KGZ",
    "giga_id_school": "23531c9b-ee55-36be-bf26-51cc70187c81",
    "school_data_source": null
  },
  {
    "school_name": "СШ Учреждение \"Средняя школа имени Молдокеева Асылбека\"",
    "longitude": 74.58403778076172,
    "latitude": 41.99372482299805,
    "education_level": "Unknown",
    "country_iso3_code": "KGZ",
    "giga_id_school": "877c00d3-c325-3838-9d67-0c355d2811c5",
    "school_data_source": null
  },
  {
    "school_name": "Аблас Сулайманов атындагы орто мектеп",
    "longitude": 74.13111114501953,
    "latitude": 42.08194351196289,
    "education_level": "Unknown",
    "country_iso3_code": "KGZ",
    "giga_id_school": "79b9295e-e836-3429-ae38-32389f0aac13",
    "school_data_source": null
  },
  {
    "school_name": "СШ Средняя школа имени \"Тыналы\"",
    "longitude": 74.13333129882812,
    "latitude": 41.73933410644531,
    "education_level": "Unknown",
    "country_iso3_code": "KGZ",
    "giga_id_school": "cdc6ecf8-1fed-3e64-9f7a-88ce97789e59",
    "school_data_source": null
  },
  {
    "school_name": "СШ Средняя школа имени Сейдалы Медетова",
    "longitude": 74.75,
    "latitude": 41.983333587646484,
    "education_level": "Unknown",
    "country_iso3_code": "KGZ",
    "giga_id_school": "25e8a35c-411d-3bc4-8e82-312fa565875f",
    "school_data_source": null
  },
  {
    "school_name": "СШ Средняя школа имени Акуна Садырбаева",
    "longitude": 74.69921875,
    "latitude": 41.993064880371094,
    "education_level": "Unknown",
    "country_iso3_code": "KGZ",
    "giga_id_school": "0fe240de-6748-362d-b7a0-b6fa7fb84214",
    "school_data_source": null
  },
  {
    "school_name": "СШ Средняя школа \"Таш-Добо\"",
    "longitude": 74.82811737060547,
    "latitude": 41.97816467285156,
    "education_level": "Unknown",
    "country_iso3_code": "KGZ",
    "giga_id_school": "865ee477-b98c-327b-b4d6-2e3143579235",
    "school_data_source": null
  },
  {
    "school_name": "СШ Учреждение \"Средняя школа имени Отунчу Ногойбаева\"",
    "longitude": 74.55000305175781,
    "latitude": 41.93333435058594,
    "education_level": "Unknown",
    "country_iso3_code": "KGZ",
    "giga_id_school": "d2950bb3-5084-3f46-bec8-c054356e1abe",
    "school_data_source": null
  },
  {
    "school_name": "СШ Средняя школа имени Мидина Алыбаева",
    "longitude": 74.51844024658203,
    "latitude": 41.92851257324219,
    "education_level": "Unknown",
    "country_iso3_code": "KGZ",
    "giga_id_school": "20ab651c-e235-3852-8ec3-80d5b9a0c16b",
    "school_data_source": null
  },
  {
    "school_name": "ШГ Учреждение \"школа-гимназия имени Т.Турсунбаевой\"",
    "longitude": 74.5280990600586,
    "latitude": 41.929832458496094,
    "education_level": "Unknown",
    "country_iso3_code": "KGZ",
    "giga_id_school": "524bd556-568f-370a-b65d-431fe678667d",
    "school_data_source": null
  },
  {
    "school_name": "СШ Средняя школа имени Кекилик уулу Жолдошбек",
    "longitude": 74.46932220458984,
    "latitude": 41.91208267211914,
    "education_level": "Unknown",
    "country_iso3_code": "KGZ",
    "giga_id_school": "f1759342-a8b3-3d84-a14b-7d574411af5b",
    "school_data_source": null
  },
  {
    "school_name": "СШ Средняя школа имени Калык Акыева",
    "longitude": 74.78333282470703,
    "latitude": 42.000099182128906,
    "education_level": "Unknown",
    "country_iso3_code": "KGZ",
    "giga_id_school": "945cac76-d170-37ae-9df5-079494d1cc60",
    "school_data_source": null
  },
  {
    "school_name": "СШ Средняя школа имени Жусуп Сары уулу",
    "longitude": 74.4451675415039,
    "latitude": 41.676666259765625,
    "education_level": "Unknown",
    "country_iso3_code": "KGZ",
    "giga_id_school": "f899e4ed-de4a-3122-84a0-a3d94f3cdf34",
    "school_data_source": null
  },
  {
    "school_name": "СШ Средняя школа им.Н.К.Крупской",
    "longitude": 74.46022033691406,
    "latitude": 41.6740837097168,
    "education_level": "Unknown",
    "country_iso3_code": "KGZ",
    "giga_id_school": "28149e09-a3e4-3766-b5af-bae941f8e55e",
    "school_data_source": null
  },
  {
    "school_name": "СШ Средняя школа имени Ажыке Ибраимова",
    "longitude": 74.46814727783203,
    "latitude": 41.686767578125,
    "education_level": "Unknown",
    "country_iso3_code": "KGZ",
    "giga_id_school": "567bb3ab-a6f6-37d2-8556-311f005dad1e",
    "school_data_source": null
  },
  {
    "school_name": "СШ Учреждение \"Средняя школа имени Турсун Темировой\"",
    "longitude": 75.7858657836914,
    "latitude": 42.22679901123047,
    "education_level": "Unknown",
    "country_iso3_code": "KGZ",
    "giga_id_school": "66b7e3bd-2016-3c9e-ac2f-c941afddf6d8",
    "school_data_source": null
  },
  {
    "school_name": "СШ Учреждение \"Средняя школа имени Азиса Абдыкеримова\"",
    "longitude": 75.32524871826172,
    "latitude": 42.1817512512207,
    "education_level": "Unknown",
    "country_iso3_code": "KGZ",
    "giga_id_school": "89faf24a-7290-3b1e-b337-49fff5aa9832",
    "school_data_source": null
  },
  {
    "school_name": "СШ Учреждение \"Средняя школа имени Абылгазы уулу Ишеналы\"",
    "longitude": 75.23591613769531,
    "latitude": 42.2401008605957,
    "education_level": "Unknown",
    "country_iso3_code": "KGZ",
    "giga_id_school": "1068f7dd-be7e-3438-b5a0-8984aae5fc1e",
    "school_data_source": null
  },
  {
    "school_name": "СШ Учреждение \"Средняя школа Кызыл-Добо\"",
    "longitude": 75.25679779052734,
    "latitude": 42.210243225097656,
    "education_level": "Unknown",
    "country_iso3_code": "KGZ",
    "giga_id_school": "d52feb0b-8e3d-318c-90dc-9a0e6b644388",
    "school_data_source": null
  },
  {
    "school_name": "СШ Средняя школа имени Абдразака Жалпетекова",
    "longitude": 75.36426544189453,
    "latitude": 42.197601318359375,
    "education_level": "Unknown",
    "country_iso3_code": "KGZ",
    "giga_id_school": "9b3fe93f-6b47-3532-ab8f-b84534adc541",
    "school_data_source": null
  },
  {
    "school_name": "СШ Учреждение \"Средняя школа имени Шапака Рысмендеева\"",
    "longitude": 75.8169937133789,
    "latitude": 42.19393539428711,
    "education_level": "Unknown",
    "country_iso3_code": "KGZ",
    "giga_id_school": "38c04c75-5d36-32cc-89c1-f9eb1cf4a183",
    "school_data_source": null
  },
  {
    "school_name": "школа-гимназия имени Нинакан Жундубаевой",
    "longitude": 75.75691986083984,
    "latitude": 42.212799072265625,
    "education_level": "Unknown",
    "country_iso3_code": "KGZ",
    "giga_id_school": "78a1cec6-82de-3d35-a984-0583dbf08259",
    "school_data_source": null
  },
  {
    "school_name": "СШ Учреждение \"Средняя школа имени Капаpа Кыдыpалиева\"",
    "longitude": 75.76495361328125,
    "latitude": 42.21474838256836,
    "education_level": "Unknown",
    "country_iso3_code": "KGZ",
    "giga_id_school": "f3aa2800-079d-3676-8f01-02f13b16faa1",
    "school_data_source": null
  },
  {
    "school_name": "СШ Учреждение \"Средняя школа имени Калыгул Бай уулу\"",
    "longitude": 75.7442855834961,
    "latitude": 42.21084976196289,
    "education_level": "Unknown",
    "country_iso3_code": "KGZ",
    "giga_id_school": "c735a7c2-42c0-3de4-ad63-3f89bfadfb41",
    "school_data_source": null
  },
  {
    "school_name": "Учреждение \"Школа-гимназия имени Ишенаалы Арабаева\"",
    "longitude": 75.75231170654297,
    "latitude": 42.215431213378906,
    "education_level": "Unknown",
    "country_iso3_code": "KGZ",
    "giga_id_school": "1cf0014d-8d09-308e-b16c-a2628c56793b",
    "school_data_source": null
  },
  {
    "school_name": "СШ Учреждение \"Средняя школа имени Сатаркула Исмаилова\"",
    "longitude": 75.77117156982422,
    "latitude": 42.1812858581543,
    "education_level": "Unknown",
    "country_iso3_code": "KGZ",
    "giga_id_school": "e3d599b2-1ad4-3cbe-b42f-71fd2eab22dc",
    "school_data_source": null
  },
  {
    "school_name": "СШ Учреждение \"Средняя школа имени Сагынбай Оpозбак уулу\"",
    "longitude": 75.896484375,
    "latitude": 42.198368072509766,
    "education_level": "Unknown",
    "country_iso3_code": "KGZ",
    "giga_id_school": "7a4e0957-ed36-31b7-b536-bca1ccdd0eec",
    "school_data_source": null
  },
  {
    "school_name": "СШ Учреждение \"Средняя школа имени Аблес уулу Алайдаp\"",
    "longitude": 75.92391967773438,
    "latitude": 42.20591735839844,
    "education_level": "Unknown",
    "country_iso3_code": "KGZ",
    "giga_id_school": "bd6f7cc5-7479-34d4-be65-e0bc6afe6fc2",
    "school_data_source": null
  },
  {
    "school_name": "СШ Учреждение \"Средняя школа имени Кенешбека Мырзабекова\"",
    "longitude": 75.54159545898438,
    "latitude": 42.22404479980469,
    "education_level": "Unknown",
    "country_iso3_code": "KGZ",
    "giga_id_school": "3d4633d2-7e3c-334e-851f-c5c3c3dd9d25",
    "school_data_source": null
  },
  {
    "school_name": "СШ Учреждение \"Средняя школа имени Ак-Жар\"",
    "longitude": 75.61188507080078,
    "latitude": 42.21364974975586,
    "education_level": "Unknown",
    "country_iso3_code": "KGZ",
    "giga_id_school": "34e8a7f2-b55b-3dfc-b557-85a367b71463",
    "school_data_source": null
  },
  {
    "school_name": "СШ Учреждение \"Средняя школа имени Осмона Айбашова\"",
    "longitude": 75.43367767333984,
    "latitude": 42.31272506713867,
    "education_level": "Unknown",
    "country_iso3_code": "KGZ",
    "giga_id_school": "6bae32d8-9db8-35f7-b68d-219aece746e8",
    "school_data_source": null
  },
  {
    "school_name": "СШ Учреждение \"Средняя школа имени Усена Бейшеева\"",
    "longitude": 75.97603607177734,
    "latitude": 41.91904830932617,
    "education_level": "Unknown",
    "country_iso3_code": "KGZ",
    "giga_id_school": "6598ef68-d65b-3b21-9065-2175b8a6d23a",
    "school_data_source": null
  },
  {
    "school_name": "СШ Учреждение \"Средняя школа имени Шамена села Сары-Булак\" Кочкорского района",
    "longitude": 75.76165008544922,
    "latitude": 41.966800689697266,
    "education_level": "Unknown",
    "country_iso3_code": "KGZ",
    "giga_id_school": "35c21ecb-1579-3b36-8922-59f1e55d57f3",
    "school_data_source": null
  },
  {
    "school_name": "СШ Учреждение \"Средняя школа имени Шарыпбека Абдылдаева\"",
    "longitude": 75.73890686035156,
    "latitude": 42.233638763427734,
    "education_level": "Unknown",
    "country_iso3_code": "KGZ",
    "giga_id_school": "c6dc8bc2-86da-3778-a3ed-6b360bd67d00",
    "school_data_source": null
  },
  {
    "school_name": "СШ Учреждение \"Средняя школа имени Арзымкана Бостонова\"",
    "longitude": 75.82574462890625,
    "latitude": 42.24034881591797,
    "education_level": "Unknown",
    "country_iso3_code": "KGZ",
    "giga_id_school": "151e32de-4a2b-3e5a-b93e-7ade26c3d5ea",
    "school_data_source": null
  },
  {
    "school_name": "СШ Учреждение\"Средняя школа Чекилдек имени Кайыпа Темирова\"",
    "longitude": 75.59545135498047,
    "latitude": 42.2008171081543,
    "education_level": "Unknown",
    "country_iso3_code": "KGZ",
    "giga_id_school": "c50b46a4-0165-37d4-9f74-9a34c69f6c25",
    "school_data_source": null
  },
  {
    "school_name": "СШ Средняя школа им.Кокобай Мамбеталиева",
    "longitude": 75.21004486083984,
    "latitude": 42.26924514770508,
    "education_level": "Unknown",
    "country_iso3_code": "KGZ",
    "giga_id_school": "d37ea0d5-97fb-3c72-8807-f2be4ea49753",
    "school_data_source": null
  },
  {
    "school_name": "СШ Учреждение \"Средняя школа имени Сагындыка Омуpбаева\"",
    "longitude": 75.31341552734375,
    "latitude": 42.24191665649414,
    "education_level": "Unknown",
    "country_iso3_code": "KGZ",
    "giga_id_school": "00d3d2e3-e780-32f9-a99b-0414de85c554",
    "school_data_source": null
  },
  {
    "school_name": "СШ Учреждение \"Средняя школа имени Турдакуна Усубалиева\"",
    "longitude": 75.65061950683594,
    "latitude": 42.1829833984375,
    "education_level": "Unknown",
    "country_iso3_code": "KGZ",
    "giga_id_school": "8bcbdc55-fb5f-3ce0-9ad2-1600e4b8d52a",
    "school_data_source": null
  },
  {
    "school_name": "СШ Средняя школа имени Корчубека Акназаpова",
    "longitude": 75.47889709472656,
    "latitude": 42.20326614379883,
    "education_level": "Unknown",
    "country_iso3_code": "KGZ",
    "giga_id_school": "16b3b2f9-f67f-30c2-a33d-bce9c69fe14c",
    "school_data_source": null
  },
  {
    "school_name": "СШ Учреждение \"Средняя школа Ак-Чий\"",
    "longitude": 75.36090087890625,
    "latitude": 42.15119934082031,
    "education_level": "Unknown",
    "country_iso3_code": "KGZ",
    "giga_id_school": "7d270c63-3eae-3ed4-876a-4eb520e0c5c6",
    "school_data_source": null
  },
  {
    "school_name": "СШ Cредняя школа \"Ара-Кол\"",
    "longitude": 75.46308135986328,
    "latitude": 42.171634674072266,
    "education_level": "Unknown",
    "country_iso3_code": "KGZ",
    "giga_id_school": "04938201-3e8a-3d05-9f3c-4ffe3d19b641",
    "school_data_source": null
  },
  {
    "school_name": "СШ Средняя школа им.У.Малтаваpова",
    "longitude": 75.45845031738281,
    "latitude": 42.2144660949707,
    "education_level": "Unknown",
    "country_iso3_code": "KGZ",
    "giga_id_school": "c4fc2dea-8632-3947-bfae-a395babca3f5",
    "school_data_source": null
  },
  {
    "school_name": "СШ им Жунушалы кызы Сайнап",
    "longitude": 75.5006332397461,
    "latitude": 42.15021514892578,
    "education_level": "Unknown",
    "country_iso3_code": "KGZ",
    "giga_id_school": "78a1673d-aab0-3e3c-9d33-2251ab3539f4",
    "school_data_source": null
  },
  {
    "school_name": "СШ Учреждение \"Средняя школа имени Абдуллы Качибекова\"",
    "longitude": 75.440185546875,
    "latitude": 42.13876724243164,
    "education_level": "Unknown",
    "country_iso3_code": "KGZ",
    "giga_id_school": "5bb24bbd-671a-3296-9e1f-9d8abd58fd1d",
    "school_data_source": null
  },
  {
    "school_name": "СШ Учреждение \"Средняя школа имени Асыpанбека Мааткеpимова\"",
    "longitude": 75.42036437988281,
    "latitude": 42.17124938964844,
    "education_level": "Unknown",
    "country_iso3_code": "KGZ",
    "giga_id_school": "3640268c-08c8-37fa-b76e-96102f9430d2",
    "school_data_source": null
  },
  {
    "school_name": "СШ Учреждение \"Средняя школа Сон-Кол\"",
    "longitude": 75.65496826171875,
    "latitude": 42.199806213378906,
    "education_level": "Unknown",
    "country_iso3_code": "KGZ",
    "giga_id_school": "f7776ba2-9ccf-3b90-9d8b-9734f1807476",
    "school_data_source": null
  },
  {
    "school_name": "СШ Учреждение \"Средняя школа имени Мурата Осмонова\"",
    "longitude": 75.40206909179688,
    "latitude": 41.45421600341797,
    "education_level": "Unknown",
    "country_iso3_code": "KGZ",
    "giga_id_school": "49b1ffd2-e9e9-39ac-8965-d5ae24501397",
    "school_data_source": null
  },
  {
    "school_name": "Омор уулу Кожоке атындагы орто мектеби",
    "longitude": 75.34246826171875,
    "latitude": 41.48925018310547,
    "education_level": "Unknown",
    "country_iso3_code": "KGZ",
    "giga_id_school": "63b81ebe-470b-3961-aad9-a336aa780829",
    "school_data_source": null
  },
  {
    "school_name": "СШ Учреждение \"Средняя школа имени Садыкказы Мамбетова\"",
    "longitude": 75.44366455078125,
    "latitude": 41.44613265991211,
    "education_level": "Unknown",
    "country_iso3_code": "KGZ",
    "giga_id_school": "0711ab83-c71e-3455-b263-86442fc3057c",
    "school_data_source": null
  },
  {
    "school_name": "СШ Учреждение \"Средняя школа имени Омура Токтосунова\"",
    "longitude": 76.24258422851562,
    "latitude": 41.449100494384766,
    "education_level": "Unknown",
    "country_iso3_code": "KGZ",
    "giga_id_school": "5b725518-dcbd-38ce-95f7-980d135c181e",
    "school_data_source": null
  },
  {
    "school_name": "СШ Учреждение \"Средняя школа имени Алыш\"",
    "longitude": 76.1847152709961,
    "latitude": 41.4376335144043,
    "education_level": "Unknown",
    "country_iso3_code": "KGZ",
    "giga_id_school": "be08ff2c-677a-312f-a7fd-d06a1012c271",
    "school_data_source": null
  },
  {
    "school_name": "СШ Учреждение \"Средняя школа имени Казалы Абирова\"",
    "longitude": 76.13603210449219,
    "latitude": 41.438865661621094,
    "education_level": "Unknown",
    "country_iso3_code": "KGZ",
    "giga_id_school": "7735d4d0-53b4-364b-9bce-e3d8f1262601",
    "school_data_source": null
  },
  {
    "school_name": "СШ Учреждение \"Средняя школа имени Абылкасым Жутакеева\"",
    "longitude": 75.73596954345703,
    "latitude": 41.43894958496094,
    "education_level": "Unknown",
    "country_iso3_code": "KGZ",
    "giga_id_school": "5bafa051-0fb3-3923-b43a-6a8cb040aed6",
    "school_data_source": null
  },
  {
    "school_name": "СШ Учреждение \"Средняя школа имени Асанбека Табалдиева\"",
    "longitude": 75.79083251953125,
    "latitude": 41.5755500793457,
    "education_level": "Unknown",
    "country_iso3_code": "KGZ",
    "giga_id_school": "e493739d-c352-3525-9f34-b7256f2f9d9b",
    "school_data_source": null
  },
  {
    "school_name": "СШ Учреждение \"Средняя школа имени Рысбека Усубалиева\"",
    "longitude": 75.78119659423828,
    "latitude": 41.465492248535156,
    "education_level": "Unknown",
    "country_iso3_code": "KGZ",
    "giga_id_school": "78697ed9-794b-3e06-a843-10af754a1405",
    "school_data_source": null
  },
  {
    "school_name": "СШ Учреждение \"Средняя школа имени Мамыткан Иманалиева\"",
    "longitude": 75.62850952148438,
    "latitude": 41.53575134277344,
    "education_level": "Unknown",
    "country_iso3_code": "KGZ",
    "giga_id_school": "f06a505d-aefe-3a5a-b7df-d787de26c759",
    "school_data_source": null
  },
  {
    "school_name": "СШ Учреждение \"Средняя школа имени Тугол уулу Усупбека\"",
    "longitude": 75.83881378173828,
    "latitude": 41.63151550292969,
    "education_level": "Unknown",
    "country_iso3_code": "KGZ",
    "giga_id_school": "9ce093c8-abfe-3410-93c5-f97cae5999cc",
    "school_data_source": null
  },
  {
    "school_name": "СШ Учреждение \"Средняя школа имени Кылыча Рысмендиева\"",
    "longitude": 76.15050506591797,
    "latitude": 41.93740463256836,
    "education_level": "Unknown",
    "country_iso3_code": "KGZ",
    "giga_id_school": "184c60f2-a494-379c-b392-9c8cc83a0af1",
    "school_data_source": null
  },
  {
    "school_name": "СШ Учреждение \"Средняя школа имени Баймонола Кыязова\"",
    "longitude": 76.32111358642578,
    "latitude": 41.935302734375,
    "education_level": "Unknown",
    "country_iso3_code": "KGZ",
    "giga_id_school": "c78488c1-cad7-31ce-9485-3074c1c450cc",
    "school_data_source": null
  },
  {
    "school_name": "СШ Учреждение \"Средняя школа имени Т.Байбураева\"",
    "longitude": 76.04463958740234,
    "latitude": 41.5040283203125,
    "education_level": "Unknown",
    "country_iso3_code": "KGZ",
    "giga_id_school": "ed051805-5179-3a63-843d-5b7406e729dd",
    "school_data_source": null
  },
  {
    "school_name": "СШ Учреждение \"Средняя школа имени Актана Тыныбекова\"",
    "longitude": 75.87024688720703,
    "latitude": 41.49376678466797,
    "education_level": "Unknown",
    "country_iso3_code": "KGZ",
    "giga_id_school": "ce3f33d0-ff77-31e3-9627-3f7452fd243c",
    "school_data_source": null
  },
  {
    "school_name": "СШ Учреждение \"Средняя школа имени Токтогула Байсалова\"",
    "longitude": 75.85411834716797,
    "latitude": 41.47805404663086,
    "education_level": "Unknown",
    "country_iso3_code": "KGZ",
    "giga_id_school": "8ab27994-c1a0-3315-8df4-b54e112dae11",
    "school_data_source": null
  },
  {
    "school_name": "СШ Учреждение \"Средняя школа имени Жакыпа Омуралиева\"",
    "longitude": 75.90931701660156,
    "latitude": 41.529048919677734,
    "education_level": "Unknown",
    "country_iso3_code": "KGZ",
    "giga_id_school": "83a1af48-95b3-386c-8879-99bcc6f4d1b4",
    "school_data_source": null
  },
  {
    "school_name": "СШ Средняя школа им.Жусупа Иманалиева",
    "longitude": 75.89317321777344,
    "latitude": 41.569278717041016,
    "education_level": "Unknown",
    "country_iso3_code": "KGZ",
    "giga_id_school": "1923247b-8475-30c8-bcbc-5a75c1b209a0",
    "school_data_source": null
  },
  {
    "school_name": "СШ Учреждение \"Средняя школа имени Марата Кенжакунова\"",
    "longitude": 75.3758316040039,
    "latitude": 41.459251403808594,
    "education_level": "Unknown",
    "country_iso3_code": "KGZ",
    "giga_id_school": "3ff4b33a-8d25-3104-9ccc-fe082de1130b",
    "school_data_source": null
  },
  {
    "school_name": "СШ Учреждение \"Средняя школа имени Абышка Алсеитова\"",
    "longitude": 76.58891296386719,
    "latitude": 41.66682815551758,
    "education_level": "Unknown",
    "country_iso3_code": "KGZ",
    "giga_id_school": "d86a301b-dcdb-3bd1-824e-73b0d742863c",
    "school_data_source": null
  },
  {
    "school_name": "СШ Учреждение \"Средняя школа имени Мамбет уулу Дурболон\"",
    "longitude": 76.39897155761719,
    "latitude": 41.46760177612305,
    "education_level": "Unknown",
    "country_iso3_code": "KGZ",
    "giga_id_school": "4b2490a4-d1a3-359f-b574-f72606d92605",
    "school_data_source": null
  },
  {
    "school_name": "СШ Учреждение \"Средняя школа им.Мукаша Мамбетова\"",
    "longitude": 76.4269790649414,
    "latitude": 41.49706268310547,
    "education_level": "Unknown",
    "country_iso3_code": "KGZ",
    "giga_id_school": "bcde96be-33ca-352f-849f-7197d6d7bcd4",
    "school_data_source": null
  },
  {
    "school_name": "СШ Учреждение \"Средняя школа имени Абдылда Аралбаева\"",
    "longitude": 75.50758361816406,
    "latitude": 41.36066818237305,
    "education_level": "Unknown",
    "country_iso3_code": "KGZ",
    "giga_id_school": "c6b2d75c-19b3-3f1c-abf9-536c5b1cd54d",
    "school_data_source": null
  },
  {
    "school_name": "СШ Учреждение \"Средняя школа имени Э.Токсобаева\"",
    "longitude": 75.36412048339844,
    "latitude": 41.38218307495117,
    "education_level": "Unknown",
    "country_iso3_code": "KGZ",
    "giga_id_school": "b6e403ad-87b4-339c-b479-34dfd6d3942e",
    "school_data_source": null
  },
  {
    "school_name": "СШ Учреждение \"Средняя школа им. Бекжанова Бейшенаалы \"",
    "longitude": 76.18492889404297,
    "latitude": 41.45601272583008,
    "education_level": "Unknown",
    "country_iso3_code": "KGZ",
    "giga_id_school": "b958c4b7-6a86-3411-827c-3953a35932c0",
    "school_data_source": null
  },
  {
    "school_name": "НШ Учреждение \"Начальная школа имени Кучукова Капара\"",
    "longitude": 76.21055603027344,
    "latitude": 41.45425033569336,
    "education_level": "Unknown",
    "country_iso3_code": "KGZ",
    "giga_id_school": "fc5e4f66-fd28-3c67-be5d-796115431d68",
    "school_data_source": null
  },
  {
    "school_name": "СШ Учреждение \"Средняя школа имени Мамбетакуна Бекмуратова\"",
    "longitude": 76.1050796508789,
    "latitude": 41.44874954223633,
    "education_level": "Unknown",
    "country_iso3_code": "KGZ",
    "giga_id_school": "34b07239-7a75-3b1c-a5a1-8eb7179fac7a",
    "school_data_source": null
  },
  {
    "school_name": "СШ Средняя школа им.М.Байдолотова",
    "longitude": 76.3150634765625,
    "latitude": 41.463600158691406,
    "education_level": "Unknown",
    "country_iso3_code": "KGZ",
    "giga_id_school": "dfbcdb31-f2e0-3e1b-ba07-998a3593136f",
    "school_data_source": null
  },
  {
    "school_name": "СШ Учреждение \"Средняя школа имени Жолдона Саламатова\"",
    "longitude": 76.05738067626953,
    "latitude": 41.44223403930664,
    "education_level": "Unknown",
    "country_iso3_code": "KGZ",
    "giga_id_school": "bbdb24fb-e91a-3d30-b761-4ba9a4fdba83",
    "school_data_source": null
  },
  {
    "school_name": "НШ Учреждение \"Начальная школа \"Тош-Булак\"",
    "longitude": 76.35820770263672,
    "latitude": 41.492698669433594,
    "education_level": "Unknown",
    "country_iso3_code": "KGZ",
    "giga_id_school": "28d774e5-16e8-383a-81d0-b274e2751e8b",
    "school_data_source": null
  },
  {
    "school_name": "СШ Средняя школа имени Жекшенбека Мамбетова",
    "longitude": 75.66083526611328,
    "latitude": 41.417259216308594,
    "education_level": "Unknown",
    "country_iso3_code": "KGZ",
    "giga_id_school": "47d5826b-c7dc-3ee3-9be6-73d558df7046",
    "school_data_source": null
  },
  {
    "school_name": "СШ Учреждение \"Средняя школа имени Керимбай уулу Сарыбай\"",
    "longitude": 75.60755157470703,
    "latitude": 41.39186477661133,
    "education_level": "Unknown",
    "country_iso3_code": "KGZ",
    "giga_id_school": "0bf7855a-55cd-37b9-a105-827b349c34df",
    "school_data_source": null
  },
  {
    "school_name": "СШ Средняя школа Жылан-Арык им.Калыгула Жусупова",
    "longitude": 75.22416687011719,
    "latitude": 41.4370002746582,
    "education_level": "Unknown",
    "country_iso3_code": "KGZ",
    "giga_id_school": "3610514b-404e-3544-8eb5-20c0ac26ad4f",
    "school_data_source": null
  },
  {
    "school_name": "СШ Учреждение \"Средняя школа имени Достук\"",
    "longitude": 75.64098358154297,
    "latitude": 41.37788391113281,
    "education_level": "Unknown",
    "country_iso3_code": "KGZ",
    "giga_id_school": "0fc34952-6461-32d4-9526-c606df862f4b",
    "school_data_source": null
  },
  {
    "school_name": "СШ Средняя школа №1 имени Токтогула",
    "longitude": 75.9913330078125,
    "latitude": 41.42821502685547,
    "education_level": "Unknown",
    "country_iso3_code": "KGZ",
    "giga_id_school": "61594d1f-3777-3921-8c30-36ed3d543a14",
    "school_data_source": null
  },
  {
    "school_name": "СШ Средняя школа №8 имени А.Буйлаш уулу",
    "longitude": 75.96880340576172,
    "latitude": 41.42326736450195,
    "education_level": "Unknown",
    "country_iso3_code": "KGZ",
    "giga_id_school": "72e9ddb8-7061-35dc-af8d-f2093287b5a4",
    "school_data_source": null
  },
  {
    "school_name": "СШ Средняя школа №10 им.Жапара Чолпонбаева",
    "longitude": 76.04431915283203,
    "latitude": 41.42594909667969,
    "education_level": "Unknown",
    "country_iso3_code": "KGZ",
    "giga_id_school": "9895589a-b22f-3d18-904a-e319a6f31272",
    "school_data_source": null
  },
  {
    "school_name": "СШ Средняя школа №9 гоpода Hаpын",
    "longitude": 75.98771667480469,
    "latitude": 41.43036651611328,
    "education_level": "Unknown",
    "country_iso3_code": "KGZ",
    "giga_id_school": "c0bd0ff5-9187-32d1-8268-f20f5f436247",
    "school_data_source": null
  },
  {
    "school_name": "СШ Средняя школа №5 имени Кычана Жакыпова",
    "longitude": 75.97041320800781,
    "latitude": 41.42828369140625,
    "education_level": "Unknown",
    "country_iso3_code": "KGZ",
    "giga_id_school": "6bee11c3-1cfb-31c6-ac49-1c415a70f6c7",
    "school_data_source": null
  },
  {
    "school_name": "Средняя школа №7 имени Матена Сыдыкова",
    "longitude": 76.01921844482422,
    "latitude": 41.426048278808594,
    "education_level": "Unknown",
    "country_iso3_code": "KGZ",
    "giga_id_school": "8842a01b-846a-396c-b80c-dc16a61b1dd9",
    "school_data_source": null
  },
  {
    "school_name": "ШГ Общеобразовательное Учреждение \"школа-гимназия №2 имени В.П.Чкалова\"",
    "longitude": 76.00640106201172,
    "latitude": 41.42788314819336,
    "education_level": "Unknown",
    "country_iso3_code": "KGZ",
    "giga_id_school": "fbc0212f-dfe5-3726-97d8-d617e1611f4f",
    "school_data_source": null
  },
  {
    "school_name": "ЛЦ Учреждение \"Нарынская областная школа-лицей интернат имени академика Усон Асанова\"",
    "longitude": 75.92073059082031,
    "latitude": 41.42970275878906,
    "education_level": "Unknown",
    "country_iso3_code": "KGZ",
    "giga_id_school": "b303119d-41ce-394d-b2dc-e79cc95eb79c",
    "school_data_source": null
  },
  {
    "school_name": "СШ Средняя школа им.Ж.Эркенбаева",
    "longitude": 70.97166442871094,
    "latitude": 39.749366760253906,
    "education_level": "Unknown",
    "country_iso3_code": "KGZ",
    "giga_id_school": "59aedc9d-ed63-3792-80ad-6e94f6031cc8",
    "school_data_source": null
  },
  {
    "school_name": "НШ Начальная школа Тунук-Суу",
    "longitude": 71.04389190673828,
    "latitude": 39.78166580200195,
    "education_level": "Unknown",
    "country_iso3_code": "KGZ",
    "giga_id_school": "e2a8268f-88cd-3dc0-81d6-7c93414a5384",
    "school_data_source": null
  },
  {
    "school_name": "СШ Средняя школа им.З.Ормонова",
    "longitude": 71.01888275146484,
    "latitude": 39.75901794433594,
    "education_level": "Unknown",
    "country_iso3_code": "KGZ",
    "giga_id_school": "9d8bec29-238c-3d99-a2dc-4fc41f232548",
    "school_data_source": null
  },
  {
    "school_name": "СШ Средняя школа им.Турусбекова",
    "longitude": 70.9086685180664,
    "latitude": 39.749916076660156,
    "education_level": "Unknown",
    "country_iso3_code": "KGZ",
    "giga_id_school": "a7d9930b-f4a8-383b-8618-8ed26c3cfb95",
    "school_data_source": null
  },
  {
    "school_name": "СШ Средняя школа Жаны-Жер",
    "longitude": 70.90410614013672,
    "latitude": 40.12510681152344,
    "education_level": "Unknown",
    "country_iso3_code": "KGZ",
    "giga_id_school": "e323f02b-5ae8-326f-bf8a-5720cca5f3ca",
    "school_data_source": null
  },
  {
    "school_name": "НШ Начальная школа \"Жаны-Жер\"",
    "longitude": 70.90115356445312,
    "latitude": 40.12765121459961,
    "education_level": "Unknown",
    "country_iso3_code": "KGZ",
    "giga_id_school": "f45b9ba5-3c5b-3da1-b5b2-aa3d7c193977",
    "school_data_source": null
  },
  {
    "school_name": "СШ Средняя школа \"Чек\"",
    "longitude": 70.8420181274414,
    "latitude": 40.11406707763672,
    "education_level": "Unknown",
    "country_iso3_code": "KGZ",
    "giga_id_school": "725aabf0-6865-3aae-9b06-03d89cb64e53",
    "school_data_source": null
  },
  {
    "school_name": "СШ Средняя школа им.Б.Нуралиева (сш.Ак-Турпак)",
    "longitude": 71.03055572509766,
    "latitude": 40.20305633544922,
    "education_level": "Unknown",
    "country_iso3_code": "KGZ",
    "giga_id_school": "85beba4f-dbb3-3ea9-9e34-c693a5799eec",
    "school_data_source": null
  },
  {
    "school_name": "СШ Средняя школа им.Ж.Байжигитова",
    "longitude": 71.02863311767578,
    "latitude": 40.25956726074219,
    "education_level": "Unknown",
    "country_iso3_code": "KGZ",
    "giga_id_school": "992c421d-38c2-3975-9caf-816ceb95daa1",
    "school_data_source": null
  },
  {
    "school_name": "сш.им. Бото Hарматова",
    "longitude": 70.81456756591797,
    "latitude": 40.16033935546875,
    "education_level": "Unknown",
    "country_iso3_code": "KGZ",
    "giga_id_school": "e7debd33-1cdf-3895-a53b-f81c3680d55c",
    "school_data_source": null
  },
  {
    "school_name": "НШ Начальная школа им.Б.Байназарова",
    "longitude": 70.81587982177734,
    "latitude": 40.164031982421875,
    "education_level": "Unknown",
    "country_iso3_code": "KGZ",
    "giga_id_school": "5345d707-bd0e-39c9-8303-1e6ec2a8f2b9",
    "school_data_source": null
  },
  {
    "school_name": "НШ Начальная школа им.Нажимидина Суйунова",
    "longitude": 70.8192138671875,
    "latitude": 40.15583419799805,
    "education_level": "Unknown",
    "country_iso3_code": "KGZ",
    "giga_id_school": "3c573b98-d40f-350d-9c4c-702ac7e223c2",
    "school_data_source": null
  },
  {
    "school_name": "СШ Средняя школа им.Масалиева",
    "longitude": 70.74420166015625,
    "latitude": 40.10391616821289,
    "education_level": "Unknown",
    "country_iso3_code": "KGZ",
    "giga_id_school": "35fdf935-b358-3892-9675-5d223f969cfd",
    "school_data_source": null
  },
  {
    "school_name": "СШ Средняя школа им.К.Турмаматова",
    "longitude": 70.73870086669922,
    "latitude": 40.09953308105469,
    "education_level": "Unknown",
    "country_iso3_code": "KGZ",
    "giga_id_school": "fd210454-c2e3-345f-a611-7a0c36716cb7",
    "school_data_source": null
  },
  {
    "school_name": "Средняя школа им. Сабира Момунова (с.Чет-Кызыл)",
    "longitude": 70.8233642578125,
    "latitude": 40.09698486328125,
    "education_level": "Unknown",
    "country_iso3_code": "KGZ",
    "giga_id_school": "c94f28d7-5868-3883-a9bc-815aceab937d",
    "school_data_source": null
  },
  {
    "school_name": "СШ Учреждение \"Средняя школа им.Ш.Токсонова\"",
    "longitude": 70.83405303955078,
    "latitude": 40.00341796875,
    "education_level": "Unknown",
    "country_iso3_code": "KGZ",
    "giga_id_school": "d30c46e2-c08c-3393-804f-b0ede0c4a655",
    "school_data_source": null
  },
  {
    "school_name": "СШ имени Тажибая Мурзапарова",
    "longitude": 70.83585357666016,
    "latitude": 40.00061798095703,
    "education_level": "Unknown",
    "country_iso3_code": "KGZ",
    "giga_id_school": "892d4554-e294-3476-8253-415f2f72c325",
    "school_data_source": null
  },
  {
    "school_name": "ШГ Учреждение Школа-гимназия  Бужун",
    "longitude": 70.83686828613281,
    "latitude": 40.000816345214844,
    "education_level": "Unknown",
    "country_iso3_code": "KGZ",
    "giga_id_school": "2342a66d-54d5-3623-be4f-ecfbbf180edc",
    "school_data_source": null
  },
  {
    "school_name": "СШ Средняя школа им.С.Эрматова (сш.Кара-Булак)",
    "longitude": 70.93081665039062,
    "latitude": 39.94103240966797,
    "education_level": "Unknown",
    "country_iso3_code": "KGZ",
    "giga_id_school": "34d20e73-d609-30ad-8002-3271ea402e40",
    "school_data_source": null
  },
  {
    "school_name": "СШ Средняя школа им. \"Закира Абдукаримова\"",
    "longitude": 70.9346923828125,
    "latitude": 39.94077682495117,
    "education_level": "Unknown",
    "country_iso3_code": "KGZ",
    "giga_id_school": "e38a56f0-f335-3fb3-94a4-d6c89571661f",
    "school_data_source": null
  },
  {
    "school_name": "СШ Средняя школа Таян",
    "longitude": 71.10134887695312,
    "latitude": 39.89780044555664,
    "education_level": "Unknown",
    "country_iso3_code": "KGZ",
    "giga_id_school": "c6e804eb-077b-3a38-946e-370866c02417",
    "school_data_source": null
  },
  {
    "school_name": "СШ Средняя школа \"Газ\"",
    "longitude": 71.01913452148438,
    "latitude": 39.86778259277344,
    "education_level": "Unknown",
    "country_iso3_code": "KGZ",
    "giga_id_school": "c089ce18-666f-3538-a33c-34db236cc146",
    "school_data_source": null
  },
  {
    "school_name": "Средняя школа Кыштут",
    "longitude": 71.12004089355469,
    "latitude": 39.846622467041016,
    "education_level": "Unknown",
    "country_iso3_code": "KGZ",
    "giga_id_school": "42285b15-7443-3f3c-aa87-a7a96823ab33",
    "school_data_source": null
  },
  {
    "school_name": "СШ Средняя школа им.Д.Акматова (сш.Сай)",
    "longitude": 71.20674896240234,
    "latitude": 39.90454864501953,
    "education_level": "Unknown",
    "country_iso3_code": "KGZ",
    "giga_id_school": "b11c0cc3-8fa2-3627-8b62-f739e711cdc4",
    "school_data_source": null
  },
  {
    "school_name": "СШ Средняя школа им.Э.Эркебаева",
    "longitude": 71.04907989501953,
    "latitude": 39.89021682739258,
    "education_level": "Unknown",
    "country_iso3_code": "KGZ",
    "giga_id_school": "aa880f3b-4893-3f9b-8632-32563f8a8d90",
    "school_data_source": null
  },
  {
    "school_name": "СШ Средняя школа им. А.Топчуева",
    "longitude": 71.05184173583984,
    "latitude": 39.89698791503906,
    "education_level": "Unknown",
    "country_iso3_code": "KGZ",
    "giga_id_school": "956ea594-3021-36b2-ad93-104416b74e04",
    "school_data_source": null
  },
  {
    "school_name": "СШ Средняя школа им.Салихова",
    "longitude": 70.82671356201172,
    "latitude": 40.05764389038086,
    "education_level": "Unknown",
    "country_iso3_code": "KGZ",
    "giga_id_school": "dd5b8706-ee1e-3aae-9679-a2cc0b36a517",
    "school_data_source": null
  },
  {
    "school_name": "СШ Средняя школа им.Осмонова",
    "longitude": 70.55278015136719,
    "latitude": 40,
    "education_level": "Unknown",
    "country_iso3_code": "KGZ",
    "giga_id_school": "3c3257b2-d1b2-38e9-acee-fc19a476eb6f",
    "school_data_source": null
  },
  {
    "school_name": "ШГ Самаркандекская школа-гимназия-интернат им.С.Кожобаевой",
    "longitude": 70.55166625976562,
    "latitude": 39.99480056762695,
    "education_level": "Unknown",
    "country_iso3_code": "KGZ",
    "giga_id_school": "2ca9233a-41bc-3257-8f79-a379565efe0e",
    "school_data_source": null
  },
  {
    "school_name": "НШ Учреждение Начальная школа \"Орто-Сай-Самаркандек\"",
    "longitude": 70.53656005859375,
    "latitude": 39.993770599365234,
    "education_level": "Unknown",
    "country_iso3_code": "KGZ",
    "giga_id_school": "7175e908-6085-34c4-b479-1fe8236a68a5",
    "school_data_source": null
  },
  {
    "school_name": "СШ Средняя школа им.К.Тагаева",
    "longitude": 70.50718688964844,
    "latitude": 39.988075256347656,
    "education_level": "Unknown",
    "country_iso3_code": "KGZ",
    "giga_id_school": "550cb296-829c-32aa-bec0-4ef404406e33",
    "school_data_source": null
  },
  {
    "school_name": "СШ Средняя школа им.Кадыра",
    "longitude": 70.54035949707031,
    "latitude": 39.98579406738281,
    "education_level": "Unknown",
    "country_iso3_code": "KGZ",
    "giga_id_school": "48bbcca0-700b-3717-9d0a-fca1f65add3d",
    "school_data_source": null
  },
  {
    "school_name": "ОШ Общеобразовательная школа им.Гаипова",
    "longitude": 70.5072021484375,
    "latitude": 39.96274948120117,
    "education_level": "Unknown",
    "country_iso3_code": "KGZ",
    "giga_id_school": "c7378fbb-a98d-3704-b178-6ad2e6a04c4c",
    "school_data_source": null
  },
  {
    "school_name": "СШ Средняя школа им.Б.Ходжаева (сш.Ак-Сай)",
    "longitude": 70.517333984375,
    "latitude": 39.87806701660156,
    "education_level": "Unknown",
    "country_iso3_code": "KGZ",
    "giga_id_school": "c4768d87-3ebd-3a73-92c1-b62f1d4f7c50",
    "school_data_source": null
  },
  {
    "school_name": "СШ Средняя школа им. \"Шайдулла Ганы\"",
    "longitude": 70.53690338134766,
    "latitude": 39.948551177978516,
    "education_level": "Unknown",
    "country_iso3_code": "KGZ",
    "giga_id_school": "27a04596-c1bd-3f76-9e35-a5d654c0a955",
    "school_data_source": null
  },
  {
    "school_name": "НШ Начальная школа \"Кок-Таш\"",
    "longitude": 70.52984619140625,
    "latitude": 39.94929885864258,
    "education_level": "Unknown",
    "country_iso3_code": "KGZ",
    "giga_id_school": "e5b151eb-094b-3b0c-9b5e-823fa662f14a",
    "school_data_source": null
  },
  {
    "school_name": "НШ Начальная школа \"Уч-Добо\"",
    "longitude": 70.48756408691406,
    "latitude": 39.951133728027344,
    "education_level": "Unknown",
    "country_iso3_code": "KGZ",
    "giga_id_school": "c02bbc21-8dee-3861-a247-ac6be70e754d",
    "school_data_source": null
  },
  {
    "school_name": "СШ Средняя школа им.Т.Садыкова (сш.Ак-Татыр)",
    "longitude": 70.49394989013672,
    "latitude": 39.95916748046875,
    "education_level": "Unknown",
    "country_iso3_code": "KGZ",
    "giga_id_school": "3e64298d-d2d5-3acb-92ed-020b1aabe018",
    "school_data_source": null
  },
  {
    "school_name": "СШ Средняя школа им.Ж.Момунова",
    "longitude": 70.56871795654297,
    "latitude": 39.956993103027344,
    "education_level": "Unknown",
    "country_iso3_code": "KGZ",
    "giga_id_school": "abd6199f-b962-37ba-8a7b-a6196f0136b4",
    "school_data_source": null
  },
  {
    "school_name": "СШ Средняя школа Рават",
    "longitude": 70.17205047607422,
    "latitude": 39.8836669921875,
    "education_level": "Unknown",
    "country_iso3_code": "KGZ",
    "giga_id_school": "c0d95db2-8227-3f5e-bcc1-a0a26846e572",
    "school_data_source": null
  },
  {
    "school_name": "ГШ Учреждение \"Гимназия-школа \"Кара-Токой\" Баткенского района\"",
    "longitude": 71.07783508300781,
    "latitude": 39.99777603149414,
    "education_level": "Unknown",
    "country_iso3_code": "KGZ",
    "giga_id_school": "ca44c494-5667-3695-a459-43dabc9e8f71",
    "school_data_source": null
  },
  {
    "school_name": "СШ Средняя школа им.А.Жоробаева",
    "longitude": 71.09797668457031,
    "latitude": 40.00591278076172,
    "education_level": "Unknown",
    "country_iso3_code": "KGZ",
    "giga_id_school": "2cee91b6-4068-310f-8678-af2f21c77648",
    "school_data_source": null
  },
  {
    "school_name": "СШ Средняя школа имени \"К.Абдраимова\"",
    "longitude": 71.10944366455078,
    "latitude": 39.99416732788086,
    "education_level": "Unknown",
    "country_iso3_code": "KGZ",
    "giga_id_school": "aeb25d8e-18ca-3a06-b57f-01e8c49783f6",
    "school_data_source": null
  },
  {
    "school_name": "СШ Учреждение \"Средняя школа имени \"Б.Акматова\" Баткенского района\"",
    "longitude": 71.07833099365234,
    "latitude": 39.99583435058594,
    "education_level": "Unknown",
    "country_iso3_code": "KGZ",
    "giga_id_school": "eb00aa76-40b9-37e3-9ade-480b102bab04",
    "school_data_source": null
  },
  {
    "school_name": "СШ Средняя школа им.Б.Мергенова",
    "longitude": 71.10388946533203,
    "latitude": 40.00055694580078,
    "education_level": "Unknown",
    "country_iso3_code": "KGZ",
    "giga_id_school": "9e683167-7674-357d-9d90-ff357102e016",
    "school_data_source": null
  },
  {
    "school_name": "НШ Начальная школа Айгул Таш",
    "longitude": 70.99571228027344,
    "latitude": 39.94663619995117,
    "education_level": "Unknown",
    "country_iso3_code": "KGZ",
    "giga_id_school": "c02bcc31-2b23-3e5c-88eb-70fc1967d7f0",
    "school_data_source": null
  },
  {
    "school_name": "СШ Средняя школа им.Амир-Темура",
    "longitude": 69.51591491699219,
    "latitude": 39.84455490112305,
    "education_level": "Unknown",
    "country_iso3_code": "KGZ",
    "giga_id_school": "84629cf6-53b7-3c23-a4cc-fc58590054cb",
    "school_data_source": null
  },
  {
    "school_name": "СШ Средняя школа Исфана",
    "longitude": 69.52700805664062,
    "latitude": 39.83061218261719,
    "education_level": "Unknown",
    "country_iso3_code": "KGZ",
    "giga_id_school": "b7f19bdc-ea18-3c60-847a-25b9b4d35bf2",
    "school_data_source": null
  },
  {
    "school_name": "СШ Средняя школа им.А.Hавои",
    "longitude": 69.53553009033203,
    "latitude": 39.84080505371094,
    "education_level": "Unknown",
    "country_iso3_code": "KGZ",
    "giga_id_school": "c96ed7be-1d75-3e35-9a54-9312fa9c1570",
    "school_data_source": null
  },
  {
    "school_name": "Средняя школа им. Токтогула",
    "longitude": 69.51873779296875,
    "latitude": 39.83430480957031,
    "education_level": "Unknown",
    "country_iso3_code": "KGZ",
    "giga_id_school": "a8b589f2-89d8-370c-ba77-dfbf3abdc9d2",
    "school_data_source": null
  },
  {
    "school_name": "Средняя школа им.Ю.А.Гагарина",
    "longitude": 69.517822265625,
    "latitude": 39.83349609375,
    "education_level": "Unknown",
    "country_iso3_code": "KGZ",
    "giga_id_school": "02ed4bcc-5340-3978-bfbc-7f6b58f01f26",
    "school_data_source": null
  },
  {
    "school_name": "СШ Средняя школа Ыссык-Кол",
    "longitude": 69.53509521484375,
    "latitude": 39.835384368896484,
    "education_level": "Unknown",
    "country_iso3_code": "KGZ",
    "giga_id_school": "f80e7285-5480-36bd-91f3-02568166ddf4",
    "school_data_source": null
  },
  {
    "school_name": "ГИ Гимназия-интернат №1 Лейлекского района",
    "longitude": 69.52474975585938,
    "latitude": 39.83345413208008,
    "education_level": "Unknown",
    "country_iso3_code": "KGZ",
    "giga_id_school": "ea41ae93-6e94-3286-9cf3-51007bbef912",
    "school_data_source": null
  },
  {
    "school_name": "ШГ школа-гимназия-интернат №4 имени У.Маткаримова",
    "longitude": 69.5381851196289,
    "latitude": 39.83314895629883,
    "education_level": "Unknown",
    "country_iso3_code": "KGZ",
    "giga_id_school": "75ff142d-af0c-33c8-8d68-a61cf7504cd5",
    "school_data_source": null
  },
  {
    "school_name": "СШ Средняя школа им.\"Казыева Кожояра\"",
    "longitude": 69.6063232421875,
    "latitude": 39.807273864746094,
    "education_level": "Unknown",
    "country_iso3_code": "KGZ",
    "giga_id_school": "6e36da2c-40e3-3a81-85f0-eb3cb0bcde3f",
    "school_data_source": null
  },
  {
    "school_name": "СШ Средняя школа им.Самата",
    "longitude": 69.50786590576172,
    "latitude": 39.910118103027344,
    "education_level": "Unknown",
    "country_iso3_code": "KGZ",
    "giga_id_school": "b7e97a2d-6cfb-322f-a6b5-b74035f050c4",
    "school_data_source": null
  },
  {
    "school_name": "НШ Начальная школа Беш-Бала",
    "longitude": 73.08151245117188,
    "latitude": 41.02423095703125,
    "education_level": "Unknown",
    "country_iso3_code": "KGZ",
    "giga_id_school": "9e1969cc-ef65-3891-8a2a-904834855bbd",
    "school_data_source": null
  },
  {
    "school_name": "СШ Средняя школа им.Т.Жапарова",
    "longitude": 69.50883483886719,
    "latitude": 39.87053298950195,
    "education_level": "Unknown",
    "country_iso3_code": "KGZ",
    "giga_id_school": "28f49780-0507-3d33-aca9-b1b990770b3d",
    "school_data_source": null
  },
  {
    "school_name": "СШ Средняя школа Тайлан",
    "longitude": 69.53109741210938,
    "latitude": 39.819217681884766,
    "education_level": "Unknown",
    "country_iso3_code": "KGZ",
    "giga_id_school": "2ce00c60-3f84-3bd6-96c7-03d5639b723e",
    "school_data_source": null
  },
  {
    "school_name": "СШ Средняя школа \"Ак-Булак\"",
    "longitude": 69.5291976928711,
    "latitude": 39.79863739013672,
    "education_level": "Unknown",
    "country_iso3_code": "KGZ",
    "giga_id_school": "06afd8d5-da16-334e-8f31-053fdd8c5bcc",
    "school_data_source": null
  },
  {
    "school_name": "Средняя общеобразовательная  школа в селе Ак-Суу",
    "longitude": 69.36810302734375,
    "latitude": 39.88999938964844,
    "education_level": "Unknown",
    "country_iso3_code": "KGZ",
    "giga_id_school": "843dc86a-b9e1-36c1-b190-709dc949401c",
    "school_data_source": null
  },
  {
    "school_name": "СШ Средняя школа им.Матмуратова (сш.Алга)",
    "longitude": 69.37115478515625,
    "latitude": 39.96843719482422,
    "education_level": "Unknown",
    "country_iso3_code": "KGZ",
    "giga_id_school": "b818b045-0131-3273-a7de-441df0f5b689",
    "school_data_source": null
  },
  {
    "school_name": "СШ Средняя школа им.Ю.Пулатова",
    "longitude": 69.91024017333984,
    "latitude": 39.90510559082031,
    "education_level": "Unknown",
    "country_iso3_code": "KGZ",
    "giga_id_school": "d4b8492c-e99e-3059-93c5-c96952f5d2d5",
    "school_data_source": null
  },
  {
    "school_name": "СШ Средняя школа им.А.Шаматова",
    "longitude": 69.91018676757812,
    "latitude": 39.905242919921875,
    "education_level": "Unknown",
    "country_iso3_code": "KGZ",
    "giga_id_school": "0d9cde73-9939-308b-a6fa-b783f5e8524a",
    "school_data_source": null
  },
  {
    "school_name": "СШ Средняя школа Курулуш",
    "longitude": 69.3808364868164,
    "latitude": 39.866390228271484,
    "education_level": "Unknown",
    "country_iso3_code": "KGZ",
    "giga_id_school": "871b3903-f379-30d2-b223-fb59d32f240d",
    "school_data_source": null
  },
  {
    "school_name": "СШ Средняя школа им.З.М.Бабура",
    "longitude": 69.81993103027344,
    "latitude": 40.028202056884766,
    "education_level": "Unknown",
    "country_iso3_code": "KGZ",
    "giga_id_school": "76895a74-2b00-3917-9564-29c5167622d8",
    "school_data_source": null
  },
  {
    "school_name": "СШ Средняя школа им.А.Бобохонова",
    "longitude": 69.84740447998047,
    "latitude": 39.99602508544922,
    "education_level": "Unknown",
    "country_iso3_code": "KGZ",
    "giga_id_school": "56667695-5c1e-3739-8c32-896d0fc2f139",
    "school_data_source": null
  },
  {
    "school_name": "СШ Учреждение Средняя школа им.А.Файзиева",
    "longitude": 69.74821472167969,
    "latitude": 40.05141067504883,
    "education_level": "Unknown",
    "country_iso3_code": "KGZ",
    "giga_id_school": "1598501a-834a-3030-b501-a1e7793ad5bb",
    "school_data_source": null
  },
  {
    "school_name": "НШ Начальная школа Лайли",
    "longitude": 70.9051513671875,
    "latitude": 40.02901840209961,
    "education_level": "Unknown",
    "country_iso3_code": "KGZ",
    "giga_id_school": "9e1d6a0a-ee65-3058-9dc9-caef80721a3b",
    "school_data_source": null
  },
  {
    "school_name": "СШ Средняя школа им.А.Момунова (сш.\"Эски-Овчу\")",
    "longitude": 70.86620330810547,
    "latitude": 40.14252853393555,
    "education_level": "Unknown",
    "country_iso3_code": "KGZ",
    "giga_id_school": "29d7b2cf-df44-3059-8759-0ddadfdaa322",
    "school_data_source": null
  },
  {
    "school_name": "СШ Средняя школа им.М.Баетова (сш.Маргун)",
    "longitude": 69.93885803222656,
    "latitude": 40.02623748779297,
    "education_level": "Unknown",
    "country_iso3_code": "KGZ",
    "giga_id_school": "651ad322-db1f-3323-a927-6b7b2bc9ebb0",
    "school_data_source": null
  },
  {
    "school_name": "СШ Средняя школа им.М.Юлдашева",
    "longitude": 69.90858459472656,
    "latitude": 39.9790153503418,
    "education_level": "Unknown",
    "country_iso3_code": "KGZ",
    "giga_id_school": "451182d0-31a4-3c30-aba9-db234a6e6aa4",
    "school_data_source": null
  },
  {
    "school_name": "СШ Средняя школа им.Ш.Ташполотова",
    "longitude": 70.08795928955078,
    "latitude": 40.032135009765625,
    "education_level": "Unknown",
    "country_iso3_code": "KGZ",
    "giga_id_school": "2d810df3-c6f6-3acd-af81-a12cef11ab23",
    "school_data_source": null
  },
  {
    "school_name": "НШ Начальная школа им Г.Усенова",
    "longitude": 70.00475311279297,
    "latitude": 40.00883483886719,
    "education_level": "Unknown",
    "country_iso3_code": "KGZ",
    "giga_id_school": "2796e62c-b6a1-3861-8eb0-1c3290f18d72",
    "school_data_source": null
  },
  {
    "school_name": "ШГ школа-Гимназия № 3",
    "longitude": 69.93444061279297,
    "latitude": 40.0860481262207,
    "education_level": "Unknown",
    "country_iso3_code": "KGZ",
    "giga_id_school": "58e1fdb6-7c8f-3920-909c-da29b67e78f7",
    "school_data_source": null
  },
  {
    "school_name": "Средняя школа имени К.Сабырова",
    "longitude": 69.9395523071289,
    "latitude": 39.88969039916992,
    "education_level": "Unknown",
    "country_iso3_code": "KGZ",
    "giga_id_school": "3f7afdd4-4685-3974-8fc9-d3ce66baa38e",
    "school_data_source": null
  },
  {
    "school_name": "СШ Средняя школа им.Б.Эралиева",
    "longitude": 70.05427551269531,
    "latitude": 39.867469787597656,
    "education_level": "Unknown",
    "country_iso3_code": "KGZ",
    "giga_id_school": "5014f427-7ca6-321d-823f-df49b64060cc",
    "school_data_source": null
  },
  {
    "school_name": "СШ Средняя школа \"Лейлек\"",
    "longitude": 70.09912109375,
    "latitude": 39.87456512451172,
    "education_level": "Unknown",
    "country_iso3_code": "KGZ",
    "giga_id_school": "23ec6d72-ca8c-3242-9b4e-c513487dfb70",
    "school_data_source": null
  },
  {
    "school_name": "СШ Средняя школа Ак-Терек",
    "longitude": 70.01081848144531,
    "latitude": 39.876670837402344,
    "education_level": "Unknown",
    "country_iso3_code": "KGZ",
    "giga_id_school": "ff115b82-1815-3485-afb2-4ff155e78002",
    "school_data_source": null
  },
  {
    "school_name": "СШ Учреждение Средняя школа имени Ормоша Сапарова",
    "longitude": 70.01790618896484,
    "latitude": 39.838626861572266,
    "education_level": "Unknown",
    "country_iso3_code": "KGZ",
    "giga_id_school": "eabe0f65-e15d-3a5a-9224-1f46f2740a94",
    "school_data_source": null
  },
  {
    "school_name": "СШ Средняя школа \"Катыран\"",
    "longitude": 70.02865600585938,
    "latitude": 39.83855438232422,
    "education_level": "Unknown",
    "country_iso3_code": "KGZ",
    "giga_id_school": "f39aa318-b226-35ee-9330-2cac1be1b9e8",
    "school_data_source": null
  },
  {
    "school_name": "СШ Средняя школа \"Кой-Таш\"",
    "longitude": 70.01048278808594,
    "latitude": 39.84907531738281,
    "education_level": "Unknown",
    "country_iso3_code": "KGZ",
    "giga_id_school": "3aec38cd-9512-3ffc-be7a-056396f37076",
    "school_data_source": null
  },
  {
    "school_name": "СШ Средняя школа \"Эпкин\"",
    "longitude": 70.03715515136719,
    "latitude": 39.830711364746094,
    "education_level": "Unknown",
    "country_iso3_code": "KGZ",
    "giga_id_school": "886952b6-a291-33bf-94b2-216bb01d140c",
    "school_data_source": null
  },
  {
    "school_name": "ШГ школа-гимназия №5 Лейлекского района",
    "longitude": 70.00958251953125,
    "latitude": 39.841400146484375,
    "education_level": "Unknown",
    "country_iso3_code": "KGZ",
    "giga_id_school": "df0f2d3e-ff9d-3940-81ac-48dc50799a1f",
    "school_data_source": null
  },
  {
    "school_name": "СШ Средняя школа \"Жаны-Турмуш\"",
    "longitude": 69.9191665649414,
    "latitude": 39.79829788208008,
    "education_level": "Unknown",
    "country_iso3_code": "KGZ",
    "giga_id_school": "5a62df60-1e83-3273-9ef3-1d491a821ff0",
    "school_data_source": null
  },
  {
    "school_name": "СШ Средняя школа \"Озгоруш\"",
    "longitude": 70.0655517578125,
    "latitude": 39.76993179321289,
    "education_level": "Unknown",
    "country_iso3_code": "KGZ",
    "giga_id_school": "7f2187f1-570a-3e6e-98aa-c4314d4cd768",
    "school_data_source": null
  },
  {
    "school_name": "НШ Начальная школа \"Асти-Добут\"",
    "longitude": 70.0428695678711,
    "latitude": 39.75277328491211,
    "education_level": "Unknown",
    "country_iso3_code": "KGZ",
    "giga_id_school": "7f16f24d-0b4d-3680-9f1d-cbcba3284422",
    "school_data_source": null
  },
  {
    "school_name": "Средняя школа им.В.И.Ленина",
    "longitude": 71.60013580322266,
    "latitude": 40.038204193115234,
    "education_level": "Unknown",
    "country_iso3_code": "KGZ",
    "giga_id_school": "7b7a9fa2-c5b3-3b87-8823-43245528e063",
    "school_data_source": null
  },
  {
    "school_name": "СШ Средняя школа им.Таир Жолдошева",
    "longitude": 69.65045928955078,
    "latitude": 40.10324478149414,
    "education_level": "Unknown",
    "country_iso3_code": "KGZ",
    "giga_id_school": "09475bc9-15d5-3cfe-b3f6-d691c24e499d",
    "school_data_source": null
  },
  {
    "school_name": "СШ Средняя школа Булак-Башы",
    "longitude": 69.57608795166016,
    "latitude": 40.00204849243164,
    "education_level": "Unknown",
    "country_iso3_code": "KGZ",
    "giga_id_school": "c1fd7948-0eba-324e-9b1c-89c53bd2d4d6",
    "school_data_source": null
  },
  {
    "school_name": "СШ Средняя школа Бел-Алма",
    "longitude": 69.56822204589844,
    "latitude": 40.08654022216797,
    "education_level": "Unknown",
    "country_iso3_code": "KGZ",
    "giga_id_school": "74ebee81-719d-356c-8641-ae799e7196cd",
    "school_data_source": null
  },
  {
    "school_name": "СШ Средняя школа им.И.Раззакова",
    "longitude": 69.5987777709961,
    "latitude": 40.102813720703125,
    "education_level": "Unknown",
    "country_iso3_code": "KGZ",
    "giga_id_school": "6133c56c-7579-3953-8ecd-f9ec38eb8363",
    "school_data_source": null
  },
  {
    "school_name": "СШ Средняя школа Андарак",
    "longitude": 69.47016906738281,
    "latitude": 39.7599983215332,
    "education_level": "Unknown",
    "country_iso3_code": "KGZ",
    "giga_id_school": "6c9fa95e-33b0-3993-8ec2-302103f7404d",
    "school_data_source": null
  },
  {
    "school_name": "СШ Средняя школа Андарак-2",
    "longitude": 69.46354675292969,
    "latitude": 39.764320373535156,
    "education_level": "Unknown",
    "country_iso3_code": "KGZ",
    "giga_id_school": "fe2cf310-0f92-342e-b3d0-baa23250fedb",
    "school_data_source": null
  },
  {
    "school_name": "СШ Средняя школа им.Манаса",
    "longitude": 69.46492004394531,
    "latitude": 39.77635955810547,
    "education_level": "Unknown",
    "country_iso3_code": "KGZ",
    "giga_id_school": "f5fe377b-70b8-3362-9d5a-1569c1e6e620",
    "school_data_source": null
  },
  {
    "school_name": "СШ Средняя школа им.Х.Боронбаева (сш.Кок-Таш)",
    "longitude": 69.39061737060547,
    "latitude": 39.742183685302734,
    "education_level": "Unknown",
    "country_iso3_code": "KGZ",
    "giga_id_school": "a8e0dccd-c49a-3c09-a69e-b9c2070ed30f",
    "school_data_source": null
  },
  {
    "school_name": "СШ Средняя школа им.Б.Саттаркулова (сш.Кызыл-Жылдыз)",
    "longitude": 69.39544677734375,
    "latitude": 39.735572814941406,
    "education_level": "Unknown",
    "country_iso3_code": "KGZ",
    "giga_id_school": "d21a72d3-6146-3955-8d80-2fea948b9e9a",
    "school_data_source": null
  },
  {
    "school_name": "ООШ Общая основная школа Дейноо",
    "longitude": 69.37027740478516,
    "latitude": 39.69722366333008,
    "education_level": "Unknown",
    "country_iso3_code": "KGZ",
    "giga_id_school": "51fe16a8-6be4-356d-8a73-0ab78210b071",
    "school_data_source": null
  },
  {
    "school_name": "СШ Средняя школа Сары-Добо",
    "longitude": 69.43415832519531,
    "latitude": 39.78604507446289,
    "education_level": "Unknown",
    "country_iso3_code": "KGZ",
    "giga_id_school": "c2b223c2-0a14-327f-aef7-d26f3fa5befc",
    "school_data_source": null
  },
  {
    "school_name": "СШ Средняя школа Тогуз-Булак",
    "longitude": 69.73279571533203,
    "latitude": 39.85507583618164,
    "education_level": "Unknown",
    "country_iso3_code": "KGZ",
    "giga_id_school": "6232d5de-61bb-3f79-8244-cf146f5e1cf7",
    "school_data_source": null
  },
  {
    "school_name": "СШ Средняя школа им. Н.Батырова",
    "longitude": 69.65409088134766,
    "latitude": 39.79846954345703,
    "education_level": "Unknown",
    "country_iso3_code": "KGZ",
    "giga_id_school": "955cd207-5d32-3713-a29f-b0e3c15954f3",
    "school_data_source": null
  },
  {
    "school_name": "СШ Средняя школа Кара-Булак",
    "longitude": 69.64611053466797,
    "latitude": 39.84519958496094,
    "education_level": "Unknown",
    "country_iso3_code": "KGZ",
    "giga_id_school": "4e043d3b-52ac-37b1-a374-907933008df6",
    "school_data_source": null
  },
  {
    "school_name": "СШ Средняя школа Маданият",
    "longitude": 69.76271057128906,
    "latitude": 39.84435272216797,
    "education_level": "Unknown",
    "country_iso3_code": "KGZ",
    "giga_id_school": "8104880f-6248-3be5-96f8-b302c15caf41",
    "school_data_source": null
  },
  {
    "school_name": "СШ Средняя школа Жаш-Тилек",
    "longitude": 69.69866180419922,
    "latitude": 39.82466125488281,
    "education_level": "Unknown",
    "country_iso3_code": "KGZ",
    "giga_id_school": "ab1efdb2-b20f-3baf-adb6-e05054a7de4e",
    "school_data_source": null
  },
  {
    "school_name": "СШ Средняя школа №7 им.Фирдоуси",
    "longitude": 71.33651733398438,
    "latitude": 39.947330474853516,
    "education_level": "Unknown",
    "country_iso3_code": "KGZ",
    "giga_id_school": "c27cf6f4-4d1f-33e9-a845-eabd71b86c79",
    "school_data_source": null
  },
  {
    "school_name": "СШ Учреждение Средняя школа №19 им.Батырбека Садыкова",
    "longitude": 71.3429183959961,
    "latitude": 39.943931579589844,
    "education_level": "Unknown",
    "country_iso3_code": "KGZ",
    "giga_id_school": "7c534f3a-63ac-36ab-ac43-950c4dc068e5",
    "school_data_source": null
  },
  {
    "school_name": "СШ Средняя школа №20 имени \"Орозбая Маканова\"",
    "longitude": 71.34343719482422,
    "latitude": 39.94203186035156,
    "education_level": "Unknown",
    "country_iso3_code": "KGZ",
    "giga_id_school": "9fc6c10f-91b0-3cd0-8efd-730072bb1ada",
    "school_data_source": null
  },
  {
    "school_name": "СШ Учреждение Средняя школа №17 имени А.Масалиева",
    "longitude": 71.72810363769531,
    "latitude": 40.12642288208008,
    "education_level": "Unknown",
    "country_iso3_code": "KGZ",
    "giga_id_school": "0daac450-c985-38c6-b459-3ccdcd3d08ed",
    "school_data_source": null
  },
  {
    "school_name": "НСШ Неполная средняя школа \"Жийделик\"",
    "longitude": 71.7174072265625,
    "latitude": 40.09967803955078,
    "education_level": "Unknown",
    "country_iso3_code": "KGZ",
    "giga_id_school": "b7e84306-f81d-392f-a225-fef608707020",
    "school_data_source": null
  },
  {
    "school_name": "ШЛ Учреждение \"Кадамжайская районная школа-лицей\"",
    "longitude": 71.72395324707031,
    "latitude": 40.1351318359375,
    "education_level": "Unknown",
    "country_iso3_code": "KGZ",
    "giga_id_school": "6df0e5c5-c2e0-3ceb-8071-bbb931f02dee",
    "school_data_source": null
  },
  {
    "school_name": "ШГ школа-гимназия №5 им.\"Б.Айтматова\"",
    "longitude": 71.7281494140625,
    "latitude": 40.140689849853516,
    "education_level": "Unknown",
    "country_iso3_code": "KGZ",
    "giga_id_school": "b464e845-da92-339d-8381-ead4443d9e1f",
    "school_data_source": null
  },
  {
    "school_name": "СШ Средняя школа №38 имени \"Ш.Жээнбаева\"",
    "longitude": 71.05261993408203,
    "latitude": 40.19051742553711,
    "education_level": "Unknown",
    "country_iso3_code": "KGZ",
    "giga_id_school": "ee8082d1-132f-3929-9f73-40620e3bf2bd",
    "school_data_source": null
  },
  {
    "school_name": "СШ Средняя школа №28 им.О.Абдырахманова (сш.\"Бурганды\")",
    "longitude": 71.10008239746094,
    "latitude": 40.257930755615234,
    "education_level": "Unknown",
    "country_iso3_code": "KGZ",
    "giga_id_school": "66b9fbe0-1900-399d-8c7e-84d2145fe3af",
    "school_data_source": null
  },
  {
    "school_name": "СШ Средняя школа №24 Кызыл-Коргон",
    "longitude": 71.07992553710938,
    "latitude": 40.149532318115234,
    "education_level": "Unknown",
    "country_iso3_code": "KGZ",
    "giga_id_school": "db7f3ab4-c483-30b5-92eb-18a3f346c57f",
    "school_data_source": null
  },
  {
    "school_name": "НСШ Неполная средняя школа №78 \"Жаштилек\"",
    "longitude": 71.23563385009766,
    "latitude": 40.29276657104492,
    "education_level": "Unknown",
    "country_iso3_code": "KGZ",
    "giga_id_school": "355071bc-f3a3-3ffe-98f3-a4c3dcb752f0",
    "school_data_source": null
  },
  {
    "school_name": "СШ Средняя школа им.А Торалиева",
    "longitude": 71.17194366455078,
    "latitude": 40.27497100830078,
    "education_level": "Unknown",
    "country_iso3_code": "KGZ",
    "giga_id_school": "8e06852b-8163-35e5-8997-9c4749da3ee0",
    "school_data_source": null
  },
  {
    "school_name": "НШ Начальная школа \"Мин-Чынар\"",
    "longitude": 72.31194305419922,
    "latitude": 41.048561096191406,
    "education_level": "Unknown",
    "country_iso3_code": "KGZ",
    "giga_id_school": "8b7675e3-ffc0-314b-857c-2084f697389a",
    "school_data_source": null
  },
  {
    "school_name": "СШ Средняя школа имени \"М.Горького\"",
    "longitude": 71.50213623046875,
    "latitude": 40.236568450927734,
    "education_level": "Unknown",
    "country_iso3_code": "KGZ",
    "giga_id_school": "1e06ff72-a444-346a-8165-3c997262138b",
    "school_data_source": null
  },
  {
    "school_name": "СШ Средняя школа \"Орнок\"",
    "longitude": 71.48741912841797,
    "latitude": 40.2371826171875,
    "education_level": "Unknown",
    "country_iso3_code": "KGZ",
    "giga_id_school": "0a3b2a42-a15e-3f96-8b6a-ff9591597238",
    "school_data_source": null
  },
  {
    "school_name": "НШ Начальная школа \"АРИС\"",
    "longitude": 71.50721740722656,
    "latitude": 40.23347854614258,
    "education_level": "Unknown",
    "country_iso3_code": "KGZ",
    "giga_id_school": "9b5bd996-fea8-380f-be75-d6c4e90face2",
    "school_data_source": null
  },
  {
    "school_name": "СШ Средняя школа \"Адыр\"",
    "longitude": 71.45269775390625,
    "latitude": 40.23735427856445,
    "education_level": "Unknown",
    "country_iso3_code": "KGZ",
    "giga_id_school": "465fbca4-6dcf-3ce7-99f0-62f803e0b9c2",
    "school_data_source": null
  },
  {
    "school_name": "СШ Средняя школа \"Шыбран\"",
    "longitude": 71.45633697509766,
    "latitude": 40.152400970458984,
    "education_level": "Unknown",
    "country_iso3_code": "KGZ",
    "giga_id_school": "d2b0fc31-2292-3ce5-ab9d-ed85d6074ad9",
    "school_data_source": null
  },
  {
    "school_name": "СШ Средняя школа №46 Чукуркыштак",
    "longitude": 71.5047378540039,
    "latitude": 40.25669479370117,
    "education_level": "Unknown",
    "country_iso3_code": "KGZ",
    "giga_id_school": "c4aa55cf-e687-34b3-8afb-5ef6a8eed21f",
    "school_data_source": null
  },
  {
    "school_name": "СШ Средняя школа \"29 имени \"А.Шамурзаева\"",
    "longitude": 71.26029968261719,
    "latitude": 39.94463348388672,
    "education_level": "Unknown",
    "country_iso3_code": "KGZ",
    "giga_id_school": "b5f49297-864a-3073-a7c2-7ad8cc453dde",
    "school_data_source": null
  },
  {
    "school_name": "СШ Средняя школа им \"А.Солтонова\"",
    "longitude": 71.23228454589844,
    "latitude": 39.952301025390625,
    "education_level": "Unknown",
    "country_iso3_code": "KGZ",
    "giga_id_school": "8da26c52-c34f-3532-9441-86f177c26d3d",
    "school_data_source": null
  },
  {
    "school_name": "СШ Средняя школа №31 имени \"Б.Алыкулова\"",
    "longitude": 71.32649993896484,
    "latitude": 39.9290885925293,
    "education_level": "Unknown",
    "country_iso3_code": "KGZ",
    "giga_id_school": "43bd2849-41f4-3584-b25a-4b9c8a7ae0e2",
    "school_data_source": null
  },
  {
    "school_name": "Неполная средняя школа \"Моло\" Кадамжайского района",
    "longitude": 71.24079132080078,
    "latitude": 39.928955078125,
    "education_level": "Unknown",
    "country_iso3_code": "KGZ",
    "giga_id_school": "b9d3ad15-bc91-3c1b-bfe7-aa483e8ef968",
    "school_data_source": null
  },
  {
    "school_name": "СШ Средняя школа №30 Сырт имени \"О.Тешебаева\"",
    "longitude": 71.23905181884766,
    "latitude": 39.911048889160156,
    "education_level": "Unknown",
    "country_iso3_code": "KGZ",
    "giga_id_school": "8db79686-6925-33f9-8b91-99c13fa231ce",
    "school_data_source": null
  },
  {
    "school_name": "СШ Средняя школа №37 \"1 мая\"",
    "longitude": 71.21814727783203,
    "latitude": 39.9461669921875,
    "education_level": "Unknown",
    "country_iso3_code": "KGZ",
    "giga_id_school": "f30ecb3a-2fdc-32df-a66c-2e2faced6579",
    "school_data_source": null
  },
  {
    "school_name": "СШ Средняя школа \"54 \"ЭШМЕ\"",
    "longitude": 71.30227661132812,
    "latitude": 39.951717376708984,
    "education_level": "Unknown",
    "country_iso3_code": "KGZ",
    "giga_id_school": "4d93b473-fe4e-3e7f-82cd-71593a66edbd",
    "school_data_source": null
  },
  {
    "school_name": "СШ Средняя школа №43 имени \"З.М.Бобура\"",
    "longitude": 72.0334701538086,
    "latitude": 40.235984802246094,
    "education_level": "Unknown",
    "country_iso3_code": "KGZ",
    "giga_id_school": "71e623b2-18de-3055-a002-6dc130f58bd2",
    "school_data_source": null
  },
  {
    "school_name": "СШ Средняя школа \"2 имени \"Амир Темура\"",
    "longitude": 72.0920181274414,
    "latitude": 40.170249938964844,
    "education_level": "Unknown",
    "country_iso3_code": "KGZ",
    "giga_id_school": "26b48d8e-4292-34bc-a715-4b0c6ab13d05",
    "school_data_source": null
  },
  {
    "school_name": "СШ Средняя школа №9 имени \"А.Орозбекова\"",
    "longitude": 71.99929809570312,
    "latitude": 40.2310676574707,
    "education_level": "Unknown",
    "country_iso3_code": "KGZ",
    "giga_id_school": "bde1510c-014b-34f4-b78e-5208541e77cd",
    "school_data_source": null
  },
  {
    "school_name": "СШ Средняя школа имени \"Т.Мадарипова\"",
    "longitude": 72.04995727539062,
    "latitude": 40.226593017578125,
    "education_level": "Unknown",
    "country_iso3_code": "KGZ",
    "giga_id_school": "2d006a2f-037a-36e5-9d29-e70a22b7131b",
    "school_data_source": null
  },
  {
    "school_name": "СШ Учреждение Средняя школа имени \"Т.Исмаилова\"",
    "longitude": 72.0013656616211,
    "latitude": 40.2278938293457,
    "education_level": "Unknown",
    "country_iso3_code": "KGZ",
    "giga_id_school": "777af85a-a2a5-3663-9129-0e7bcd40d994",
    "school_data_source": null
  },
  {
    "school_name": "СШ Средняя школа имени \"Козубай\"",
    "longitude": 72.08155059814453,
    "latitude": 40.17414855957031,
    "education_level": "Unknown",
    "country_iso3_code": "KGZ",
    "giga_id_school": "c4d4c444-7606-347b-9ca1-a0da5d6436d7",
    "school_data_source": null
  },
  {
    "school_name": "СШ Средняя школа №4 имени \"Коксал Топтан\"",
    "longitude": 71.74042510986328,
    "latitude": 40.04683303833008,
    "education_level": "Unknown",
    "country_iso3_code": "KGZ",
    "giga_id_school": "ba347428-8bea-331a-ba6d-1dd02a9875a7",
    "school_data_source": null
  },
  {
    "school_name": "ШГ Учреждение школа-гимназия №37 имени Молдо Нияза",
    "longitude": 71.75067901611328,
    "latitude": 40.035301208496094,
    "education_level": "Unknown",
    "country_iso3_code": "KGZ",
    "giga_id_school": "f9ab0eb0-e2bf-35e5-a4c6-b190167d5fbf",
    "school_data_source": null
  },
  {
    "school_name": "НШ Учреждение Начальная школа имени \"Амана Жалилова\"",
    "longitude": 71.46019744873047,
    "latitude": 40.01261901855469,
    "education_level": "Unknown",
    "country_iso3_code": "KGZ",
    "giga_id_school": "763e653a-a5ca-35f6-bdaa-013fb6bca184",
    "school_data_source": null
  },
  {
    "school_name": "СШ Средняя школа \"59 имени \"Х.Жаныбекова\"",
    "longitude": 71.88300323486328,
    "latitude": 40.048370361328125,
    "education_level": "Unknown",
    "country_iso3_code": "KGZ",
    "giga_id_school": "e449dc0f-6651-3404-9838-5559a122ff1e",
    "school_data_source": null
  },
  {
    "school_name": "СШ Средняя школа \"Дыйкан\"",
    "longitude": 72.08849334716797,
    "latitude": 40.118350982666016,
    "education_level": "Unknown",
    "country_iso3_code": "KGZ",
    "giga_id_school": "c391fef6-f118-353c-b379-b3ca1470bcca",
    "school_data_source": null
  },
  {
    "school_name": "СШ Средняя школа \"56 имени \"С.Тажибаева\"",
    "longitude": 72.10008239746094,
    "latitude": 40.11781692504883,
    "education_level": "Unknown",
    "country_iso3_code": "KGZ",
    "giga_id_school": "1aeb581c-6c8b-3466-a374-7c16c7133cd7",
    "school_data_source": null
  },
  {
    "school_name": "СШ Средняя школа № 48 им. М.Таирова",
    "longitude": 72.08678436279297,
    "latitude": 40.04048156738281,
    "education_level": "Unknown",
    "country_iso3_code": "KGZ",
    "giga_id_school": "293860fc-bf17-301b-92c2-1ce28e14fdd7",
    "school_data_source": null
  },
  {
    "school_name": "СШ Средняя школа №11 \"Исфайрам\"",
    "longitude": 72.08838653564453,
    "latitude": 40.066650390625,
    "education_level": "Unknown",
    "country_iso3_code": "KGZ",
    "giga_id_school": "238f65f3-bcd4-32d6-974b-36ce5ef726b6",
    "school_data_source": null
  },
  {
    "school_name": "СШ Средняя школа №47 имени \"А.Темирбаева\"",
    "longitude": 71.98186492919922,
    "latitude": 40.23054504394531,
    "education_level": "Unknown",
    "country_iso3_code": "KGZ",
    "giga_id_school": "04bee9a0-fa09-3a01-9991-e028a428f1a5",
    "school_data_source": null
  },
  {
    "school_name": "СШ Средняя школа имени \"У.Исакова\"",
    "longitude": 71.97660827636719,
    "latitude": 40.254947662353516,
    "education_level": "Unknown",
    "country_iso3_code": "KGZ",
    "giga_id_school": "4f629d0d-333b-3a1d-920e-5630869e5eec",
    "school_data_source": null
  },
  {
    "school_name": "СШ Средняя школа \"Сары-Алтын\"",
    "longitude": 71.92617797851562,
    "latitude": 40.23764419555664,
    "education_level": "Unknown",
    "country_iso3_code": "KGZ",
    "giga_id_school": "122939d9-2bf3-3639-9031-5ffb5e566899",
    "school_data_source": null
  },
  {
    "school_name": "СШ Средняя школа №25 имени \"АЙРЫБАЗ\"",
    "longitude": 71.91495513916016,
    "latitude": 40.23917770385742,
    "education_level": "Unknown",
    "country_iso3_code": "KGZ",
    "giga_id_school": "6e79ae04-fbad-3c1a-a61d-372e5744d54b",
    "school_data_source": null
  },
  {
    "school_name": "СШ Средняя школа №53 имени \"Мирзо Улугбека\"",
    "longitude": 71.90245056152344,
    "latitude": 40.24195098876953,
    "education_level": "Unknown",
    "country_iso3_code": "KGZ",
    "giga_id_school": "4b2da78e-da55-3c81-9d02-3effbe27748b",
    "school_data_source": null
  },
  {
    "school_name": "СШ Средняя школа №67 \"Кыргызстандын 10-жылдыгы\"",
    "longitude": 71.89765930175781,
    "latitude": 40.241798400878906,
    "education_level": "Unknown",
    "country_iso3_code": "KGZ",
    "giga_id_school": "6fccbde8-c321-3610-924e-6779fe5723bf",
    "school_data_source": null
  },
  {
    "school_name": "СШ Средняя школа \"Арпа-Сай\"",
    "longitude": 71.99215698242188,
    "latitude": 40.231224060058594,
    "education_level": "Unknown",
    "country_iso3_code": "KGZ",
    "giga_id_school": "f03e954f-338f-3dc4-94b2-541701c23079",
    "school_data_source": null
  },
  {
    "school_name": "СШ Средняя школа №81 \"А.Орозбековдун 120 жылдыгы",
    "longitude": 71.87735748291016,
    "latitude": 40.20991897583008,
    "education_level": "Unknown",
    "country_iso3_code": "KGZ",
    "giga_id_school": "6c96141f-40bb-3833-bd31-eb120476f704",
    "school_data_source": null
  },
  {
    "school_name": "СШ Средняя школа №41 имени \"Сатарова Кудайкула\"",
    "longitude": 71.8612289428711,
    "latitude": 40.23732376098633,
    "education_level": "Unknown",
    "country_iso3_code": "KGZ",
    "giga_id_school": "95b81f1e-f544-32a4-9f55-b788e5cda26d",
    "school_data_source": null
  },
  {
    "school_name": "СШ Средняя школа им. \"Саид Баюми\"",
    "longitude": 71.87055206298828,
    "latitude": 40.24136734008789,
    "education_level": "Unknown",
    "country_iso3_code": "KGZ",
    "giga_id_school": "be154e73-f2c8-3b3b-8dd4-2aeb0b1f5d39",
    "school_data_source": null
  },
  {
    "school_name": "СШ Средняя школа №34 имени \"С.Тешеева\"",
    "longitude": 71.68768310546875,
    "latitude": 40.06159973144531,
    "education_level": "Unknown",
    "country_iso3_code": "KGZ",
    "giga_id_school": "9cedf33c-f477-32e2-8746-6f1824805fd2",
    "school_data_source": null
  },
  {
    "school_name": "СШ Средняя школа им.Д.Сыдыкова (Учкун)",
    "longitude": 71.7125473022461,
    "latitude": 40.070350646972656,
    "education_level": "Unknown",
    "country_iso3_code": "KGZ",
    "giga_id_school": "f3b45de5-461c-3647-9c12-f4d4611c2686",
    "school_data_source": null
  },
  {
    "school_name": "ШГ школа-гимназия №3 \"Охна\"",
    "longitude": 71.67019653320312,
    "latitude": 40.05653381347656,
    "education_level": "Unknown",
    "country_iso3_code": "KGZ",
    "giga_id_school": "57e585f4-82ca-391a-916b-7dda59f95b2b",
    "school_data_source": null
  },
  {
    "school_name": "СШ Средняя школа №6 имени А.С.Пушкина Кадамжайского района",
    "longitude": 72.05381774902344,
    "latitude": 40.227783203125,
    "education_level": "Unknown",
    "country_iso3_code": "KGZ",
    "giga_id_school": "60c9547f-02bf-3773-8418-222515f7cefa",
    "school_data_source": null
  },
  {
    "school_name": "СШ Средняя школа \"26 \"А.Жомий\"",
    "longitude": 72.06651306152344,
    "latitude": 40.222267150878906,
    "education_level": "Unknown",
    "country_iso3_code": "KGZ",
    "giga_id_school": "fd660437-0ce0-37be-a0f3-a9d18f8c3346",
    "school_data_source": null
  },
  {
    "school_name": "СШ Средняя школа \"44 \"Дружба\"",
    "longitude": 72.06258392333984,
    "latitude": 40.24100112915039,
    "education_level": "Unknown",
    "country_iso3_code": "KGZ",
    "giga_id_school": "d1ee18e8-a802-323a-83de-2465be0f5b48",
    "school_data_source": null
  },
  {
    "school_name": "СШ Средняя школа №15 имени \"С.Айни\"",
    "longitude": 72.0522689819336,
    "latitude": 40.242794036865234,
    "education_level": "Unknown",
    "country_iso3_code": "KGZ",
    "giga_id_school": "faacf33b-d8b0-305d-8d11-23c55e082c11",
    "school_data_source": null
  },
  {
    "school_name": "СШ Средняя школа №16 \"А.Рудаки\"",
    "longitude": 72.05394744873047,
    "latitude": 40.2335319519043,
    "education_level": "Unknown",
    "country_iso3_code": "KGZ",
    "giga_id_school": "64e535a9-67cf-348f-8605-045353f9ca90",
    "school_data_source": null
  },
  {
    "school_name": "СШ Средняя школа №75 имени \"М.Курбанова\"",
    "longitude": 72.03309631347656,
    "latitude": 40.255130767822266,
    "education_level": "Unknown",
    "country_iso3_code": "KGZ",
    "giga_id_school": "7d2544da-af77-362b-983f-38f0102dabdb",
    "school_data_source": null
  },
  {
    "school_name": "ШИ Учреждение \"Уч-Коргонская специальная общеобразовательная (вспомогательная) школа-интернат \"",
    "longitude": 72.0322494506836,
    "latitude": 40.132991790771484,
    "education_level": "Unknown",
    "country_iso3_code": "KGZ",
    "giga_id_school": "0abf91b4-4bb1-3299-9bbd-62221c04f7b6",
    "school_data_source": null
  },