[
  {
    "school_name": "A.I.C Nacipo Primary School [APN]",
    "longitude": 34.18428421020508,
    "latitude": 4.5149006843566895,
    "education_level": "Primary",
    "country_iso3_code": "SSD",
    "giga_id_school": "f513e7ec-34a8-375a-afc3-ac1fe0657466",
    "school_data_source": null
  },
  {
    "school_name": "Ibba Secondary [BBD]",
    "longitude": 29.13422966003418,
    "latitude": 4.801359176635742,
    "education_level": "Secondary",
    "country_iso3_code": "SSD",
    "giga_id_school": "a4c8cb9c-72fa-3587-a8c1-1be6f5430c05",
    "school_data_source": null
  },
  {
    "school_name": "Lual Primary School",
    "longitude": 28.081623077392578,
    "latitude": 9.042889595031738,
    "education_level": "Primary",
    "country_iso3_code": "SSD",
    "giga_id_school": "bdd9bc1b-ffc0-3360-b4b0-0086683f40f1",
    "school_data_source": null
  },
  {
    "school_name": "Billingbet Primary school",
    "longitude": 29.303482055664062,
    "latitude": 6.996115207672119,
    "education_level": "Primary",
    "country_iso3_code": "SSD",
    "giga_id_school": "b5babdd3-6cef-31f3-8a4e-0b3cae303718",
    "school_data_source": null
  },
  {
    "school_name": "Magumbil AES",
    "longitude": 29.30874252319336,
    "latitude": 6.963073253631592,
    "education_level": "Other",
    "country_iso3_code": "SSD",
    "giga_id_school": "0007d8c6-e088-362f-bdd1-b1175b899f7d",
    "school_data_source": null
  },
  {
    "school_name": "Kampil ALP",
    "longitude": 29.312885284423828,
    "latitude": 6.999241828918457,
    "education_level": "Other",
    "country_iso3_code": "SSD",
    "giga_id_school": "5967b189-9657-3534-be40-58d48e9c20c6",
    "school_data_source": null
  },
  {
    "school_name": "Abinegani  AES Adult Educaion",
    "longitude": 29.305809020996094,
    "latitude": 6.996606826782227,
    "education_level": "Other",
    "country_iso3_code": "SSD",
    "giga_id_school": "0e65e068-eb74-352d-ac1a-584246b6fa1d",
    "school_data_source": null
  },
  {
    "school_name": "Abyei Cok ECD",
    "longitude": 29.373416900634766,
    "latitude": 6.967798233032227,
    "education_level": "Pre-Primary",
    "country_iso3_code": "SSD",
    "giga_id_school": "aebcc355-9ebc-3126-8f56-e8500dd82457",
    "school_data_source": null
  },
  {
    "school_name": "Joor  Primary school",
    "longitude": 29.245389938354492,
    "latitude": 6.971181869506836,
    "education_level": "Primary",
    "country_iso3_code": "SSD",
    "giga_id_school": "4387697a-91a3-3e7c-aeec-9f289ada9e5b",
    "school_data_source": null
  },
  {
    "school_name": "Mukwaidit Primary School [MUQ]",
    "longitude": 29.277177810668945,
    "latitude": 7.02813196182251,
    "education_level": "Primary",
    "country_iso3_code": "SSD",
    "giga_id_school": "210b747f-6a29-39f7-9e1c-38f6acf99917",
    "school_data_source": null
  },
  {
    "school_name": "Cueibet Boys Primary School [CBO]",
    "longitude": 29.261905670166016,
    "latitude": 7.022194862365723,
    "education_level": "Primary",
    "country_iso3_code": "SSD",
    "giga_id_school": "84e11cab-42c3-35da-8f65-67f58c960129",
    "school_data_source": null
  },
  {
    "school_name": "Derbaidit Primary School [DRH]",
    "longitude": 29.30953025817871,
    "latitude": 7.01609992980957,
    "education_level": "Primary",
    "country_iso3_code": "SSD",
    "giga_id_school": "5a83a593-c8c5-3e95-bbf4-ce59d12c51a0",
    "school_data_source": null
  },
  {
    "school_name": "Billinguet Primary School [BLJ]",
    "longitude": 29.27811622619629,
    "latitude": 6.952388286590576,
    "education_level": "Primary",
    "country_iso3_code": "SSD",
    "giga_id_school": "3e033066-6875-3c10-b08b-56c62714599f",
    "school_data_source": null
  },
  {
    "school_name": "Elite Academy [ELB]",
    "longitude": 26.857654571533203,
    "latitude": 9.216318130493164,
    "education_level": "Pre-Primary",
    "country_iso3_code": "SSD",
    "giga_id_school": "2b7263d0-1841-32d0-9384-9f4e71f2a5c7",
    "school_data_source": null
  },
  {
    "school_name": "Wunatem Girls Primary school",
    "longitude": 28.129159927368164,
    "latitude": 8.945950508117676,
    "education_level": "Primary",
    "country_iso3_code": "SSD",
    "giga_id_school": "2e957b52-bed4-360f-9b05-f792d2b1f107",
    "school_data_source": null
  },
  {
    "school_name": "Doltok Primary School [DDL]",
    "longitude": 29.170347213745117,
    "latitude": 9.21935749053955,
    "education_level": "Primary",
    "country_iso3_code": "SSD",
    "giga_id_school": "99b5858b-ad62-3f52-b9a3-4d95490fbce8",
    "school_data_source": null
  },
  {
    "school_name": "Dhur United Primary [DUP]",
    "longitude": 29.266935348510742,
    "latitude": 6.941652774810791,
    "education_level": "Primary",
    "country_iso3_code": "SSD",
    "giga_id_school": "57391ecb-8650-301c-a0c1-08965f3e322f",
    "school_data_source": null
  },
  {
    "school_name": "Bori Nursery School [BIN]",
    "longitude": 31.481266021728516,
    "latitude": 3.7067298889160156,
    "education_level": "Pre-Primary",
    "country_iso3_code": "SSD",
    "giga_id_school": "5e064cd4-4d23-3057-b189-f5fa21ec4487",
    "school_data_source": null
  },
  {
    "school_name": "Godo Nursery School [GDU]",
    "longitude": 31.517290115356445,
    "latitude": 3.7284493446350098,
    "education_level": "Pre-Primary",
    "country_iso3_code": "SSD",
    "giga_id_school": "887a7611-df10-3a21-910a-38ae35e794a4",
    "school_data_source": null
  },
  {
    "school_name": "Akuboro Nursery School [KBN]",
    "longitude": 31.578662872314453,
    "latitude": 3.8039700984954834,
    "education_level": "Pre-Primary",
    "country_iso3_code": "SSD",
    "giga_id_school": "33a08327-4af5-3fc0-a6bd-2ead3ab6252f",
    "school_data_source": null
  },
  {
    "school_name": "Akuboro Primary School [KUB]",
    "longitude": 31.57867431640625,
    "latitude": 3.8040106296539307,
    "education_level": "Primary",
    "country_iso3_code": "SSD",
    "giga_id_school": "65f83e8c-b8ea-3f6b-82ff-6d11e4f2c1ea",
    "school_data_source": null
  },
  {
    "school_name": "Kasurak Nursery School [KSD]",
    "longitude": 31.564531326293945,
    "latitude": 3.844592809677124,
    "education_level": "Pre-Primary",
    "country_iso3_code": "SSD",
    "giga_id_school": "b3ac533a-ea23-324a-a360-3b62b3621920",
    "school_data_source": null
  },
  {
    "school_name": "Dhak Primary School [DDH]",
    "longitude": 28.606647491455078,
    "latitude": 8.11987018585205,
    "education_level": "Primary",
    "country_iso3_code": "SSD",
    "giga_id_school": "6aeb6dc4-5689-3924-b94b-1d10d0e3088d",
    "school_data_source": null
  },
  {
    "school_name": "Makol Primary School [ROY]",
    "longitude": 28.616008758544922,
    "latitude": 8.140189170837402,
    "education_level": "Primary",
    "country_iso3_code": "SSD",
    "giga_id_school": "4c8498ea-a9c5-3432-9231-0d13c09d24f5",
    "school_data_source": null
  },
  {
    "school_name": "Rumtiit Primary School [URM]",
    "longitude": 28.56911277770996,
    "latitude": 8.055100440979004,
    "education_level": "Primary",
    "country_iso3_code": "SSD",
    "giga_id_school": "b8bb877b-7894-3dd6-844b-e5804abaaffd",
    "school_data_source": null
  },
  {
    "school_name": "Mabior Ngap [NFZ]",
    "longitude": 28.4661922454834,
    "latitude": 8.00318717956543,
    "education_level": "Primary",
    "country_iso3_code": "SSD",
    "giga_id_school": "28278831-0848-3548-811d-3369c7e469df",
    "school_data_source": null
  },
  {
    "school_name": "Pagakdit Primary School [PGK]",
    "longitude": 28.50638198852539,
    "latitude": 7.989991664886475,
    "education_level": "Primary",
    "country_iso3_code": "SSD",
    "giga_id_school": "69516c55-9e59-3964-b361-e9488f025255",
    "school_data_source": null
  },
  {
    "school_name": "Mayenthon Primary school",
    "longitude": 29.22157096862793,
    "latitude": 6.972842693328857,
    "education_level": "Primary",
    "country_iso3_code": "SSD",
    "giga_id_school": "feb1a386-53e2-31f4-9ee3-205052cdc1c0",
    "school_data_source": null
  },
  {
    "school_name": "Acemenyi Primary School [CEM]",
    "longitude": 29.229434967041016,
    "latitude": 6.9399638175964355,
    "education_level": "Primary",
    "country_iso3_code": "SSD",
    "giga_id_school": "bc08f5e0-8dde-3744-82d7-b098208b4a71",
    "school_data_source": null
  },
  {
    "school_name": "Agangrial Comboni Primary School [AGO]",
    "longitude": 29.224645614624023,
    "latitude": 6.851690769195557,
    "education_level": "Primary",
    "country_iso3_code": "SSD",
    "giga_id_school": "9d2179e6-ff03-3642-be5c-7e61fee37e77",
    "school_data_source": null
  },
  {
    "school_name": "Agangrial Secondary School",
    "longitude": 29.2247257232666,
    "latitude": 6.851440906524658,
    "education_level": "Secondary",
    "country_iso3_code": "SSD",
    "giga_id_school": "2eac9c60-f3ab-3199-85d2-449d99271016",
    "school_data_source": null
  },
  {
    "school_name": "Hokayok Primary school",
    "longitude": 29.23603057861328,
    "latitude": 6.91500997543335,
    "education_level": "Primary",
    "country_iso3_code": "SSD",
    "giga_id_school": "a9dbe056-bd97-3822-928c-531e4552fc63",
    "school_data_source": null
  },
  {
    "school_name": "Payer Primary School",
    "longitude": 28.493288040161133,
    "latitude": 8.249113082885742,
    "education_level": "Primary",
    "country_iso3_code": "SSD",
    "giga_id_school": "f4b4ffea-921f-3dfb-b012-aa9192fe3721",
    "school_data_source": null
  },
  {
    "school_name": "Mayom Biong ALP",
    "longitude": 28.59532356262207,
    "latitude": 8.231819152832031,
    "education_level": "Other",
    "country_iso3_code": "SSD",
    "giga_id_school": "94fcb4f6-c3fe-38ba-a73e-5b8ea070a5b3",
    "school_data_source": null
  },
  {
    "school_name": "MAYOM BIONG PRE-SCHOOL [NMW]",
    "longitude": 28.59493064880371,
    "latitude": 8.231790542602539,
    "education_level": "Pre-Primary",
    "country_iso3_code": "SSD",
    "giga_id_school": "d05d7499-311a-35bd-9a4f-fa975e09d2fb",
    "school_data_source": null
  },
  {
    "school_name": "Abieth Secondary [ABX]",
    "longitude": 28.594017028808594,
    "latitude": 8.23147964477539,
    "education_level": "Secondary",
    "country_iso3_code": "SSD",
    "giga_id_school": "c5054d45-17dd-3e8e-9bd7-518c57bcd8cc",
    "school_data_source": null
  },
  {
    "school_name": "Makuach Centre Primary School",
    "longitude": 28.593141555786133,
    "latitude": 8.229776382446289,
    "education_level": "Primary",
    "country_iso3_code": "SSD",
    "giga_id_school": "40de7b89-bf6a-368d-bb37-cf915cbe8a53",
    "school_data_source": null
  },
  {
    "school_name": "Mayom (iii) Primary School",
    "longitude": 28.595420837402344,
    "latitude": 8.230764389038086,
    "education_level": "Primary",
    "country_iso3_code": "SSD",
    "giga_id_school": "58b3e635-4701-3784-8cf1-7329f1912f70",
    "school_data_source": null
  },
  {
    "school_name": "Mading Biong ALP",
    "longitude": 28.53675079345703,
    "latitude": 8.226786613464355,
    "education_level": "Other",
    "country_iso3_code": "SSD",
    "giga_id_school": "e8bc474a-7047-300e-ba8e-c74e9ff4fd59",
    "school_data_source": null
  },
  {
    "school_name": "Mading (Thian) Primary School",
    "longitude": 31.12665557861328,
    "latitude": 6.449537754058838,
    "education_level": "Primary",
    "country_iso3_code": "SSD",
    "giga_id_school": "77a8e38a-d764-3227-873f-93b80d4220cd",
    "school_data_source": null
  },
  {
    "school_name": "Biling-Anger Primary School [BLN]",
    "longitude": 29.412431716918945,
    "latitude": 6.946933269500732,
    "education_level": "Primary",
    "country_iso3_code": "SSD",
    "giga_id_school": "fdbf00b3-ada9-3c06-ab97-0a0f6f3416cb",
    "school_data_source": null
  },
  {
    "school_name": "Abiriu ECS primary [AEP]",
    "longitude": 29.427845001220703,
    "latitude": 6.93834114074707,
    "education_level": "Primary",
    "country_iso3_code": "SSD",
    "giga_id_school": "c10c8370-1fc8-35de-8e29-b9c06441fd0f",
    "school_data_source": null
  },
  {
    "school_name": "Awan Kuek Primary [AKU]",
    "longitude": 29.399629592895508,
    "latitude": 6.924980163574219,
    "education_level": "Primary",
    "country_iso3_code": "SSD",
    "giga_id_school": "0bb5c9f3-bc5e-3ced-96dc-b3f9be6a5b8a",
    "school_data_source": null
  },
  {
    "school_name": "Majok kubur Primary school",
    "longitude": 29.395116806030273,
    "latitude": 6.936689376831055,
    "education_level": "Primary",
    "country_iso3_code": "SSD",
    "giga_id_school": "bc26567d-8134-3a25-a8a9-6cc5424b5e8d",
    "school_data_source": null
  },
  {
    "school_name": "Ameth-Duol Primary School [MTH]",
    "longitude": 29.42443084716797,
    "latitude": 6.935868263244629,
    "education_level": "Primary",
    "country_iso3_code": "SSD",
    "giga_id_school": "ae6a4b6f-e4dc-3ad0-94d0-9fbb86659b1f",
    "school_data_source": null
  },
  {
    "school_name": "Debel Primary School [DBE]",
    "longitude": 29.424463272094727,
    "latitude": 6.936023235321045,
    "education_level": "Primary",
    "country_iso3_code": "SSD",
    "giga_id_school": "f0f8f0cc-1eda-3f06-9a71-26b99bf4ff6a",
    "school_data_source": null
  },
  {
    "school_name": "Yinhayuar Primary School [YHY]",
    "longitude": 29.424463272094727,
    "latitude": 6.935980319976807,
    "education_level": "Primary",
    "country_iso3_code": "SSD",
    "giga_id_school": "1329c175-f68d-3014-947c-25a94b7ddea0",
    "school_data_source": null
  },
  {
    "school_name": "Abiriu Boys Primary School [ABO]",
    "longitude": 29.424373626708984,
    "latitude": 6.935920715332031,
    "education_level": "Primary",
    "country_iso3_code": "SSD",
    "giga_id_school": "0bae5c2b-d383-3f91-ae2f-5938046a8d1e",
    "school_data_source": null
  },
  {
    "school_name": "Kubur William Primary School [KWP]",
    "longitude": 29.477785110473633,
    "latitude": 6.911462306976318,
    "education_level": "Primary",
    "country_iso3_code": "SSD",
    "giga_id_school": "6e179313-3229-37bf-9a04-41480e33435b",
    "school_data_source": null
  },
  {
    "school_name": "Langdit Primary school",
    "longitude": 29.43075180053711,
    "latitude": 6.877049922943115,
    "education_level": "Primary",
    "country_iso3_code": "SSD",
    "giga_id_school": "4634f751-f302-3972-a080-fc6c79caf83c",
    "school_data_source": null
  },
  {
    "school_name": "Amol But Primary School [AMU]",
    "longitude": 29.423450469970703,
    "latitude": 6.881748199462891,
    "education_level": "Primary",
    "country_iso3_code": "SSD",
    "giga_id_school": "8213fcf7-204e-3a95-b685-ab3c19ea3375",
    "school_data_source": null
  },
  {
    "school_name": "Akur-Dau Primary School [KUR]",
    "longitude": 29.423690795898438,
    "latitude": 6.881770133972168,
    "education_level": "Primary",
    "country_iso3_code": "SSD",
    "giga_id_school": "54fe8268-3a99-3979-af36-570c64ac403d",
    "school_data_source": null
  },
  {
    "school_name": "Angeer Primary School [APQ]",
    "longitude": 29.42371940612793,
    "latitude": 6.936470985412598,
    "education_level": "Primary",
    "country_iso3_code": "SSD",
    "giga_id_school": "fd299311-856c-3088-b3d4-27ff7f7a0d5b",
    "school_data_source": null
  },
  {
    "school_name": "Abiriu ALP",
    "longitude": 29.42349624633789,
    "latitude": 6.936253547668457,
    "education_level": "Other",
    "country_iso3_code": "SSD",
    "giga_id_school": "ff4a5fe8-7635-338a-aa68-80dfb5b24cfb",
    "school_data_source": null
  },
  {
    "school_name": "Kubur William ALP",
    "longitude": 29.423707962036133,
    "latitude": 6.936521530151367,
    "education_level": "Other",
    "country_iso3_code": "SSD",
    "giga_id_school": "f2e4ac77-abf8-395f-a114-117e6a3dae46",
    "school_data_source": null
  },
  {
    "school_name": "Marial Akeng Primary School [MRO]",
    "longitude": 29.355180740356445,
    "latitude": 6.973245143890381,
    "education_level": "Primary",
    "country_iso3_code": "SSD",
    "giga_id_school": "d8999150-15ed-3993-a6ac-6905ca409a3d",
    "school_data_source": null
  },
  {
    "school_name": "Gokthiar Primary School [GKT]",
    "longitude": 29.180116653442383,
    "latitude": 6.95512056350708,
    "education_level": "Primary",
    "country_iso3_code": "SSD",
    "giga_id_school": "beef5198-aef4-30b5-b403-e91ea7d79fe3",
    "school_data_source": null
  },
  {
    "school_name": "Apuk Ruop Primary School [ARU]",
    "longitude": 29.192657470703125,
    "latitude": 6.972907066345215,
    "education_level": "Primary",
    "country_iso3_code": "SSD",
    "giga_id_school": "cc525a0c-0af3-3fde-8836-0c0058f89a77",
    "school_data_source": null
  },
  {
    "school_name": "Ager Gum Primary School [AGU]",
    "longitude": 29.670330047607422,
    "latitude": 6.810487747192383,
    "education_level": "Primary",
    "country_iso3_code": "SSD",
    "giga_id_school": "e358cc01-1ecd-33f1-a253-96e7b5af6d90",
    "school_data_source": null
  },
  {
    "school_name": "Rumbek Comboni Primary School [RUM]",
    "longitude": 29.667694091796875,
    "latitude": 6.814520835876465,
    "education_level": "Primary",
    "country_iso3_code": "SSD",
    "giga_id_school": "fca41d40-10f2-30d8-87c8-daa3e9f486a0",
    "school_data_source": null
  },
  {
    "school_name": "Riakdor alp",
    "longitude": 29.679868698120117,
    "latitude": 6.799611568450928,
    "education_level": "Other",
    "country_iso3_code": "SSD",
    "giga_id_school": "1452fdd6-a4b8-374e-846e-e31928f8e882",
    "school_data_source": null
  },
  {
    "school_name": "Makerdit Primary School [MKJ]",
    "longitude": 28.69426155090332,
    "latitude": 7.280298709869385,
    "education_level": "Primary",
    "country_iso3_code": "SSD",
    "giga_id_school": "b9ccab65-5d6b-3634-bdac-edb2ab52a92b",
    "school_data_source": null
  },
  {
    "school_name": "Konybaai Primary School",
    "longitude": 28.693347930908203,
    "latitude": 7.279384136199951,
    "education_level": "Primary",
    "country_iso3_code": "SSD",
    "giga_id_school": "91a3f272-6538-3249-89c5-e2933e44d02a",
    "school_data_source": null
  },
  {
    "school_name": "Panda Primary School [PNS]",
    "longitude": 29.655635833740234,
    "latitude": 6.804133892059326,
    "education_level": "Primary",
    "country_iso3_code": "SSD",
    "giga_id_school": "fa32b764-5ea9-3520-8258-a5b63d4c6253",
    "school_data_source": null
  },
  {
    "school_name": "Rumbek Girls Primary School [RRL]",
    "longitude": 29.680667877197266,
    "latitude": 6.79769229888916,
    "education_level": "Primary",
    "country_iso3_code": "SSD",
    "giga_id_school": "aa76730b-ce9c-35f7-b53f-161c35fc827f",
    "school_data_source": null
  },
  {
    "school_name": "Sun-Rise Primary school",
    "longitude": 29.680240631103516,
    "latitude": 6.7979607582092285,
    "education_level": "Primary",
    "country_iso3_code": "SSD",
    "giga_id_school": "62d2a40b-16d4-342c-a22e-12912caced19",
    "school_data_source": null
  },
  {
    "school_name": "Zogolona Primary School [ZLO]",
    "longitude": 27.987720489501953,
    "latitude": 7.753189563751221,
    "education_level": "Primary",
    "country_iso3_code": "SSD",
    "giga_id_school": "ae682e04-dae5-3662-b5d0-1499faf6983d",
    "school_data_source": null
  },
  {
    "school_name": "Zogolona Evening School",
    "longitude": 27.987714767456055,
    "latitude": 7.753177642822266,
    "education_level": "Primary",
    "country_iso3_code": "SSD",
    "giga_id_school": "72a8fc37-e5e5-38c3-9f8d-7d47fbfd6594",
    "school_data_source": null
  },
  {
    "school_name": "Zogolona pre- primary",
    "longitude": 27.987770080566406,
    "latitude": 7.753230571746826,
    "education_level": "Pre-Primary",
    "country_iso3_code": "SSD",
    "giga_id_school": "dd98812a-bd27-31b4-85a2-b5e4cd000d32",
    "school_data_source": null
  },
  {
    "school_name": "Liberty Basic Primary School [LTY]",
    "longitude": 27.985496520996094,
    "latitude": 7.734803199768066,
    "education_level": "Primary",
    "country_iso3_code": "SSD",
    "giga_id_school": "3d940ea7-70d5-3b99-ae77-dbca51107ce5",
    "school_data_source": null
  },
  {
    "school_name": "Liberty pre - primary",
    "longitude": 27.98549461364746,
    "latitude": 7.734780311584473,
    "education_level": "Pre-Primary",
    "country_iso3_code": "SSD",
    "giga_id_school": "2a22f433-c966-3da1-b57c-a4a7339d484d",
    "school_data_source": null
  },
  {
    "school_name": "Liberty ALP",
    "longitude": 27.98549461364746,
    "latitude": 7.734792232513428,
    "education_level": "Other",
    "country_iso3_code": "SSD",
    "giga_id_school": "0c79f59b-c8d0-357e-bf65-75934421d632",
    "school_data_source": null
  },
  {
    "school_name": "Dr. John Garang Girls primary School",
    "longitude": 27.988462448120117,
    "latitude": 7.727536201477051,
    "education_level": "Primary",
    "country_iso3_code": "SSD",
    "giga_id_school": "b8dfadde-3241-3d4a-a7c4-b7288d9270f9",
    "school_data_source": null
  },
  {
    "school_name": "Dr. John Garang Kindergarten",
    "longitude": 27.98845672607422,
    "latitude": 7.727577209472656,
    "education_level": "Pre-Primary",
    "country_iso3_code": "SSD",
    "giga_id_school": "10e4aa94-7450-334e-961b-4e57b55690e5",
    "school_data_source": null
  },
  {
    "school_name": "Dr. John Garang AlP",
    "longitude": 27.98874282836914,
    "latitude": 7.72757625579834,
    "education_level": "Other",
    "country_iso3_code": "SSD",
    "giga_id_school": "61088fc8-141f-3f24-b95e-5b0f0cef9211",
    "school_data_source": null
  },
  {
    "school_name": "Tonj Girls Primary School [TJT]",
    "longitude": 28.68550682067871,
    "latitude": 7.2777018547058105,
    "education_level": "Primary",
    "country_iso3_code": "SSD",
    "giga_id_school": "11b9ca75-7893-305c-8fc4-703276ac4555",
    "school_data_source": null
  },
  {
    "school_name": "St. Mary Academy Secondary School",
    "longitude": 28.68455696105957,
    "latitude": 7.27621603012085,
    "education_level": "Secondary",
    "country_iso3_code": "SSD",
    "giga_id_school": "1c2cfbb2-75cd-395d-827a-5211589cd702",
    "school_data_source": null
  },
  {
    "school_name": "Bongo Primary School [BBN]",
    "longitude": 28.677799224853516,
    "latitude": 7.27590274810791,
    "education_level": "Primary",
    "country_iso3_code": "SSD",
    "giga_id_school": "96e9df4f-26ab-33f9-8f63-d8f43c2f509b",
    "school_data_source": null
  },
  {
    "school_name": "Bongo AES",
    "longitude": 28.67795753479004,
    "latitude": 7.27615213394165,
    "education_level": "Other",
    "country_iso3_code": "SSD",
    "giga_id_school": "e1ec0dd8-282b-31e4-a2d5-bc864ae994e4",
    "school_data_source": null
  },
  {
    "school_name": "Tayau Primary School [TYA]",
    "longitude": 29.678707122802734,
    "latitude": 6.788130283355713,
    "education_level": "Primary",
    "country_iso3_code": "SSD",
    "giga_id_school": "cd8eb2b1-2015-32e7-b10e-69faf621782f",
    "school_data_source": null
  },
  {
    "school_name": "Rumbek Complex Primary [CMP]",
    "longitude": 29.695711135864258,
    "latitude": 6.790663242340088,
    "education_level": "Primary",
    "country_iso3_code": "SSD",
    "giga_id_school": "cc5131ef-bbe2-30ca-b38d-c5044fca0267",
    "school_data_source": null
  },
  {
    "school_name": "St.Gonzaga Primary school",
    "longitude": 29.689207077026367,
    "latitude": 6.803442478179932,
    "education_level": "Primary",
    "country_iso3_code": "SSD",
    "giga_id_school": "23e89d1b-1f89-3cd7-ae27-099b2ef4d2d6",
    "school_data_source": null
  },
  {
    "school_name": "Deng Ading Primary School [DEG]",
    "longitude": 28.682645797729492,
    "latitude": 7.276869297027588,
    "education_level": "Primary",
    "country_iso3_code": "SSD",
    "giga_id_school": "64bb45f4-407d-3fca-b429-d015bd71fdd8",
    "school_data_source": null
  },
  {
    "school_name": "Rainbow Community Primary School",
    "longitude": 28.679012298583984,
    "latitude": 7.280577182769775,
    "education_level": "Primary",
    "country_iso3_code": "SSD",
    "giga_id_school": "9e0cdee7-4680-3e58-ba88-471346e7a960",
    "school_data_source": null
  },
  {
    "school_name": "Pan Africa Progressive Academy School",
    "longitude": 28.678936004638672,
    "latitude": 7.280702114105225,
    "education_level": "Secondary",
    "country_iso3_code": "SSD",
    "giga_id_school": "56f6afbf-df49-30c8-b0fc-075b03f6a199",
    "school_data_source": null
  },
  {
    "school_name": "Rodo Primary School [RDC]",
    "longitude": 31.525421142578125,
    "latitude": 4.044954299926758,
    "education_level": "Primary",
    "country_iso3_code": "SSD",
    "giga_id_school": "619002a8-b216-3312-868d-1ef37904d540",
    "school_data_source": null
  },
  {
    "school_name": "Lori Primary School [LRR]",
    "longitude": 31.506454467773438,
    "latitude": 4.006870269775391,
    "education_level": "Primary",
    "country_iso3_code": "SSD",
    "giga_id_school": "b9d5d712-7f0b-3698-bb8a-21be135709e6",
    "school_data_source": null
  },
  {
    "school_name": "Rego primary [RGB]",
    "longitude": 31.53630256652832,
    "latitude": 4.010996341705322,
    "education_level": "Primary",
    "country_iso3_code": "SSD",
    "giga_id_school": "59afe72e-d465-3493-9456-5b0890d367ae",
    "school_data_source": null
  },
  {
    "school_name": "Future Generation Primary school",
    "longitude": 29.679489135742188,
    "latitude": 6.808763027191162,
    "education_level": "Primary",
    "country_iso3_code": "SSD",
    "giga_id_school": "fd635e00-9103-393a-9cae-726d831a8406",
    "school_data_source": null
  },
  {
    "school_name": "Future Generation Pre-school",
    "longitude": 29.679643630981445,
    "latitude": 6.808749198913574,
    "education_level": "Pre-Primary",
    "country_iso3_code": "SSD",
    "giga_id_school": "73621020-ba60-3041-8363-3ed33eef2ef2",
    "school_data_source": null
  },
  {
    "school_name": "Gol-Meen Primary school",
    "longitude": 29.68391990661621,
    "latitude": 6.807853698730469,
    "education_level": "Primary",
    "country_iso3_code": "SSD",
    "giga_id_school": "04375d04-3cf9-3c9b-aa6f-3e87ec46a454",
    "school_data_source": null
  },
  {
    "school_name": "OUR LADY OF FATIMA PRE-SCHOOL [URD]",
    "longitude": 29.469114303588867,
    "latitude": 4.913000583648682,
    "education_level": "Pre-Primary",
    "country_iso3_code": "SSD",
    "giga_id_school": "97086921-cc65-36c2-bc43-997433eb40ae",
    "school_data_source": null
  },
  {
    "school_name": "Our Lady of Fatina Primary School [RDY]",
    "longitude": 29.47101593017578,
    "latitude": 4.913002014160156,
    "education_level": "Primary",
    "country_iso3_code": "SSD",
    "giga_id_school": "4ecf61b1-5144-3ede-aeaf-6eb97db3bc0a",
    "school_data_source": null
  },
  {
    "school_name": "Unity Primary School [NTD]",
    "longitude": 29.469850540161133,
    "latitude": 4.915473461151123,
    "education_level": "Primary",
    "country_iso3_code": "SSD",
    "giga_id_school": "1b2c15a2-6abe-3c6b-abdf-d6e9e516d94d",
    "school_data_source": null
  },
  {
    "school_name": "Bright Future  Nusrery",
    "longitude": 29.473291397094727,
    "latitude": 4.914763450622559,
    "education_level": "Pre-Primary",
    "country_iso3_code": "SSD",
    "giga_id_school": "942732b3-7382-363d-9464-1450c06ab765",
    "school_data_source": null
  },
  {
    "school_name": "Adventist Model Primary  school",
    "longitude": 29.47258949279785,
    "latitude": 4.916505336761475,
    "education_level": "Primary",
    "country_iso3_code": "SSD",
    "giga_id_school": "bb54cbb8-0aaf-3b0e-89b7-03d23c76844a",
    "school_data_source": null
  },
  {
    "school_name": "Adventist Model Nusrery  School",
    "longitude": 29.47271156311035,
    "latitude": 4.916639804840088,
    "education_level": "Pre-Primary",
    "country_iso3_code": "SSD",
    "giga_id_school": "97dc8f66-8ac5-31a8-84aa-eee9388573a5",
    "school_data_source": null
  },
  {
    "school_name": "Maridi Girls Boarding Secondary School [OAR]",
    "longitude": 29.460853576660156,
    "latitude": 4.927383899688721,
    "education_level": "Secondary",
    "country_iso3_code": "SSD",
    "giga_id_school": "59efd800-5b4f-38a4-a697-a9e194bcf972",
    "school_data_source": null
  },
  {
    "school_name": "Haddow Secondary School [HDB]",
    "longitude": 29.444005966186523,
    "latitude": 4.910835266113281,
    "education_level": "Secondary",
    "country_iso3_code": "SSD",
    "giga_id_school": "42461b13-aa15-332c-8f25-2a76b47c1438",
    "school_data_source": null
  },
  {
    "school_name": "HADDOW NUSRERY SCHOOL",
    "longitude": 29.453800201416016,
    "latitude": 4.911900997161865,
    "education_level": "Pre-Primary",
    "country_iso3_code": "SSD",
    "giga_id_school": "1104710a-ce6a-337e-a830-584c62672312",
    "school_data_source": null
  },
  {
    "school_name": "Haddow Primary School [HDD]",
    "longitude": 29.45283317565918,
    "latitude": 4.911694526672363,
    "education_level": "Primary",
    "country_iso3_code": "SSD",
    "giga_id_school": "9abef114-6e1f-345e-9fa4-fddb62f755fd",
    "school_data_source": null
  },
  {
    "school_name": "Town  Nausery school",
    "longitude": 29.470304489135742,
    "latitude": 4.915801525115967,
    "education_level": "Pre-Primary",
    "country_iso3_code": "SSD",
    "giga_id_school": "bcc54488-c587-36da-bd16-7bf0cfe3cf65",
    "school_data_source": null
  },
  {
    "school_name": "Gaderu Primary School [GDE]",
    "longitude": 31.497835159301758,
    "latitude": 3.938044548034668,
    "education_level": "Primary",
    "country_iso3_code": "SSD",
    "giga_id_school": "ae1a2869-6397-3970-b216-33d805b43aed",
    "school_data_source": null
  },
  {
    "school_name": "Lopura primary [LPR]",
    "longitude": 31.53645896911621,
    "latitude": 3.9635071754455566,
    "education_level": "Primary",
    "country_iso3_code": "SSD",
    "giga_id_school": "a2b1a9bf-b699-311e-809b-6a7cae53d168",
    "school_data_source": null
  },
  {
    "school_name": "Kansuk Primary School [KNS]",
    "longitude": 31.55406951904297,
    "latitude": 3.986262798309326,
    "education_level": "Primary",
    "country_iso3_code": "SSD",
    "giga_id_school": "487378ec-85ae-3b3a-b1cd-3df4782ccebe",
    "school_data_source": null
  },
  {
    "school_name": "Kabi Secondary School [KBD]",
    "longitude": 31.562593460083008,
    "latitude": 3.9720985889434814,
    "education_level": "Secondary",
    "country_iso3_code": "SSD",
    "giga_id_school": "f9463625-3747-33d6-b939-75640e3d5112",
    "school_data_source": null
  },
  {
    "school_name": "Kapoeta Mixed Primary School [KPB]",
    "longitude": 33.586944580078125,
    "latitude": 4.776835918426514,
    "education_level": "Primary",
    "country_iso3_code": "SSD",
    "giga_id_school": "ebfec1bd-d952-3ed2-b000-589a65f7d9f0",
    "school_data_source": null
  },
  {
    "school_name": "Kapoeta Day Secondary School [KED]",
    "longitude": 33.585716247558594,
    "latitude": 4.779307842254639,
    "education_level": "Secondary",
    "country_iso3_code": "SSD",
    "giga_id_school": "ac02a307-0f08-32cc-acc0-a217b8d7f72b",
    "school_data_source": null
  },
  {
    "school_name": "Bishop Mazoldi Primary School [BMA]",
    "longitude": 33.59421157836914,
    "latitude": 4.772594928741455,
    "education_level": "Primary",
    "country_iso3_code": "SSD",
    "giga_id_school": "7324602a-79a7-3f50-97ee-bb3b822d2304",
    "school_data_source": null
  },
  {
    "school_name": "Kueu Lights Academy Primary [KUC]",
    "longitude": 33.59333038330078,
    "latitude": 4.759980201721191,
    "education_level": "Primary",
    "country_iso3_code": "SSD",
    "giga_id_school": "226f8dc5-ae0a-3536-b475-fc7580ec1328",
    "school_data_source": null
  },
  {
    "school_name": "Singaita Basic Primary School [SNB]",
    "longitude": 33.592254638671875,
    "latitude": 4.763228893280029,
    "education_level": "Primary",
    "country_iso3_code": "SSD",
    "giga_id_school": "6b137da9-cca9-3fc4-a96d-5559f28d5337",
    "school_data_source": null
  },
  {
    "school_name": "Kotome Primary School [BYS]",
    "longitude": 33.599456787109375,
    "latitude": 4.764100074768066,
    "education_level": "Primary",
    "country_iso3_code": "SSD",
    "giga_id_school": "a06eb768-871e-31d2-a26e-506bfbc75db3",
    "school_data_source": null
  },
  {
    "school_name": "Anyieny-Agaldit [NYN]",
    "longitude": 27.966276168823242,
    "latitude": 8.780271530151367,
    "education_level": "Primary",
    "country_iso3_code": "SSD",
    "giga_id_school": "5384ae1f-27b8-3538-bba1-905c1b98a749",
    "school_data_source": null
  },
  {
    "school_name": "Makuac Aluth",
    "longitude": 27.978504180908203,
    "latitude": 8.7550048828125,
    "education_level": "Primary",
    "country_iso3_code": "SSD",
    "giga_id_school": "4dac9711-cfdd-3011-9fb3-a897565f1ab4",
    "school_data_source": null
  },
  {
    "school_name": "Malek Agal Primary school [PZG]",
    "longitude": 27.992509841918945,
    "latitude": 8.834933280944824,
    "education_level": "Primary",
    "country_iso3_code": "SSD",
    "giga_id_school": "c86f9c1a-ac0b-3264-a84d-ffd69e5135db",
    "school_data_source": null
  },
  {
    "school_name": "Thurou primary school",
    "longitude": 28.007850646972656,
    "latitude": 8.826700210571289,
    "education_level": "Primary",
    "country_iso3_code": "SSD",
    "giga_id_school": "277596f2-9aea-3908-b0c4-8d49e8f1dcea",
    "school_data_source": null
  },
  {
    "school_name": "Mathiangdit Primary School [MTQ]",
    "longitude": 27.970426559448242,
    "latitude": 8.860555648803711,
    "education_level": "Primary",
    "country_iso3_code": "SSD",
    "giga_id_school": "72e46516-3c62-3239-81fb-7b522adfa4c2",
    "school_data_source": null
  },
  {
    "school_name": "Adet [DTB]",
    "longitude": 27.933792114257812,
    "latitude": 7.776808261871338,
    "education_level": "Primary",
    "country_iso3_code": "SSD",
    "giga_id_school": "d2d96814-8fac-3e22-8033-47ae4512f992",
    "school_data_source": null
  },
  {
    "school_name": "Agok primary School [AGD]",
    "longitude": 27.865602493286133,
    "latitude": 7.784763813018799,
    "education_level": "Primary",
    "country_iso3_code": "SSD",
    "giga_id_school": "890831b9-0e14-367d-9c58-bf2cca22a9df",
    "school_data_source": null
  },
  {
    "school_name": "Atal Primary School [TLP]",
    "longitude": 27.83318328857422,
    "latitude": 7.867574214935303,
    "education_level": "Primary",
    "country_iso3_code": "SSD",
    "giga_id_school": "46fa040b-f04a-349b-baba-9811708f7d11",
    "school_data_source": null
  },
  {
    "school_name": "Apiam Basic [AAS]",
    "longitude": 27.765146255493164,
    "latitude": 7.950530052185059,
    "education_level": "Primary",
    "country_iso3_code": "SSD",
    "giga_id_school": "fd5e3d45-372a-3902-9be7-de5ac24b9052",
    "school_data_source": null
  },
  {
    "school_name": "Kayango primary [KTN]",
    "longitude": 27.672401428222656,
    "latitude": 7.953361988067627,
    "education_level": "Primary",
    "country_iso3_code": "SSD",
    "giga_id_school": "475aba33-bb1f-3e0c-a142-91dc860d45c1",
    "school_data_source": null
  },
  {
    "school_name": "Kayango ALP [KOZ]",
    "longitude": 27.672510147094727,
    "latitude": 7.953378677368164,
    "education_level": "Other",
    "country_iso3_code": "SSD",
    "giga_id_school": "06685b27-8204-3908-99f4-009d2c9d35c9",
    "school_data_source": null
  },
  {
    "school_name": "Akulo Primary [KLB]",
    "longitude": 27.716060638427734,
    "latitude": 7.918663024902344,
    "education_level": "Primary",
    "country_iso3_code": "SSD",
    "giga_id_school": "233fc0a7-ec8e-3732-9eff-1f5b0ab9fe00",
    "school_data_source": null
  },
  {
    "school_name": "Alutho Community Primary School [UTH]",
    "longitude": 27.887725830078125,
    "latitude": 7.892111778259277,
    "education_level": "Primary",
    "country_iso3_code": "SSD",
    "giga_id_school": "1bd78744-c8d8-3dc8-b0d0-58f513ecd4b6",
    "school_data_source": null
  },
  {
    "school_name": "Bar-Urud Primary School [BRY]",
    "longitude": 27.510969161987305,
    "latitude": 7.960693359375,
    "education_level": "Primary",
    "country_iso3_code": "SSD",
    "giga_id_school": "6e46ffd1-2594-3e72-b0fc-2992039bffe0",
    "school_data_source": null
  },
  {
    "school_name": "Mabaga Primary School [PZZ]",
    "longitude": 27.485515594482422,
    "latitude": 7.9363298416137695,
    "education_level": "Primary",
    "country_iso3_code": "SSD",
    "giga_id_school": "25c84cf9-01d6-33fd-871f-24c3d9df15dd",
    "school_data_source": null
  },
  {
    "school_name": "Ugilia",
    "longitude": 27.565143585205078,
    "latitude": 7.95967435836792,
    "education_level": "Primary",
    "country_iso3_code": "SSD",
    "giga_id_school": "2a360009-689b-3656-8bc5-dcf7ba3b231f",
    "school_data_source": null
  },
  {
    "school_name": "Gette Basic School [GTT]",
    "longitude": 27.845970153808594,
    "latitude": 7.9477858543396,
    "education_level": "Primary",
    "country_iso3_code": "SSD",
    "giga_id_school": "9f40cff2-0cac-35d5-858a-89364e070d2c",
    "school_data_source": null
  },
  {
    "school_name": "Udici Secondary School [USS]",
    "longitude": 27.7242431640625,
    "latitude": 8.071891784667969,
    "education_level": "Secondary",
    "country_iso3_code": "SSD",
    "giga_id_school": "f1b65290-8a00-3620-af62-8f856225eada",
    "school_data_source": null
  },
  {
    "school_name": "Udici A S E P",
    "longitude": 27.717269897460938,
    "latitude": 8.079919815063477,
    "education_level": "Other",
    "country_iso3_code": "SSD",
    "giga_id_school": "eef755ee-0746-398c-bba5-6e4ee34216f8",
    "school_data_source": null
  },
  {
    "school_name": "Aguaa Primary School [AGV]",
    "longitude": 27.681541442871094,
    "latitude": 8.09465217590332,
    "education_level": "Primary",
    "country_iso3_code": "SSD",
    "giga_id_school": "4e968537-af62-3399-bcfd-a8b8b8a1ff0e",
    "school_data_source": null
  },
  {
    "school_name": "Baryar A",
    "longitude": 27.9652042388916,
    "latitude": 7.754165172576904,
    "education_level": "Primary",
    "country_iso3_code": "SSD",
    "giga_id_school": "6fb596b0-58f8-3813-8fc5-eb261359ebf3",
    "school_data_source": null
  },
  {
    "school_name": "Abou Primary School [AOU]",
    "longitude": 27.801572799682617,
    "latitude": 7.995774269104004,
    "education_level": "Primary",
    "country_iso3_code": "SSD",
    "giga_id_school": "c960b2d7-163b-37ff-8998-580075546882",
    "school_data_source": null
  },
  {
    "school_name": "Udici ALP Centre School [UDC]",
    "longitude": 27.723552703857422,
    "latitude": 8.072098731994629,
    "education_level": "Other",
    "country_iso3_code": "SSD",
    "giga_id_school": "982eb9a1-b7a0-3e74-9a20-4b6554faafa8",
    "school_data_source": null
  },
  {
    "school_name": "Atido Basic School [ATA]",
    "longitude": 27.90195083618164,
    "latitude": 7.857384204864502,
    "education_level": "Primary",
    "country_iso3_code": "SSD",
    "giga_id_school": "1650d957-33e7-3d28-bbac-843e95fab589",
    "school_data_source": null
  },
  {
    "school_name": "Uthol School [USC]",
    "longitude": 27.865123748779297,
    "latitude": 7.986381530761719,
    "education_level": "Primary",
    "country_iso3_code": "SSD",
    "giga_id_school": "7626c4fb-36b4-37cb-b90b-d8c6d0bc1c40",
    "school_data_source": null
  },
  {
    "school_name": "Malek Primary School [PFN]",
    "longitude": 27.717212677001953,
    "latitude": 8.079880714416504,
    "education_level": "Primary",
    "country_iso3_code": "SSD",
    "giga_id_school": "e83e8646-de50-3217-9f3d-6296e9a6ead6",
    "school_data_source": null
  },
  {
    "school_name": "Rumbek 1 ECS Primary School [REK]",
    "longitude": 29.693756103515625,
    "latitude": 6.816859722137451,
    "education_level": "Primary",
    "country_iso3_code": "SSD",
    "giga_id_school": "d0f8e1dd-3037-37e9-8f66-b6d1dfb79e75",
    "school_data_source": null
  },
  {
    "school_name": "St.Gonzaga Nursery school",
    "longitude": 29.68506622314453,
    "latitude": 6.8014373779296875,
    "education_level": "Pre-Primary",
    "country_iso3_code": "SSD",
    "giga_id_school": "90f15e0f-f07f-3b5b-880c-53fd9862ec1a",
    "school_data_source": null
  },
  {
    "school_name": "Bishop  Deng Primary school",
    "longitude": 29.669034957885742,
    "latitude": 6.794952392578125,
    "education_level": "Primary",
    "country_iso3_code": "SSD",
    "giga_id_school": "e072d286-8d30-3b19-9ae2-f06ece549720",
    "school_data_source": null
  },
  {
    "school_name": "Kediba Nursery school",
    "longitude": 30.71773910522461,
    "latitude": 5.515049934387207,
    "education_level": "Pre-Primary",
    "country_iso3_code": "SSD",
    "giga_id_school": "e9f3a21e-0944-313f-b3cb-f54b21c9b894",
    "school_data_source": null
  },
  {
    "school_name": "Kediba Primary School [KDC]",
    "longitude": 30.71683120727539,
    "latitude": 5.5151214599609375,
    "education_level": "Primary",
    "country_iso3_code": "SSD",
    "giga_id_school": "c4a863b7-9cd7-3ebc-a56c-3da05156fe8d",
    "school_data_source": null
  },
  {
    "school_name": "Kediba Secondary School [DBA]",
    "longitude": 30.717071533203125,
    "latitude": 5.514906406402588,
    "education_level": "Secondary",
    "country_iso3_code": "SSD",
    "giga_id_school": "69f58bfa-16fc-3d44-bf58-6d46e59d5a9e",
    "school_data_source": null
  },
  {
    "school_name": "Magyiri U. P. School [MGY]",
    "longitude": 30.85793685913086,
    "latitude": 5.530588626861572,
    "education_level": "Primary",
    "country_iso3_code": "SSD",
    "giga_id_school": "ac9faf5c-030f-3047-be67-817b9c51e596",
    "school_data_source": null
  },
  {
    "school_name": "BEKENYE Primary School [BKE]",
    "longitude": 30.781681060791016,
    "latitude": 5.531077861785889,
    "education_level": "Primary",
    "country_iso3_code": "SSD",
    "giga_id_school": "b3156422-108a-35f7-9a4a-3221f9a88528",
    "school_data_source": null
  },
  {
    "school_name": "Larogora Community Primary School [LOM]",
    "longitude": 30.813405990600586,
    "latitude": 5.57322883605957,
    "education_level": "Primary",
    "country_iso3_code": "SSD",
    "giga_id_school": "a18abe01-1635-36da-8be9-3d765aef1d32",
    "school_data_source": null
  },
  {
    "school_name": "Labiko community School [LCO]",
    "longitude": 30.759246826171875,
    "latitude": 5.502723217010498,
    "education_level": "Primary",
    "country_iso3_code": "SSD",
    "giga_id_school": "e51a3ad2-a35e-36fc-b2b9-12c1e0fadb75",
    "school_data_source": null
  },
  {
    "school_name": "Abuth primary school",
    "longitude": 27.848987579345703,
    "latitude": 8.951581954956055,
    "education_level": "Primary",
    "country_iso3_code": "SSD",
    "giga_id_school": "65506c2d-bb48-3370-bbc0-aad0d5d05845",
    "school_data_source": null
  },
  {
    "school_name": "Awich primary school",
    "longitude": 27.835155487060547,
    "latitude": 8.940056800842285,
    "education_level": "Primary",
    "country_iso3_code": "SSD",
    "giga_id_school": "1a65c7a6-d4eb-3503-92b9-8b10d75373fd",
    "school_data_source": null
  },
  {
    "school_name": "Ayuk primary school",
    "longitude": 27.824687957763672,
    "latitude": 8.913116455078125,
    "education_level": "Primary",
    "country_iso3_code": "SSD",
    "giga_id_school": "54e0d68d-307b-3cfe-a0d3-0d463664620f",
    "school_data_source": null
  },
  {
    "school_name": "Gaar community primary school",
    "longitude": 27.844005584716797,
    "latitude": 8.891214370727539,
    "education_level": "Primary",
    "country_iso3_code": "SSD",
    "giga_id_school": "d7412c26-7ab1-3d90-b448-3d80e013c0d0",
    "school_data_source": null
  },
  {
    "school_name": "Aleek community primary school",
    "longitude": 27.894563674926758,
    "latitude": 8.910237312316895,
    "education_level": "Primary",
    "country_iso3_code": "SSD",
    "giga_id_school": "e4a1c32e-4fe5-3639-822b-399ab1869475",
    "school_data_source": null
  },
  {
    "school_name": "Nakware Basic School [NKW]",
    "longitude": 33.50285720825195,
    "latitude": 4.771941184997559,
    "education_level": "Primary",
    "country_iso3_code": "SSD",
    "giga_id_school": "4f0b54cf-eb23-3b4c-93ef-1b8549ddb6b3",
    "school_data_source": null
  },
  {
    "school_name": "Grinti Boys Primary School [GOY]",
    "longitude": 27.991090774536133,
    "latitude": 7.729117393493652,
    "education_level": "Primary",
    "country_iso3_code": "SSD",
    "giga_id_school": "3d22d26e-c600-3e7a-83be-6dd3c21c278d",
    "school_data_source": null
  },
  {
    "school_name": "Grinti Pre- primary School",
    "longitude": 27.991186141967773,
    "latitude": 7.729118824005127,
    "education_level": "Pre-Primary",
    "country_iso3_code": "SSD",
    "giga_id_school": "1a68098d-d1b2-3f1d-b6d2-00ad57fb41e4",
    "school_data_source": null
  },
  {
    "school_name": "Standard primary School [SPH]",
    "longitude": 27.99135398864746,
    "latitude": 7.720193862915039,
    "education_level": "Primary",
    "country_iso3_code": "SSD",
    "giga_id_school": "f37c1302-bbcf-3fad-add3-f50b18192b66",
    "school_data_source": null
  },
  {
    "school_name": "Standard Secondary School",
    "longitude": 27.993350982666016,
    "latitude": 7.712808609008789,
    "education_level": "Secondary",
    "country_iso3_code": "SSD",
    "giga_id_school": "12898a4d-a13a-31c6-811c-28c14b4b615c",
    "school_data_source": null
  },
  {
    "school_name": "Grinti (ALP) Evening",
    "longitude": 27.99127960205078,
    "latitude": 7.729052543640137,
    "education_level": "Other",
    "country_iso3_code": "SSD",
    "giga_id_school": "0b76f1f0-a378-3b55-9612-a8a89adba8cd",
    "school_data_source": null
  },
  {
    "school_name": "GREEN MOUNTAIN PRIMARY SCHOOL [GMV]",
    "longitude": 27.995677947998047,
    "latitude": 7.723015785217285,
    "education_level": "Pre-Primary",
    "country_iso3_code": "SSD",
    "giga_id_school": "50c1176c-c05d-37fc-96d1-b6dfe64632fa",
    "school_data_source": null
  },
  {
    "school_name": "Green Mountain Primary School [REM]",
    "longitude": 27.99571418762207,
    "latitude": 7.722962856292725,
    "education_level": "Primary",
    "country_iso3_code": "SSD",
    "giga_id_school": "c7e37d6f-2f74-3df8-bf39-df2945597f9d",
    "school_data_source": null
  },
  {
    "school_name": "GENIANA GIRLS PRE-SCHOOL [GFL]",
    "longitude": 27.998384475708008,
    "latitude": 7.708326816558838,
    "education_level": "Pre-Primary",
    "country_iso3_code": "SSD",
    "giga_id_school": "22c8c08a-edeb-3123-9e6c-341e11b20ef6",
    "school_data_source": null
  },
  {
    "school_name": "Ganian IDPs Primary [GIP]",
    "longitude": 27.997989654541016,
    "latitude": 7.70836877822876,
    "education_level": "Primary",
    "country_iso3_code": "SSD",
    "giga_id_school": "f47243b5-d228-3a8a-85ed-ed1545be347a",
    "school_data_source": null
  },
  {
    "school_name": "Ganien Girls Primary School",
    "longitude": 27.99812126159668,
    "latitude": 7.708423614501953,
    "education_level": "Primary",
    "country_iso3_code": "SSD",
    "giga_id_school": "fa9e4beb-cf95-3953-b664-053d25d49ecb",
    "school_data_source": null
  },
  {
    "school_name": "Dierakok pre - primary school",
    "longitude": 28.00057029724121,
    "latitude": 7.7166266441345215,
    "education_level": "Pre-Primary",
    "country_iso3_code": "SSD",
    "giga_id_school": "3e2d36c3-b47a-3c1d-a9e0-fbf67154e7d2",
    "school_data_source": null
  },
  {
    "school_name": "Dierakok Primary School",
    "longitude": 28.000473022460938,
    "latitude": 7.716618537902832,
    "education_level": "Primary",
    "country_iso3_code": "SSD",
    "giga_id_school": "fc880d83-c2da-3a9a-b922-a4e47c8d03cf",
    "school_data_source": null
  },
  {
    "school_name": "St. Raphael Basic School [ZOD]",
    "longitude": 27.99629783630371,
    "latitude": 7.721499919891357,
    "education_level": "Primary",
    "country_iso3_code": "SSD",
    "giga_id_school": "10822da6-fa1f-3e72-87a5-ae957bb82502",
    "school_data_source": null
  },
  {
    "school_name": "ST PUAL NURSERY SCHOOL [SYU]",
    "longitude": 28.001667022705078,
    "latitude": 7.711087703704834,
    "education_level": "Pre-Primary",
    "country_iso3_code": "SSD",
    "giga_id_school": "476af250-3e43-34d9-8050-7db6884418a4",
    "school_data_source": null
  },
  {
    "school_name": "St. Paul Rhoda and primary School",
    "longitude": 28.00170135498047,
    "latitude": 7.711113452911377,
    "education_level": "Primary",
    "country_iso3_code": "SSD",
    "giga_id_school": "1190bc72-79c8-38fc-aafb-5c5e7b65ae94",
    "school_data_source": null
  },
  {
    "school_name": "Hope For Sudan Primary School [HOP]",
    "longitude": 33.57830810546875,
    "latitude": 4.767938613891602,
    "education_level": "Primary",
    "country_iso3_code": "SSD",
    "giga_id_school": "5a28e403-c79e-31b3-b049-b763d5895ac4",
    "school_data_source": null
  },
  {
    "school_name": "Nachukut Basic School [NAS]",
    "longitude": 33.616737365722656,
    "latitude": 4.829324722290039,
    "education_level": "Primary",
    "country_iso3_code": "SSD",
    "giga_id_school": "bf5719f5-8966-3208-a527-656f5dd9925d",
    "school_data_source": null
  },
  {
    "school_name": "Nyang Girls Primary School",
    "longitude": 30.59627342224121,
    "latitude": 6.702232837677002,
    "education_level": "Primary",
    "country_iso3_code": "SSD",
    "giga_id_school": "593bec3c-2252-37bb-b453-22a9b482d865",
    "school_data_source": null
  },
  {
    "school_name": "Nyang Boys Primary School",
    "longitude": 30.597105026245117,
    "latitude": 6.703120708465576,
    "education_level": "Primary",
    "country_iso3_code": "SSD",
    "giga_id_school": "37e9f786-08c8-3b0f-b905-e2f71fbcaa55",
    "school_data_source": null
  },
  {
    "school_name": "Nyang Secondary School",
    "longitude": 30.634870529174805,
    "latitude": 6.7070112228393555,
    "education_level": "Secondary",
    "country_iso3_code": "SSD",
    "giga_id_school": "2e502c22-0bec-3f91-85a9-31a14fddcfcf",
    "school_data_source": null
  },
  {
    "school_name": "Adior Primary School [ADP]",
    "longitude": 30.702667236328125,
    "latitude": 6.8046770095825195,
    "education_level": "Primary",
    "country_iso3_code": "SSD",
    "giga_id_school": "dc3c3627-bd1a-3a8e-b92f-20d6209f3aea",
    "school_data_source": null
  },
  {
    "school_name": "Mayom-Luok Primary School [LYV]",
    "longitude": 30.701671600341797,
    "latitude": 6.693777561187744,
    "education_level": "Primary",
    "country_iso3_code": "SSD",
    "giga_id_school": "a1d04de5-9280-354f-9932-6a62b4befd97",
    "school_data_source": null
  },
  {
    "school_name": "Nhom-laau Primary School",
    "longitude": 30.609874725341797,
    "latitude": 6.7018656730651855,
    "education_level": "Primary",
    "country_iso3_code": "SSD",
    "giga_id_school": "fd536184-a082-382f-9442-e611e6b2ef5d",
    "school_data_source": null
  },
  {
    "school_name": "Achiek-Malek Primary School",
    "longitude": 30.634870529174805,
    "latitude": 6.706627368927002,
    "education_level": "Primary",
    "country_iso3_code": "SSD",
    "giga_id_school": "e4198af4-19d7-330c-8704-38a4d7518855",
    "school_data_source": null
  },
  {
    "school_name": "Juba Girls Secondary School [JGR]",
    "longitude": 31.60542869567871,
    "latitude": 4.851530075073242,
    "education_level": "Secondary",
    "country_iso3_code": "SSD",
    "giga_id_school": "1ade1360-d0ba-3979-a1b9-beee94dd03b3",
    "school_data_source": null
  },
  {
    "school_name": "Supiri Secondary School [SPC]",
    "longitude": 31.60421371459961,
    "latitude": 4.8492279052734375,
    "education_level": "Secondary",
    "country_iso3_code": "SSD",
    "giga_id_school": "669f3c4c-b246-31e2-b9fa-70810a8f8292",
    "school_data_source": null
  },
  {
    "school_name": "Juba Day Secondary School [JDS]",
    "longitude": 31.601682662963867,
    "latitude": 4.844545841217041,
    "education_level": "Secondary",
    "country_iso3_code": "SSD",
    "giga_id_school": "c2f72a8e-afa6-3302-930b-d45dcebecbd5",
    "school_data_source": null
  },
  {
    "school_name": "Usratuna Primary School [WLU]",
    "longitude": 31.604379653930664,
    "latitude": 4.846757411956787,
    "education_level": "Primary",
    "country_iso3_code": "SSD",
    "giga_id_school": "a7f379a9-c204-3a9c-ab14-c6973616f719",
    "school_data_source": null
  },
  {
    "school_name": "JCC Model Primary School [JDE]",
    "longitude": 31.58913230895996,
    "latitude": 4.847858905792236,
    "education_level": "Primary",
    "country_iso3_code": "SSD",
    "giga_id_school": "28ac38a3-cda9-3b21-b4e3-73d70b906944",
    "school_data_source": null
  },
  {
    "school_name": "Lahu-nhom Complex Secondary school",
    "longitude": 28.044479370117188,
    "latitude": 8.909793853759766,
    "education_level": "Secondary",
    "country_iso3_code": "SSD",
    "giga_id_school": "be4f7f3d-95fb-34c9-986b-65dcdbe1095c",
    "school_data_source": null
  },
  {
    "school_name": "Nyinlir Primary school",
    "longitude": 28.011219024658203,
    "latitude": 8.932589530944824,
    "education_level": "Primary",
    "country_iso3_code": "SSD",
    "giga_id_school": "25f54f97-869d-3c36-8165-ade0843cce4f",
    "school_data_source": null
  },
  {
    "school_name": "Sodogo Primary School [SDO]",
    "longitude": 31.611963272094727,
    "latitude": 3.715059280395508,
    "education_level": "Primary",
    "country_iso3_code": "SSD",
    "giga_id_school": "819dccee-f7ae-347a-b3ea-06b79672556f",
    "school_data_source": null
  },
  {
    "school_name": "Sera-Jale Primary School [SRA]",
    "longitude": 31.636802673339844,
    "latitude": 3.7368218898773193,
    "education_level": "Primary",
    "country_iso3_code": "SSD",
    "giga_id_school": "d4b253ea-1c8e-3f77-b172-5bef62134c64",
    "school_data_source": null
  },
  {
    "school_name": "Jalle Hill Primary School [JHL]",
    "longitude": 31.6573429107666,
    "latitude": 3.7275352478027344,
    "education_level": "Primary",
    "country_iso3_code": "SSD",
    "giga_id_school": "b660fb6d-f0cc-375b-a4b8-a1c5bda24c9a",
    "school_data_source": null
  },
  {
    "school_name": "Pamoju Primary School [PMD]",
    "longitude": 31.659652709960938,
    "latitude": 3.7747035026550293,
    "education_level": "Primary",
    "country_iso3_code": "SSD",
    "giga_id_school": "72f3430e-cabe-30c0-90be-fd34df2b3da2",
    "school_data_source": null
  },
  {
    "school_name": "kiri Primary School [KOD]",
    "longitude": 31.63874053955078,
    "latitude": 3.7745440006256104,
    "education_level": "Primary",
    "country_iso3_code": "SSD",
    "giga_id_school": "3421547a-eb92-3a0b-9b37-d69339fe14d4",
    "school_data_source": null
  },
  {
    "school_name": "Kiri Nursry School",
    "longitude": 31.638620376586914,
    "latitude": 3.7746012210845947,
    "education_level": "Pre-Primary",
    "country_iso3_code": "SSD",
    "giga_id_school": "60b1ccc6-63df-3b6c-9cf1-be9cf53754e8",
    "school_data_source": null
  },
  {
    "school_name": "Alusi Primary School [LUS]",
    "longitude": 31.628698348999023,
    "latitude": 3.7598071098327637,
    "education_level": "Primary",
    "country_iso3_code": "SSD",
    "giga_id_school": "1f0fa350-fefd-39cb-b8fa-f3ed53744624",
    "school_data_source": null
  },
  {
    "school_name": "Deggi Primary School [DGB]",
    "longitude": 31.619735717773438,
    "latitude": 3.7779769897460938,
    "education_level": "Primary",
    "country_iso3_code": "SSD",
    "giga_id_school": "4a4a8c82-19b2-32c5-87f0-92bf38c077ef",
    "school_data_source": null
  },
  {
    "school_name": "Pamoju Girls Secondary School [PAI]",
    "longitude": 31.658052444458008,
    "latitude": 3.7758114337921143,
    "education_level": "Secondary",
    "country_iso3_code": "SSD",
    "giga_id_school": "cd1614e4-e4df-3846-833c-d4a170203c4e",
    "school_data_source": null
  },
  {
    "school_name": "Litoba Primary School [LTO]",
    "longitude": 31.6839656829834,
    "latitude": 3.736071825027466,
    "education_level": "Primary",
    "country_iso3_code": "SSD",
    "giga_id_school": "df374884-812b-366c-bba0-137814b46b35",
    "school_data_source": null
  },
  {
    "school_name": "Akon Modern Secondary school",
    "longitude": 27.97734832763672,
    "latitude": 8.898646354675293,
    "education_level": "Secondary",
    "country_iso3_code": "SSD",
    "giga_id_school": "934732ff-263d-3d86-bcfa-6dc3881ee253",
    "school_data_source": null
  },
  {
    "school_name": "Akon Secondary school [KNB]",
    "longitude": 27.967363357543945,
    "latitude": 8.89696216583252,
    "education_level": "Secondary",
    "country_iso3_code": "SSD",
    "giga_id_school": "e3b608b8-3dbb-379f-b2a8-8a5b5325a8d6",
    "school_data_source": null
  },
  {
    "school_name": "Thurlith community primary school",
    "longitude": 27.946130752563477,
    "latitude": 8.896453857421875,
    "education_level": "Primary",
    "country_iso3_code": "SSD",
    "giga_id_school": "ce997b97-155a-3ac3-abee-6b4c4b9702df",
    "school_data_source": null
  },
  {
    "school_name": "Akon ALP",
    "longitude": 27.967756271362305,
    "latitude": 8.897208213806152,
    "education_level": "Primary",
    "country_iso3_code": "SSD",
    "giga_id_school": "7c83f262-635a-3da5-80f8-069d1d636a43",
    "school_data_source": null
  },
  {
    "school_name": "Thurlith secondary school",
    "longitude": 27.96744155883789,
    "latitude": 8.897319793701172,
    "education_level": "Secondary",
    "country_iso3_code": "SSD",
    "giga_id_school": "417274f0-3837-349a-9196-9d9ef2716b27",
    "school_data_source": null
  },
  {
    "school_name": "Bishop  Caeser Mazzolari Primary school",
    "longitude": 29.667612075805664,
    "latitude": 6.816146373748779,
    "education_level": "Primary",
    "country_iso3_code": "SSD",
    "giga_id_school": "4c2af8af-f54d-36f1-a19c-a1dd56e71571",
    "school_data_source": null
  },
  {
    "school_name": "Bishop Caesar Mazzolari Nursery school",
    "longitude": 29.667518615722656,
    "latitude": 6.816635608673096,
    "education_level": "Pre-Primary",
    "country_iso3_code": "SSD",
    "giga_id_school": "385cc4fd-bda1-3117-a547-aa6386f7c729",
    "school_data_source": null
  },
  {
    "school_name": "Deng Nhial Primary School [DEH]",
    "longitude": 29.67110252380371,
    "latitude": 6.828097343444824,
    "education_level": "Primary",
    "country_iso3_code": "SSD",
    "giga_id_school": "fb1818e3-e75a-3015-bef4-932b81bfcb7c",
    "school_data_source": null
  },
  {
    "school_name": "Alp primary School",
    "longitude": 29.674903869628906,
    "latitude": 6.822349548339844,
    "education_level": "Other",
    "country_iso3_code": "SSD",
    "giga_id_school": "9276372e-6b77-3e1f-a1df-aebe603d319a",
    "school_data_source": null
  },
  {
    "school_name": "Kondako ALP Center",
    "longitude": 33.12580108642578,
    "latitude": 6.796792507171631,
    "education_level": "Other",
    "country_iso3_code": "SSD",
    "giga_id_school": "66060f60-043c-3c83-aa89-faa4514f9cbe",
    "school_data_source": null
  },
  {
    "school_name": "Kondako Basic primary School",
    "longitude": 33.13270568847656,
    "latitude": 6.811846733093262,
    "education_level": "Primary",
    "country_iso3_code": "SSD",
    "giga_id_school": "e97a90b2-685c-3832-9423-444c4c66801f",
    "school_data_source": null
  },
  {
    "school_name": "Kondako Nursery School",
    "longitude": 33.13134002685547,
    "latitude": 6.812448501586914,
    "education_level": "Pre-Primary",
    "country_iso3_code": "SSD",
    "giga_id_school": "90171110-edc2-3a0e-9030-9a1fe3425ee8",
    "school_data_source": null
  },
  {
    "school_name": "Pibor ( 2) Girls Basic Evening School",
    "longitude": 33.12580108642578,
    "latitude": 6.796792507171631,
    "education_level": "Primary",
    "country_iso3_code": "SSD",
    "giga_id_school": "bb5fa5e4-7865-33e3-8ed6-7a7561ad2c46",
    "school_data_source": null
  },
  {
    "school_name": "Pibor ALP center",
    "longitude": 33.12580108642578,
    "latitude": 6.796792507171631,
    "education_level": "Other",
    "country_iso3_code": "SSD",
    "giga_id_school": "d0ec9199-420e-3197-894a-fd1b8151dbba",
    "school_data_source": null
  },
  {
    "school_name": "Pibor Boys Nursery School",
    "longitude": 33.12580108642578,
    "latitude": 6.796792507171631,
    "education_level": "Pre-Primary",
    "country_iso3_code": "SSD",
    "giga_id_school": "40136b80-d3f3-3c21-b3b0-6dd0dfce5be2",
    "school_data_source": null
  },
  {
    "school_name": "Pibor Boys Primary School",
    "longitude": 33.12574768066406,
    "latitude": 6.796904563903809,
    "education_level": "Primary",
    "country_iso3_code": "SSD",
    "giga_id_school": "0bea630a-c8f6-36b6-a90d-59c946ce6a49",
    "school_data_source": null
  },
  {
    "school_name": "Pibor Girls Pri School",
    "longitude": 33.12538146972656,
    "latitude": 6.797690391540527,
    "education_level": "Primary",
    "country_iso3_code": "SSD",
    "giga_id_school": "5b4e79d9-ccd9-3f2e-be9e-69ce546bd497",
    "school_data_source": null
  },
  {
    "school_name": "Redeemer  Primary School",
    "longitude": 33.124229431152344,
    "latitude": 6.8001508712768555,
    "education_level": "Primary",
    "country_iso3_code": "SSD",
    "giga_id_school": "4578dc51-cb68-3abb-ac62-35d5c7a141af",
    "school_data_source": null
  },
  {
    "school_name": "Namoronyang Primary School [NMR]",
    "longitude": 33.653419494628906,
    "latitude": 4.6167473793029785,
    "education_level": "Primary",
    "country_iso3_code": "SSD",
    "giga_id_school": "29c5bdfc-5f26-3e98-b849-fe37b3e83bca",
    "school_data_source": null
  },
  {
    "school_name": "Natapar Basic School [NKE]",
    "longitude": 33.60635757446289,
    "latitude": 4.654626369476318,
    "education_level": "Primary",
    "country_iso3_code": "SSD",
    "giga_id_school": "a303ee40-7160-34db-8c05-91d81d427eef",
    "school_data_source": null
  },
  {
    "school_name": "Kapuki primary School",
    "longitude": 31.539854049682617,
    "latitude": 4.87338924407959,
    "education_level": "Primary",
    "country_iso3_code": "SSD",
    "giga_id_school": "ee8b7f07-6126-310c-9f34-b0180633fe92",
    "school_data_source": null
  },
  {
    "school_name": "Kapuki ALP",
    "longitude": 31.539892196655273,
    "latitude": 4.873387336730957,
    "education_level": "Other",
    "country_iso3_code": "SSD",
    "giga_id_school": "645a0fc8-a523-34be-bb38-816a4eaeb6ea",
    "school_data_source": null
  },
  {
    "school_name": "Mabor-Ngap Primary School [MBW]",
    "longitude": 29.681529998779297,
    "latitude": 6.8168745040893555,
    "education_level": "Primary",
    "country_iso3_code": "SSD",
    "giga_id_school": "8f78c8eb-8fe2-3318-b721-f1110b6c900f",
    "school_data_source": null
  },
  {
    "school_name": "Kapuki Nursery",
    "longitude": 31.54023551940918,
    "latitude": 4.873145580291748,
    "education_level": "Pre-Primary",
    "country_iso3_code": "SSD",
    "giga_id_school": "ad431fcf-8c95-3a97-8497-05c83a48f301",
    "school_data_source": null
  },
  {
    "school_name": "GOLEN STAR PRIMARY  SCHOOL",
    "longitude": 31.541379928588867,
    "latitude": 4.8714423179626465,
    "education_level": "Primary",
    "country_iso3_code": "SSD",
    "giga_id_school": "5a729874-0d17-364c-bdf7-da1010bc364c",
    "school_data_source": null
  },
  {
    "school_name": "Golden Star Nursery  school",
    "longitude": 31.541440963745117,
    "latitude": 4.8714776039123535,
    "education_level": "Pre-Primary",
    "country_iso3_code": "SSD",
    "giga_id_school": "4f8a1415-6998-3e78-b22e-34d9fd141410",
    "school_data_source": null
  },
  {
    "school_name": "Juba Proper primary school",
    "longitude": 31.541303634643555,
    "latitude": 4.871177673339844,
    "education_level": "Primary",
    "country_iso3_code": "SSD",
    "giga_id_school": "685c43f5-a749-3f26-8b23-be9972ed3917",
    "school_data_source": null
  },
  {
    "school_name": "Lo Wani Primary School",
    "longitude": 31.538028717041016,
    "latitude": 4.8633341789245605,
    "education_level": "Primary",
    "country_iso3_code": "SSD",
    "giga_id_school": "ed4c2d70-c96f-3604-9595-8de024a9e772",
    "school_data_source": null
  },
  {
    "school_name": "Lol Wani Nursery School",
    "longitude": 31.537994384765625,
    "latitude": 4.863413333892822,
    "education_level": "Pre-Primary",
    "country_iso3_code": "SSD",
    "giga_id_school": "eb22086a-fd47-3495-b9e0-63ce2d89abfd",
    "school_data_source": null
  },
  {
    "school_name": "Living Stone primary school",
    "longitude": 31.521535873413086,
    "latitude": 4.842182159423828,
    "education_level": "Primary",
    "country_iso3_code": "SSD",
    "giga_id_school": "5ad4c5af-1387-3b81-a1a4-353a816ca6fa",
    "school_data_source": null
  },
  {
    "school_name": "Living Stone Nursery school",
    "longitude": 31.521121978759766,
    "latitude": 4.842128753662109,
    "education_level": "Pre-Primary",
    "country_iso3_code": "SSD",
    "giga_id_school": "1c47d44e-7cbd-3db7-ac73-5b4d835f7f3f",
    "school_data_source": null
  },
  {
    "school_name": "City Angel Academy primary school",
    "longitude": 31.523025512695312,
    "latitude": 4.834681987762451,
    "education_level": "Primary",
    "country_iso3_code": "SSD",
    "giga_id_school": "1262739c-5e3b-33cf-9625-5dfc78043e91",
    "school_data_source": null
  },
  {
    "school_name": "City Angel Academy Nursery",
    "longitude": 31.52300262451172,
    "latitude": 4.834793567657471,
    "education_level": "Pre-Primary",
    "country_iso3_code": "SSD",
    "giga_id_school": "87328fc5-3c61-3ebe-82b4-79c9b7ae1458",
    "school_data_source": null
  },
  {
    "school_name": "St Peter  secondary school",
    "longitude": 31.52159309387207,
    "latitude": 4.851598262786865,
    "education_level": "Secondary",
    "country_iso3_code": "SSD",
    "giga_id_school": "0d0d5c7f-3b8a-33ec-bdbe-a29961cc5391",
    "school_data_source": null
  },
  {
    "school_name": "St Peter Primary School",
    "longitude": 31.521923065185547,
    "latitude": 4.851721286773682,
    "education_level": "Primary",
    "country_iso3_code": "SSD",
    "giga_id_school": "96936daa-2d97-3794-a315-b1af7196b385",
    "school_data_source": null
  },
  {
    "school_name": "St Peter Nursery school",
    "longitude": 31.521764755249023,
    "latitude": 4.851687431335449,
    "education_level": "Pre-Primary",
    "country_iso3_code": "SSD",
    "giga_id_school": "15738e59-a286-3356-a953-7a64abd08abf",
    "school_data_source": null
  },
  {
    "school_name": "Peace Primary school",
    "longitude": 31.52861976623535,
    "latitude": 4.8463850021362305,
    "education_level": "Primary",
    "country_iso3_code": "SSD",
    "giga_id_school": "00b10648-a377-38f9-be5d-97dfb3c10a3f",
    "school_data_source": null
  },
  {
    "school_name": "Peace Nursery school",
    "longitude": 31.528650283813477,
    "latitude": 4.846467971801758,
    "education_level": "Pre-Primary",
    "country_iso3_code": "SSD",
    "giga_id_school": "743e4c5f-0632-3977-9e13-7293a63c6610",
    "school_data_source": null
  },
  {
    "school_name": "Chrisco Primary School",
    "longitude": 31.527111053466797,
    "latitude": 4.850750923156738,
    "education_level": "Primary",
    "country_iso3_code": "SSD",
    "giga_id_school": "5b453c47-fba3-3fd1-9c84-56b0e7b09285",
    "school_data_source": null
  },
  {
    "school_name": "Chrisco Nursery School",
    "longitude": 31.527143478393555,
    "latitude": 4.850739002227783,
    "education_level": "Pre-Primary",
    "country_iso3_code": "SSD",
    "giga_id_school": "0862283a-92fd-38e3-8c43-2552c4629cb1",
    "school_data_source": null
  },
  {
    "school_name": "Orphanages Straight Link Primary School",
    "longitude": 31.524860382080078,
    "latitude": 4.8529486656188965,
    "education_level": "Primary",
    "country_iso3_code": "SSD",
    "giga_id_school": "213a2ad5-795b-3d90-ba65-b82ab1827003",
    "school_data_source": null
  },
  {
    "school_name": "Orphanages straight Link Nursery",
    "longitude": 31.524675369262695,
    "latitude": 4.8529229164123535,
    "education_level": "Pre-Primary",
    "country_iso3_code": "SSD",
    "giga_id_school": "bd249d9e-bee5-3ca5-9aea-19296f83ba06",
    "school_data_source": null
  },
  {
    "school_name": "Orphanages straight Link Secondary School",
    "longitude": 31.524633407592773,
    "latitude": 4.852817058563232,
    "education_level": "Secondary",
    "country_iso3_code": "SSD",
    "giga_id_school": "0fdf8aa4-ff1a-389a-909a-31ddb12572b0",
    "school_data_source": null
  },
  {
    "school_name": "Glorious Primary School",
    "longitude": 31.52576446533203,
    "latitude": 4.854363918304443,
    "education_level": "Primary",
    "country_iso3_code": "SSD",
    "giga_id_school": "9c3ef6ee-c5cd-30fc-947d-cc7c3ed18665",
    "school_data_source": null
  },
  {
    "school_name": "Glorious Nursery School",
    "longitude": 31.525754928588867,
    "latitude": 4.854344367980957,
    "education_level": "Pre-Primary",
    "country_iso3_code": "SSD",
    "giga_id_school": "1c4ce5b2-fc32-3fad-ae22-964a723b7e0d",
    "school_data_source": null
  },
  {
    "school_name": "St.Thomas Primary School",
    "longitude": 31.524192810058594,
    "latitude": 4.856323719024658,
    "education_level": "Primary",
    "country_iso3_code": "SSD",
    "giga_id_school": "390f912e-d4ec-31de-b1de-f88c108ec5f4",
    "school_data_source": null
  },
  {
    "school_name": "St.Thomas Nursery School",
    "longitude": 31.52397346496582,
    "latitude": 4.856380462646484,
    "education_level": "Pre-Primary",
    "country_iso3_code": "SSD",
    "giga_id_school": "44a7215e-2a98-3c90-a327-69020cbf413d",
    "school_data_source": null
  },
  {
    "school_name": "St.Thomas Secondary Schools",
    "longitude": 31.523630142211914,
    "latitude": 4.856195449829102,
    "education_level": "Secondary",
    "country_iso3_code": "SSD",
    "giga_id_school": "18b6e88d-0e99-3e8f-b8c6-f161f310deba",
    "school_data_source": null
  },
  {
    "school_name": "AIC Primary School",
    "longitude": 31.522260665893555,
    "latitude": 4.8618316650390625,
    "education_level": "Primary",
    "country_iso3_code": "SSD",
    "giga_id_school": "81fe43b4-eb19-360a-8c7e-78e6b5d55da6",
    "school_data_source": null
  },
  {
    "school_name": "Riyo jakor Secondary School",
    "longitude": 33.124229431152344,
    "latitude": 6.8001508712768555,
    "education_level": "Secondary",
    "country_iso3_code": "SSD",
    "giga_id_school": "f48b0b72-484d-3cc4-ae93-e47bf25e3409",
    "school_data_source": null
  },
  {
    "school_name": "Thuon community Primary school",
    "longitude": 28.039146423339844,
    "latitude": 9.056134223937988,
    "education_level": "Primary",
    "country_iso3_code": "SSD",
    "giga_id_school": "7f0e996a-f9f9-3130-ae4c-b2200fafd056",
    "school_data_source": null
  },
  {
    "school_name": "Nyakrer Primary school",
    "longitude": 28.02920913696289,
    "latitude": 9.023056030273438,
    "education_level": "Primary",
    "country_iso3_code": "SSD",
    "giga_id_school": "6cca151c-d599-37d4-b7bf-33cb0974a9bf",
    "school_data_source": null
  },
  {
    "school_name": "Jier Primary School",
    "longitude": 28.038043975830078,
    "latitude": 9.004090309143066,
    "education_level": "Primary",
    "country_iso3_code": "SSD",
    "giga_id_school": "82387943-0928-3afd-98b7-242c631716ed",
    "school_data_source": null
  },
  {
    "school_name": "Anyieth Girls Primary school",
    "longitude": 28.022960662841797,
    "latitude": 8.9768648147583,
    "education_level": "Primary",
    "country_iso3_code": "SSD",
    "giga_id_school": "dad3e78a-c8f8-3193-a231-84df2e6adfd4",
    "school_data_source": null
  },
  {
    "school_name": "Mabor-Ngap Alp School",
    "longitude": 29.681468963623047,
    "latitude": 6.816882133483887,
    "education_level": "Other",
    "country_iso3_code": "SSD",
    "giga_id_school": "d5ad7267-a4c3-33b1-ab5b-7f89a03712e7",
    "school_data_source": null
  },
  {
    "school_name": "Ager-Gum Alp school",
    "longitude": 29.670740127563477,
    "latitude": 6.810911178588867,
    "education_level": "Other",
    "country_iso3_code": "SSD",
    "giga_id_school": "4f89f1ec-b4ce-35ea-9d6f-edce8c3e8ee3",
    "school_data_source": null
  },
  {
    "school_name": "Pamoju Nursery School [PMN]",
    "longitude": 31.659345626831055,
    "latitude": 3.7748467922210693,
    "education_level": "Pre-Primary",
    "country_iso3_code": "SSD",
    "giga_id_school": "fee2cc60-83bd-3d20-89db-42c4904d5b5f",
    "school_data_source": null
  },
  {
    "school_name": "Pamoju ALP",
    "longitude": 31.659347534179688,
    "latitude": 3.774793863296509,
    "education_level": "Other",
    "country_iso3_code": "SSD",
    "giga_id_school": "5ad426da-9f97-34cd-b1e3-a3ac453f3c7c",
    "school_data_source": null
  },
  {
    "school_name": "Jale Hills ALP Centre",
    "longitude": 31.657238006591797,
    "latitude": 3.7275137901306152,
    "education_level": "Other",
    "country_iso3_code": "SSD",
    "giga_id_school": "a4bc7d89-6de8-340a-823a-327ac8c53bee",
    "school_data_source": null
  },
  {
    "school_name": "Jale Hill Nursery School [JAH]",
    "longitude": 31.657203674316406,
    "latitude": 3.7275454998016357,
    "education_level": "Pre-Primary",
    "country_iso3_code": "SSD",
    "giga_id_school": "6c127329-a95b-333a-950e-ce4767bd9b73",
    "school_data_source": null
  },
  {
    "school_name": "Kiri Secondary School [KRL]",
    "longitude": 31.63538360595703,
    "latitude": 3.7700185775756836,
    "education_level": "Secondary",
    "country_iso3_code": "SSD",
    "giga_id_school": "1eb00575-6489-3b58-b1cf-fe30f040ad9d",
    "school_data_source": null
  },
  {
    "school_name": "Ariwa Nursery School [ARN]",
    "longitude": 31.63509178161621,
    "latitude": 3.769737720489502,
    "education_level": "Pre-Primary",
    "country_iso3_code": "SSD",
    "giga_id_school": "06d16ace-9cd1-3f3f-bb76-fca5912d1f46",
    "school_data_source": null
  },
  {
    "school_name": "Munuje Primary School [NUJ]",
    "longitude": 31.64821434020996,
    "latitude": 3.7958743572235107,
    "education_level": "Primary",
    "country_iso3_code": "SSD",
    "giga_id_school": "abd94c5a-30ab-3f94-8a4f-c66e28146f39",
    "school_data_source": null
  },
  {
    "school_name": "Munuje Nursery School [UNS]",
    "longitude": 31.64823341369629,
    "latitude": 3.795870780944824,
    "education_level": "Pre-Primary",
    "country_iso3_code": "SSD",
    "giga_id_school": "98c38148-1153-3b60-b83d-f22a83b37ce6",
    "school_data_source": null
  },
  {
    "school_name": "Leikor Nursey School [LEF]",
    "longitude": 31.664608001708984,
    "latitude": 3.8039743900299072,
    "education_level": "Pre-Primary",
    "country_iso3_code": "SSD",
    "giga_id_school": "b10e02cf-e00d-3a73-9ca1-f45312d1ddd5",
    "school_data_source": null
  },
  {
    "school_name": "Leikor Primary School [LKO]",
    "longitude": 31.664608001708984,
    "latitude": 3.8039743900299072,
    "education_level": "Primary",
    "country_iso3_code": "SSD",
    "giga_id_school": "77a724e6-ac82-31c4-82af-3b3cfa7381ff",
    "school_data_source": null
  },
  {
    "school_name": "Lukura Primary School [LKS]",
    "longitude": 31.679306030273438,
    "latitude": 3.846726417541504,
    "education_level": "Primary",
    "country_iso3_code": "SSD",
    "giga_id_school": "4dc24ea6-5add-3fb0-8fe9-ec09b9791f3f",
    "school_data_source": null
  },
  {
    "school_name": "Lukura Nursery School [LRA]",
    "longitude": 31.679237365722656,
    "latitude": 3.8469221591949463,
    "education_level": "Pre-Primary",
    "country_iso3_code": "SSD",
    "giga_id_school": "b3dfed1b-2026-3984-bb5d-b7d7a8198173",
    "school_data_source": null
  },
  {
    "school_name": "St. Bartholomews Primary [STM]",
    "longitude": 31.670869827270508,
    "latitude": 3.846439838409424,
    "education_level": "Primary",
    "country_iso3_code": "SSD",
    "giga_id_school": "59044b27-c83e-37a6-8c0a-996b2e658713",
    "school_data_source": null
  },
  {
    "school_name": "DWANI Primary School [DWB]",
    "longitude": 31.693632125854492,
    "latitude": 3.81172513961792,
    "education_level": "Primary",
    "country_iso3_code": "SSD",
    "giga_id_school": "8d943077-195f-3917-ba1c-6bd9c9afabc5",
    "school_data_source": null
  },
  {
    "school_name": "Dwani Nursery School [DWN]",
    "longitude": 31.693632125854492,
    "latitude": 3.81172513961792,
    "education_level": "Pre-Primary",
    "country_iso3_code": "SSD",
    "giga_id_school": "0e471de6-9b03-36b2-af40-f1b022c6efaa",
    "school_data_source": null
  },
  {
    "school_name": "Dwani ALP Centre",
    "longitude": 31.693632125854492,
    "latitude": 3.81172513961792,
    "education_level": "Other",
    "country_iso3_code": "SSD",
    "giga_id_school": "75317df6-660d-34ec-b565-10f80ea99628",
    "school_data_source": null
  },
  {
    "school_name": "Mawut Primary School [MWD]",
    "longitude": 28.357946395874023,
    "latitude": 8.311406135559082,
    "education_level": "Primary",
    "country_iso3_code": "SSD",
    "giga_id_school": "434db669-0ef4-342a-b182-2f5177d8b77f",
    "school_data_source": null
  },
  {
    "school_name": "Mawut Secondary [SHY]",
    "longitude": 28.35856056213379,
    "latitude": 8.311973571777344,
    "education_level": "Secondary",
    "country_iso3_code": "SSD",
    "giga_id_school": "cb89e8bf-68ce-3956-b6e6-b4eb68f2012d",
    "school_data_source": null
  },
  {
    "school_name": "Mawut pre-primary School [GZX]",
    "longitude": 28.3580265045166,
    "latitude": 8.311266899108887,
    "education_level": "Pre-Primary",
    "country_iso3_code": "SSD",
    "giga_id_school": "977d363c-b98b-35fd-9b65-f2d393ff1c3f",
    "school_data_source": null
  },
  {
    "school_name": "Aguath Primary School (APS)",
    "longitude": 28.380069732666016,
    "latitude": 8.160380363464355,
    "education_level": "Primary",
    "country_iso3_code": "SSD",
    "giga_id_school": "210a0dc3-5b27-3455-b8d8-9402bce500d8",
    "school_data_source": null
  },
  {
    "school_name": "Tarweng Primary School [TRF]",
    "longitude": 28.353723526000977,
    "latitude": 8.349902153015137,
    "education_level": "Primary",
    "country_iso3_code": "SSD",
    "giga_id_school": "93820b9c-da4d-382e-9d54-b28ebdd0c54f",
    "school_data_source": null
  },
  {
    "school_name": "Mawut ALP",
    "longitude": 28.35808563232422,
    "latitude": 8.311263084411621,
    "education_level": "Other",
    "country_iso3_code": "SSD",
    "giga_id_school": "f822c3f5-3ffd-389d-84e3-d81b27744cc2",
    "school_data_source": null
  },
  {
    "school_name": "Makerjook Primary School [EOB]",
    "longitude": 28.344758987426758,
    "latitude": 8.251014709472656,
    "education_level": "Primary",
    "country_iso3_code": "SSD",
    "giga_id_school": "15beadca-3521-358e-be59-d70a7d9c3d6c",
    "school_data_source": null
  },
  {
    "school_name": "Magwi Central Primary School [MAE]",
    "longitude": 32.30304718017578,
    "latitude": 4.123693466186523,
    "education_level": "Primary",
    "country_iso3_code": "SSD",
    "giga_id_school": "295d1be7-b971-310e-b3f4-7b3a0d81a2c8",
    "school_data_source": null
  },
  {
    "school_name": "Rocks of Ages  primary School [RKS]",
    "longitude": 32.30282974243164,
    "latitude": 4.122068881988525,
    "education_level": "Primary",
    "country_iso3_code": "SSD",
    "giga_id_school": "6d91eb73-be3f-3d03-9906-b8da15eb0189",
    "school_data_source": null
  },
  {
    "school_name": "St. Paul primary",
    "longitude": 29.67551612854004,
    "latitude": 6.819481372833252,
    "education_level": "Primary",
    "country_iso3_code": "SSD",
    "giga_id_school": "aaa4fb4f-d06b-3e65-adfe-fbe55e202b28",
    "school_data_source": null
  },
  {
    "school_name": "ECSS Primary School [PSE]",
    "longitude": 29.244632720947266,
    "latitude": 7.011137962341309,
    "education_level": "Primary",
    "country_iso3_code": "SSD",
    "giga_id_school": "863a9bb9-850a-3616-837e-45f43526f0bd",
    "school_data_source": null
  },
  {
    "school_name": "Gakmerpiny Primary school",
    "longitude": 29.244796752929688,
    "latitude": 7.011020660400391,
    "education_level": "Primary",
    "country_iso3_code": "SSD",
    "giga_id_school": "f89e2fa1-d9ca-3893-91c7-2556216effeb",
    "school_data_source": null
  },
  {
    "school_name": "Cueibet Girls Primary School [CUE]",
    "longitude": 29.2430477142334,
    "latitude": 7.016895294189453,
    "education_level": "Primary",
    "country_iso3_code": "SSD",
    "giga_id_school": "f7262b45-050b-3009-bef5-1bfc26205db0",
    "school_data_source": null
  },
  {
    "school_name": "All Saints  ALP",
    "longitude": 29.244592666625977,
    "latitude": 7.017568588256836,
    "education_level": "Other",
    "country_iso3_code": "SSD",
    "giga_id_school": "68b70308-736d-3430-9e3c-2b25ec482135",
    "school_data_source": null
  },
  {
    "school_name": "Cueibet Secondary [CEB]",
    "longitude": 29.247007369995117,
    "latitude": 7.013247013092041,
    "education_level": "Secondary",
    "country_iso3_code": "SSD",
    "giga_id_school": "5b117fcd-f90b-3065-92c5-f8aac33ce2bb",
    "school_data_source": null
  },
  {
    "school_name": "Achol Malek  Primary school",
    "longitude": 29.212112426757812,
    "latitude": 7.025522708892822,
    "education_level": "Primary",
    "country_iso3_code": "SSD",
    "giga_id_school": "f4d6ccd5-a7cf-3607-9cb2-f03fff59f325",
    "school_data_source": null
  },
  {
    "school_name": "Ridic community primary school",
    "longitude": 27.958913803100586,
    "latitude": 8.942605018615723,
    "education_level": "Primary",
    "country_iso3_code": "SSD",
    "giga_id_school": "4c1a54be-72eb-30f0-bc2c-1cea954d4a5d",
    "school_data_source": null
  },
  {
    "school_name": "Chum Lual community primary school",
    "longitude": 27.929058074951172,
    "latitude": 8.945241928100586,
    "education_level": "Primary",
    "country_iso3_code": "SSD",
    "giga_id_school": "75417b35-9f5d-3fb6-b84d-30d7975b2ca5",
    "school_data_source": null
  },
  {
    "school_name": "Cienyteng Primary school",
    "longitude": 29.221670150756836,
    "latitude": 7.026885986328125,
    "education_level": "Primary",
    "country_iso3_code": "SSD",
    "giga_id_school": "df44875e-cf08-3271-b828-1d4c86bf79cb",
    "school_data_source": null
  },
  {
    "school_name": "Cueibet Progressive Nursery and  Primary school",
    "longitude": 29.25901985168457,
    "latitude": 7.0059494972229,
    "education_level": "Pre-Primary",
    "country_iso3_code": "SSD",
    "giga_id_school": "1966589d-b203-3870-8db3-80315f88ca7b",
    "school_data_source": null
  },
  {
    "school_name": "St. MARY Nursery  school",
    "longitude": 29.234712600708008,
    "latitude": 7.007552146911621,
    "education_level": "Pre-Primary",
    "country_iso3_code": "SSD",
    "giga_id_school": "b3996b2f-3307-3607-8327-befc4d18cb51",
    "school_data_source": null
  },
  {
    "school_name": "St. Mary  Primary school",
    "longitude": 29.234535217285156,
    "latitude": 7.007635116577148,
    "education_level": "Primary",
    "country_iso3_code": "SSD",
    "giga_id_school": "5438ff28-b5d8-3dca-bfc4-64e61a7f2d4f",
    "school_data_source": null
  },
  {
    "school_name": "Kooth Comboni Kindergarten",
    "longitude": 29.22954559326172,
    "latitude": 7.021548748016357,
    "education_level": "Pre-Primary",
    "country_iso3_code": "SSD",
    "giga_id_school": "8406776b-da42-3c86-a919-4823e97d2437",
    "school_data_source": null
  },
  {
    "school_name": "Fr. Victor Luke Odhiambo Memorial  Secondary school",
    "longitude": 29.230499267578125,
    "latitude": 7.019314289093018,
    "education_level": "Secondary",
    "country_iso3_code": "SSD",
    "giga_id_school": "acd362f6-0e44-3e26-9b73-bdac4d328c50",
    "school_data_source": null
  },
  {
    "school_name": "Cueibet ALP",
    "longitude": 29.24465560913086,
    "latitude": 7.011122703552246,
    "education_level": "Other",
    "country_iso3_code": "SSD",
    "giga_id_school": "575088e4-7971-315c-9f63-8f4b3ab51587",
    "school_data_source": null
  },
  {
    "school_name": "Agany Primary School [GYA]",
    "longitude": 29.192392349243164,
    "latitude": 7.030637264251709,
    "education_level": "Primary",
    "country_iso3_code": "SSD",
    "giga_id_school": "b57a0d61-d00f-3dde-b8ab-a21586e46b61",
    "school_data_source": null
  },
  {
    "school_name": "Bhargel Primary school",
    "longitude": 29.154930114746094,
    "latitude": 7.024072170257568,
    "education_level": "Primary",
    "country_iso3_code": "SSD",
    "giga_id_school": "83ce61b4-c2ae-3ffb-b4f6-9e1cf0877511",
    "school_data_source": null
  },
  {
    "school_name": "Eroneo Dut Primary",
    "longitude": 29.15117073059082,
    "latitude": 7.019351005554199,
    "education_level": "Primary",
    "country_iso3_code": "SSD",
    "giga_id_school": "1ca760fe-0476-3d3e-88d1-8d1613bf5f07",
    "school_data_source": null
  },
  {
    "school_name": "Alel One Primary School [ALE]",
    "longitude": 29.245019912719727,
    "latitude": 7.0270233154296875,
    "education_level": "Primary",
    "country_iso3_code": "SSD",
    "giga_id_school": "31be44ca-c0c5-3a3b-967f-329440653fe0",
    "school_data_source": null
  },
  {
    "school_name": "A duel Primary school",
    "longitude": 29.2188663482666,
    "latitude": 7.005188465118408,
    "education_level": "Primary",
    "country_iso3_code": "SSD",
    "giga_id_school": "d5b075f0-0045-3d90-9400-22359255e383",
    "school_data_source": null
  },
  {
    "school_name": "Dhiaukuei Primary school",
    "longitude": 29.178802490234375,
    "latitude": 7.004452228546143,
    "education_level": "Primary",
    "country_iso3_code": "SSD",
    "giga_id_school": "a87dff0e-0999-3ce1-944b-de9bab4091e3",
    "school_data_source": null
  },
  {
    "school_name": "Mediit Primary School [MFR]",
    "longitude": 29.202085494995117,
    "latitude": 7.000716686248779,
    "education_level": "Primary",
    "country_iso3_code": "SSD",
    "giga_id_school": "2ad9208e-e899-37db-b14a-4334d8f5244c",
    "school_data_source": null
  },
  {
    "school_name": "Tonj Girls Secondary School",
    "longitude": 28.6779727935791,
    "latitude": 7.275390625,
    "education_level": "Secondary",
    "country_iso3_code": "SSD",
    "giga_id_school": "a5ede3ab-56b0-3c18-838a-aa811a645cc3",
    "school_data_source": null
  },
  {
    "school_name": "Don Bosco Secondary School [DNO]",
    "longitude": 28.67685890197754,
    "latitude": 7.277268409729004,
    "education_level": "Secondary",
    "country_iso3_code": "SSD",
    "giga_id_school": "2f4f5366-a188-34d8-8dd2-bfe26b54b248",
    "school_data_source": null
  },
  {
    "school_name": "Warak Primary School [WRL]",
    "longitude": 28.671710968017578,
    "latitude": 7.271415710449219,
    "education_level": "Primary",
    "country_iso3_code": "SSD",
    "giga_id_school": "49aec226-181c-3c16-9b05-423c3ce4cc03",
    "school_data_source": null
  },
  {
    "school_name": "Royal Progressive Academy Secondary School [YLR]",
    "longitude": 28.670185089111328,
    "latitude": 7.272294521331787,
    "education_level": "Secondary",
    "country_iso3_code": "SSD",
    "giga_id_school": "3e74ddea-46eb-3412-b37e-bf7b58cf23d5",
    "school_data_source": null
  },
  {
    "school_name": "Don Bosco Primary School [DBO]",
    "longitude": 28.675457000732422,
    "latitude": 7.278842449188232,
    "education_level": "Primary",
    "country_iso3_code": "SSD",
    "giga_id_school": "da101d91-1d73-30f8-92c1-081dcb87ec54",
    "school_data_source": null
  },
  {
    "school_name": "Bakitha Primary School [BTH]",
    "longitude": 28.655405044555664,
    "latitude": 7.264735698699951,
    "education_level": "Primary",
    "country_iso3_code": "SSD",
    "giga_id_school": "f4f05e4c-194f-34ca-8db5-df18c41db963",
    "school_data_source": null
  },
  {
    "school_name": "St. Bakhita pre-primary School [SWH]",
    "longitude": 28.65538215637207,
    "latitude": 7.264725208282471,
    "education_level": "Pre-Primary",
    "country_iso3_code": "SSD",
    "giga_id_school": "0f195b03-397f-3745-9aa5-c704d5aba1df",
    "school_data_source": null
  },
  {
    "school_name": "Himago Primary School [HMG]",
    "longitude": 28.697219848632812,
    "latitude": 7.2954511642456055,
    "education_level": "Primary",
    "country_iso3_code": "SSD",
    "giga_id_school": "4a26ee6d-c480-3df1-8475-ef86d2d3bc44",
    "school_data_source": null
  },
  {
    "school_name": "Himango International Pre-School [HGO]",
    "longitude": 28.697216033935547,
    "latitude": 7.295297145843506,
    "education_level": "Pre-Primary",
    "country_iso3_code": "SSD",
    "giga_id_school": "12cfbeb0-d4e0-3e6b-aa0c-57049e23ce36",
    "school_data_source": null
  },
  {
    "school_name": "Luony aker Primary School [LUK]",
    "longitude": 28.43160629272461,
    "latitude": 8.24626636505127,
    "education_level": "Primary",
    "country_iso3_code": "SSD",
    "giga_id_school": "9e74a248-f140-39e8-bf3b-dfeda10fbfae",
    "school_data_source": null
  },
  {
    "school_name": "Marol Academy Primary School [MCL]",
    "longitude": 28.43157196044922,
    "latitude": 8.245128631591797,
    "education_level": "Primary",
    "country_iso3_code": "SSD",
    "giga_id_school": "be84d717-ea34-3b3f-9016-abf1c215e07b",
    "school_data_source": null
  },
  {
    "school_name": "Luonyaker Pre-primary School [LQQ]",
    "longitude": 28.377765655517578,
    "latitude": 8.213871002197266,
    "education_level": "Pre-Primary",
    "country_iso3_code": "SSD",
    "giga_id_school": "6b7de47e-38c7-3953-8962-c21d14760ffe",
    "school_data_source": null
  },
  {
    "school_name": "Luonyaker ALP school",
    "longitude": 28.39159393310547,
    "latitude": 8.229208946228027,
    "education_level": "Other",
    "country_iso3_code": "SSD",
    "giga_id_school": "4580f078-f7f4-3b2e-899a-484336f18039",
    "school_data_source": null
  },
  {
    "school_name": "Majakloc Primary School",
    "longitude": 28.4773006439209,
    "latitude": 8.165093421936035,
    "education_level": "Primary",
    "country_iso3_code": "SSD",
    "giga_id_school": "644cc0be-be47-3992-a434-dde4322c3027",
    "school_data_source": null
  },
  {
    "school_name": "Thongloc Primary School [JAJ]",
    "longitude": 28.461101531982422,
    "latitude": 8.189990997314453,
    "education_level": "Primary",
    "country_iso3_code": "SSD",
    "giga_id_school": "b631379f-1ff1-3e9d-9b21-d335ee2fd64c",
    "school_data_source": null
  },
  {
    "school_name": "Thiou primary [THZ]",
    "longitude": 28.42291831970215,
    "latitude": 8.205131530761719,
    "education_level": "Primary",
    "country_iso3_code": "SSD",
    "giga_id_school": "77e31e5d-a806-378e-b438-258a61ab2d06",
    "school_data_source": null
  },
  {
    "school_name": "Thiou Secondary School",
    "longitude": 28.422571182250977,
    "latitude": 8.205131530761719,
    "education_level": "Secondary",
    "country_iso3_code": "SSD",
    "giga_id_school": "dcfed91a-ae3e-33db-88be-1bbaa14ca0d7",
    "school_data_source": null
  },
  {
    "school_name": "Nyuop Chol Primary School [YPN]",
    "longitude": 28.42920684814453,
    "latitude": 8.224573135375977,
    "education_level": "Primary",
    "country_iso3_code": "SSD",
    "giga_id_school": "46464631-d389-307f-a030-a2af68778cf8",
    "school_data_source": null
  },
  {
    "school_name": "Mary Immaculate Pre Primary  School",
    "longitude": 28.39162826538086,
    "latitude": 8.229043960571289,
    "education_level": "Pre-Primary",
    "country_iso3_code": "SSD",
    "giga_id_school": "583e7815-7fbf-3d00-b8ca-db04682df7d8",
    "school_data_source": null
  },
  {
    "school_name": "Manyang Primary School. [MOF]",
    "longitude": 28.19344139099121,
    "latitude": 8.06418514251709,
    "education_level": "Primary",
    "country_iso3_code": "SSD",
    "giga_id_school": "8cf82e5d-9a9e-389f-a7d2-89478037191f",
    "school_data_source": null
  },
  {
    "school_name": "Mangany Alternative  Education  System (AES)",
    "longitude": 28.193252563476562,
    "latitude": 8.06397533416748,
    "education_level": "Other",
    "country_iso3_code": "SSD",
    "giga_id_school": "90cd222f-95de-304a-972e-51e9c6da464e",
    "school_data_source": null
  },
  {
    "school_name": "Wuntim Primary School [QVS]",
    "longitude": 28.250614166259766,
    "latitude": 8.097261428833008,
    "education_level": "Primary",
    "country_iso3_code": "SSD",
    "giga_id_school": "a718d464-aa95-3f9f-a32e-bcf63553a603",
    "school_data_source": null
  },
  {
    "school_name": "Nhomlei Primary School",
    "longitude": 28.267642974853516,
    "latitude": 8.137324333190918,
    "education_level": "Primary",
    "country_iso3_code": "SSD",
    "giga_id_school": "a4d25eb3-c714-3954-822d-8bc4ea113853",
    "school_data_source": null
  },
  {
    "school_name": "Achuok Primary  School",
    "longitude": 28.256975173950195,
    "latitude": 8.151994705200195,
    "education_level": "Primary",
    "country_iso3_code": "SSD",
    "giga_id_school": "1d4e930e-1da9-3a99-8d47-144b5c49e106",
    "school_data_source": null
  },
  {
    "school_name": "WunAbiel Primary [LMJ]",
    "longitude": 28.271181106567383,
    "latitude": 8.16804313659668,
    "education_level": "Primary",
    "country_iso3_code": "SSD",
    "giga_id_school": "049994fd-ef9f-3913-b0fe-7301dfc9eda3",
    "school_data_source": null
  },
  {
    "school_name": "Malual Wut Primary School [MWB]",
    "longitude": 28.171810150146484,
    "latitude": 8.169427871704102,
    "education_level": "Primary",
    "country_iso3_code": "SSD",
    "giga_id_school": "2756895b-dfb0-3e12-b158-70ee206e5016",
    "school_data_source": null
  },
  {
    "school_name": "Roor Malou Primary School [ROM]",
    "longitude": 28.185985565185547,
    "latitude": 8.144464492797852,
    "education_level": "Primary",
    "country_iso3_code": "SSD",
    "giga_id_school": "01ba0fdf-6eb8-3fe8-a6b3-6c9f29364ae6",
    "school_data_source": null
  },
  {
    "school_name": "Majook Primary School [MQT]",
    "longitude": 28.224689483642578,
    "latitude": 8.15383243560791,
    "education_level": "Primary",
    "country_iso3_code": "SSD",
    "giga_id_school": "ae68127d-92a6-33f6-b3a8-9a0c4cf5adb2",
    "school_data_source": null
  },
  {
    "school_name": "Aguar Primary School [UAR]",
    "longitude": 28.221981048583984,
    "latitude": 8.158327102661133,
    "education_level": "Primary",
    "country_iso3_code": "SSD",
    "giga_id_school": "f93ec615-4dff-3c26-aa3f-780b8ccab1bf",
    "school_data_source": null
  },
  {
    "school_name": "Majook Secondary School",
    "longitude": 28.22525978088379,
    "latitude": 8.14335823059082,
    "education_level": "Secondary",
    "country_iso3_code": "SSD",
    "giga_id_school": "56eecd27-03b2-3b72-a489-c2503d1ae436",
    "school_data_source": null
  },
  {
    "school_name": "Lac Diit primary school [LIT]",
    "longitude": 28.30569076538086,
    "latitude": 8.158512115478516,
    "education_level": "Primary",
    "country_iso3_code": "SSD",
    "giga_id_school": "45214e13-e850-3242-89b7-c213de7e7292",
    "school_data_source": null
  },
  {
    "school_name": "Aduup Tiik Primary School [AIK]",
    "longitude": 28.32474136352539,
    "latitude": 8.180900573730469,
    "education_level": "Primary",
    "country_iso3_code": "SSD",
    "giga_id_school": "241f6202-75c8-3435-b7d9-49a9befa11fd",
    "school_data_source": null
  },
  {
    "school_name": "Ariawa Primary School",
    "longitude": 28.345502853393555,
    "latitude": 8.198690414428711,
    "education_level": "Primary",
    "country_iso3_code": "SSD",
    "giga_id_school": "47dac56a-6990-3f2c-b2bc-150a867f10ed",
    "school_data_source": null
  },
  {
    "school_name": "Aker - abouk primary school [AKF]",
    "longitude": 28.396080017089844,
    "latitude": 8.300568580627441,
    "education_level": "Primary",
    "country_iso3_code": "SSD",
    "giga_id_school": "f3add935-8f98-32d2-b9db-61c8d6ba414a",
    "school_data_source": null
  },
  {
    "school_name": "Wa-Ngot primary school [WAG]",
    "longitude": 28.393245697021484,
    "latitude": 8.229015350341797,
    "education_level": "Primary",
    "country_iso3_code": "SSD",
    "giga_id_school": "70b656e1-867b-39ce-bc65-5d84a8cce338",
    "school_data_source": null
  },
  {
    "school_name": "Foundation Nursery school",
    "longitude": 29.69356346130371,
    "latitude": 6.793724536895752,
    "education_level": "Pre-Primary",
    "country_iso3_code": "SSD",
    "giga_id_school": "360a3886-6b7c-3bd4-9f5a-617c23768ad7",
    "school_data_source": null
  },
  {
    "school_name": "Foundation Alp school",
    "longitude": 29.693584442138672,
    "latitude": 6.793670654296875,
    "education_level": "Other",
    "country_iso3_code": "SSD",
    "giga_id_school": "fdb44af6-db4d-3912-bd31-83c16163413b",
    "school_data_source": null
  },
  {
    "school_name": "Alp Gol meen  centre",
    "longitude": 29.683874130249023,
    "latitude": 6.807928085327148,
    "education_level": "Other",
    "country_iso3_code": "SSD",
    "giga_id_school": "1c0d9f52-b59d-30c0-9aee-9937daa41764",
    "school_data_source": null
  },
  {
    "school_name": "Unity Primary school",
    "longitude": 29.666454315185547,
    "latitude": 6.812199115753174,
    "education_level": "Primary",
    "country_iso3_code": "SSD",
    "giga_id_school": "6b58ef9e-dfc5-34e7-8116-e57846ff107a",
    "school_data_source": null
  },
  {
    "school_name": "Rumbek Comboni Alp School",
    "longitude": 29.667524337768555,
    "latitude": 6.813721656799316,
    "education_level": "Other",
    "country_iso3_code": "SSD",
    "giga_id_school": "f7895bec-6edc-3cbf-8d25-caa4e019f412",
    "school_data_source": null
  },
  {
    "school_name": "Akon Buoi Alp school",
    "longitude": 29.679676055908203,
    "latitude": 6.808806896209717,
    "education_level": "Other",
    "country_iso3_code": "SSD",
    "giga_id_school": "872f1412-7af0-3df3-8428-630d0dbbbd26",
    "school_data_source": null
  },
  {
    "school_name": "Limi Lower Primary School [LMO]",
    "longitude": 31.718460083007812,
    "latitude": 3.801077365875244,
    "education_level": "Primary",
    "country_iso3_code": "SSD",
    "giga_id_school": "4937a484-9e4e-37d5-ad58-6d5a9822371c",
    "school_data_source": null
  },
  {
    "school_name": "Kudupi Nursery School [KWM]",
    "longitude": 31.718442916870117,
    "latitude": 3.801105499267578,
    "education_level": "Pre-Primary",
    "country_iso3_code": "SSD",
    "giga_id_school": "50f04b95-2567-3dbe-b20c-8e958dc2a040",
    "school_data_source": null
  },
  {
    "school_name": "Limi Nursery School",
    "longitude": 31.718442916870117,
    "latitude": 3.801105499267578,
    "education_level": "Pre-Primary",
    "country_iso3_code": "SSD",
    "giga_id_school": "e6999b72-a515-3725-8a44-1c22c6898cb8",
    "school_data_source": null
  },
  {
    "school_name": "Ebenezer Baptist Primary School [EBE]",
    "longitude": 31.671358108520508,
    "latitude": 3.8196728229522705,
    "education_level": "Primary",
    "country_iso3_code": "SSD",
    "giga_id_school": "51d2339f-7460-39d6-855c-0094b8f72d40",
    "school_data_source": null
  },
  {
    "school_name": "Ebenezer Baptist Nursery School [EBN]",
    "longitude": 31.671337127685547,
    "latitude": 3.8196823596954346,
    "education_level": "Pre-Primary",
    "country_iso3_code": "SSD",
    "giga_id_school": "d7be856f-f744-30f7-94f3-aaa121d2c47e",
    "school_data_source": null
  },