[
  {
    "school_name": "Szent István Általános Iskola",
    "longitude": 19.050962448120117,
    "latitude": 47.506935119628906,
    "education_level": "Unknown",
    "country_iso3_code": "HUN",
    "giga_id_school": "36148dd1-d1ec-3fc2-89f1-79dae2d27880",
    "school_data_source": null
  },
  {
    "school_name": "Chernel István Általános Iskola és Gimnázium",
    "longitude": 18.61530303955078,
    "latitude": 47.1928596496582,
    "education_level": "Unknown",
    "country_iso3_code": "HUN",
    "giga_id_school": "ced18143-6c5d-331f-bb57-00a7d570a9de",
    "school_data_source": null
  },
  {
    "school_name": "Avasi Gimnázium",
    "longitude": 20.77537727355957,
    "latitude": 48.086524963378906,
    "education_level": "Unknown",
    "country_iso3_code": "HUN",
    "giga_id_school": "38b8e05c-ea8f-3829-a035-ee1e0bc5fb04",
    "school_data_source": null
  },
  {
    "school_name": "Rákóczi Ference ÁMK",
    "longitude": 17.636865615844727,
    "latitude": 47.615028381347656,
    "education_level": "Unknown",
    "country_iso3_code": "HUN",
    "giga_id_school": "5bd231b7-75e9-31cb-a4b7-4d7e9f861d47",
    "school_data_source": null
  },
  {
    "school_name": "Waldorf iskola",
    "longitude": 18.82537078857422,
    "latitude": 47.512115478515625,
    "education_level": "Unknown",
    "country_iso3_code": "HUN",
    "giga_id_school": "9b3f9867-8b88-352f-91c8-d3d6b3913b6c",
    "school_data_source": null
  },
  {
    "school_name": "Deák Ferenc",
    "longitude": 18.418832778930664,
    "latitude": 47.185359954833984,
    "education_level": "Unknown",
    "country_iso3_code": "HUN",
    "giga_id_school": "34f30772-090c-3d45-9303-7087e28f4395",
    "school_data_source": null
  },
  {
    "school_name": "Református Gimnázium",
    "longitude": 17.46965980529785,
    "latitude": 47.327789306640625,
    "education_level": "Unknown",
    "country_iso3_code": "HUN",
    "giga_id_school": "84fca310-9569-3cd7-ad43-97e4daff60f1",
    "school_data_source": null
  },
  {
    "school_name": "Eötvös Loránd Műszaki Rechnikum és Kollégium",
    "longitude": 17.80390167236328,
    "latitude": 46.36064147949219,
    "education_level": "Unknown",
    "country_iso3_code": "HUN",
    "giga_id_school": "3b33addd-2628-3678-ab20-1c8b74f1a2ae",
    "school_data_source": null
  },
  {
    "school_name": "Liszt Ferenc Zeneiskola",
    "longitude": 17.790679931640625,
    "latitude": 46.359703063964844,
    "education_level": "Unknown",
    "country_iso3_code": "HUN",
    "giga_id_school": "5d17d608-2a37-350c-838b-29dccc29ec46",
    "school_data_source": null
  },
  {
    "school_name": "Hunyadi János Általános Iskola",
    "longitude": 17.705543518066406,
    "latitude": 46.36014938354492,
    "education_level": "Unknown",
    "country_iso3_code": "HUN",
    "giga_id_school": "a24101c7-a690-3c93-bd21-7851514b4189",
    "school_data_source": null
  },
  {
    "school_name": "Kaposfői Általános Iskola",
    "longitude": 17.66288185119629,
    "latitude": 46.360721588134766,
    "education_level": "Unknown",
    "country_iso3_code": "HUN",
    "giga_id_school": "6a2bf061-6ee8-3472-90f6-b7f34799bb17",
    "school_data_source": null
  },
  {
    "school_name": "Somssich Imre Általános Iskola",
    "longitude": 17.693523406982422,
    "latitude": 46.42170715332031,
    "education_level": "Unknown",
    "country_iso3_code": "HUN",
    "giga_id_school": "2dc777ed-eb6d-32ec-b20d-23c2760c9513",
    "school_data_source": null
  },
  {
    "school_name": "Zrínyi Ilona Általános Iskola",
    "longitude": 18.732280731201172,
    "latitude": 47.71816635131836,
    "education_level": "Unknown",
    "country_iso3_code": "HUN",
    "giga_id_school": "204d3aa7-08ef-3b65-affa-3fc009535a76",
    "school_data_source": null
  },
  {
    "school_name": "Petőfi Sándor Általános Iskola",
    "longitude": 18.7397403717041,
    "latitude": 47.72098159790039,
    "education_level": "Unknown",
    "country_iso3_code": "HUN",
    "giga_id_school": "f32acaad-7d95-3f4e-b522-4a1998996111",
    "school_data_source": null
  },
  {
    "school_name": "Koch Valéria Iskolaközpont",
    "longitude": 18.1989688873291,
    "latitude": 46.07270050048828,
    "education_level": "Unknown",
    "country_iso3_code": "HUN",
    "giga_id_school": "4cddab6f-bcce-34de-b7a5-083fcaa87cb9",
    "school_data_source": null
  },
  {
    "school_name": "Marcalvárosi Közoktatási Központ",
    "longitude": 17.631858825683594,
    "latitude": 47.663673400878906,
    "education_level": "Unknown",
    "country_iso3_code": "HUN",
    "giga_id_school": "9c771d93-a343-3295-9b89-939ccad04945",
    "school_data_source": null
  },
  {
    "school_name": "Stépán Ilona Általános Iskola",
    "longitude": 20.69004249572754,
    "latitude": 48.47078323364258,
    "education_level": "Unknown",
    "country_iso3_code": "HUN",
    "giga_id_school": "3d56ded7-90e5-34cb-be53-6e2f702b7fb4",
    "school_data_source": null
  },
  {
    "school_name": "Papnevelő Intézet",
    "longitude": 19.13088607788086,
    "latitude": 47.77484130859375,
    "education_level": "Unknown",
    "country_iso3_code": "HUN",
    "giga_id_school": "14e2a8a5-b46e-34f6-b692-f6226ed2ce1d",
    "school_data_source": null
  },
  {
    "school_name": "Katolikus Általános Iskola",
    "longitude": 19.136816024780273,
    "latitude": 47.77142333984375,
    "education_level": "Unknown",
    "country_iso3_code": "HUN",
    "giga_id_school": "79c5dd80-69e2-3b06-bacb-952ee037554e",
    "school_data_source": null
  },
  {
    "school_name": "Kereskedelmi Szakközépiskola",
    "longitude": 19.13351058959961,
    "latitude": 47.77371597290039,
    "education_level": "Unknown",
    "country_iso3_code": "HUN",
    "giga_id_school": "f6d058f4-e760-345a-9d45-1c2887c8f264",
    "school_data_source": null
  },
  {
    "school_name": "Hittudományi Főiskola",
    "longitude": 19.131528854370117,
    "latitude": 47.77531433105469,
    "education_level": "Unknown",
    "country_iso3_code": "HUN",
    "giga_id_school": "242bac27-220f-3e08-9e2b-f79c22a1e3fa",
    "school_data_source": null
  },
  {
    "school_name": "Komlóstetői Általános Iskola",
    "longitude": 20.725820541381836,
    "latitude": 48.08192825317383,
    "education_level": "Unknown",
    "country_iso3_code": "HUN",
    "giga_id_school": "dcc6c653-fbd5-3610-9ede-c50c89b8aae1",
    "school_data_source": null
  },
  {
    "school_name": "Jókai Mór Általános Iskola",
    "longitude": 17.918291091918945,
    "latitude": 47.649906158447266,
    "education_level": "Unknown",
    "country_iso3_code": "HUN",
    "giga_id_school": "0d41d0c9-9347-3cfc-aa7f-94ad030c2142",
    "school_data_source": null
  },
  {
    "school_name": "Nagyéri Általános Iskola",
    "longitude": 20.730138778686523,
    "latitude": 46.37058639526367,
    "education_level": "Unknown",
    "country_iso3_code": "HUN",
    "giga_id_school": "6e426971-3796-3110-ac8e-30ba0ab0019f",
    "school_data_source": null
  },
  {
    "school_name": "Péter András Gimnázium és Kollégium",
    "longitude": 21.179147720336914,
    "latitude": 47.01492691040039,
    "education_level": "Unknown",
    "country_iso3_code": "HUN",
    "giga_id_school": "1ec7cd3e-2035-3128-9d73-ee4b3755554d",
    "school_data_source": null
  },
  {
    "school_name": "Általános és Alapfokú Művészeti Iskola",
    "longitude": 21.17556381225586,
    "latitude": 47.01837158203125,
    "education_level": "Unknown",
    "country_iso3_code": "HUN",
    "giga_id_school": "53ea9acf-8268-330b-a803-50b7ebcddb38",
    "school_data_source": null
  },
  {
    "school_name": "Hunyadi Mátyás Általános Iskola",
    "longitude": 18.312942504882812,
    "latitude": 47.488101959228516,
    "education_level": "Unknown",
    "country_iso3_code": "HUN",
    "giga_id_school": "9e603a48-56fa-3087-a5af-f1d26f3e873d",
    "school_data_source": null
  },
  {
    "school_name": "Nagy Lajos Általános Iskola",
    "longitude": 18.961332321166992,
    "latitude": 46.88356018066406,
    "education_level": "Unknown",
    "country_iso3_code": "HUN",
    "giga_id_school": "b2687a37-969e-3ad1-9ce2-94cc65e3d563",
    "school_data_source": null
  },
  {
    "school_name": "Gyulai SZC Szigeti Endre Szakgimnáziuma és Szakközépiskolája",
    "longitude": 21.178298950195312,
    "latitude": 47.01523208618164,
    "education_level": "Unknown",
    "country_iso3_code": "HUN",
    "giga_id_school": "02acc09a-2856-3bb3-a480-f470d245aeae",
    "school_data_source": null
  },
  {
    "school_name": "Illyés Gyula Általános Iskola",
    "longitude": 17.66742706298828,
    "latitude": 46.52201461791992,
    "education_level": "Unknown",
    "country_iso3_code": "HUN",
    "giga_id_school": "625e628b-1f36-30cd-b4f3-a5d14d4671a6",
    "school_data_source": null
  },
  {
    "school_name": "Fekete István Általános Iskola",
    "longitude": 17.489944458007812,
    "latitude": 46.71541213989258,
    "education_level": "Unknown",
    "country_iso3_code": "HUN",
    "giga_id_school": "f632b62d-045b-3660-9499-89462efcb5ee",
    "school_data_source": null
  },
  {
    "school_name": "Derekegyházi Általános Iskola",
    "longitude": 20.352214813232422,
    "latitude": 46.57850646972656,
    "education_level": "Unknown",
    "country_iso3_code": "HUN",
    "giga_id_school": "6cd218a4-4b9e-3ecc-81bb-9c3de7f1b264",
    "school_data_source": null
  },
  {
    "school_name": "Vakok Óvodája, Általános Iskolája, Speciális Szakiskolája",
    "longitude": 19.095144271850586,
    "latitude": 47.51349639892578,
    "education_level": "Unknown",
    "country_iso3_code": "HUN",
    "giga_id_school": "fa8dff7b-764b-3517-9c71-9990bf57deb4",
    "school_data_source": null
  },
  {
    "school_name": "Német Nemzetiségi Óvoda",
    "longitude": 18.914155960083008,
    "latitude": 47.6148567199707,
    "education_level": "Unknown",
    "country_iso3_code": "HUN",
    "giga_id_school": "16448381-0d09-3858-8061-c652622d573e",
    "school_data_source": null
  },
  {
    "school_name": "Széchenyi Utcai Tagóvoda",
    "longitude": 18.915708541870117,
    "latitude": 47.61598587036133,
    "education_level": "Unknown",
    "country_iso3_code": "HUN",
    "giga_id_school": "c7783244-c104-3b4b-aa92-aa8dc045966e",
    "school_data_source": null
  },
  {
    "school_name": "Nevelési Tanácsadó",
    "longitude": 18.91990852355957,
    "latitude": 47.6131591796875,
    "education_level": "Unknown",
    "country_iso3_code": "HUN",
    "giga_id_school": "21949622-3d0d-31dd-a21d-5d9f387bb4f4",
    "school_data_source": null
  },
  {
    "school_name": "Német nemzetiségi általános iskola és művészeti iskola",
    "longitude": 18.898115158081055,
    "latitude": 47.6096076965332,
    "education_level": "Unknown",
    "country_iso3_code": "HUN",
    "giga_id_school": "8a3147d1-7d52-3edd-a582-bb8c03707a3a",
    "school_data_source": null
  },
  {
    "school_name": "Palánta Általános Iskola",
    "longitude": 18.90036964416504,
    "latitude": 47.614505767822266,
    "education_level": "Unknown",
    "country_iso3_code": "HUN",
    "giga_id_school": "d863ef1f-ce28-3ab2-afbe-80c201826267",
    "school_data_source": null
  },
  {
    "school_name": "Orosz iskola",
    "longitude": 19.0786075592041,
    "latitude": 47.52281188964844,
    "education_level": "Unknown",
    "country_iso3_code": "HUN",
    "giga_id_school": "df3208a5-5daf-30fb-8c35-3f0f04201428",
    "school_data_source": null
  },
  {
    "school_name": "Ének-zenei és Testnevelési Általános Iskola",
    "longitude": 19.068729400634766,
    "latitude": 47.5210075378418,
    "education_level": "Unknown",
    "country_iso3_code": "HUN",
    "giga_id_school": "768f3258-2aec-37f4-a827-7d0f7ffc34ab",
    "school_data_source": null
  },
  {
    "school_name": "Vivaldi Alapfokú Művészeti Iskola",
    "longitude": 18.94431495666504,
    "latitude": 47.4627571105957,
    "education_level": "Unknown",
    "country_iso3_code": "HUN",
    "giga_id_school": "aa654fb3-f5fa-3222-97f7-afb2b4db01de",
    "school_data_source": null
  },
  {
    "school_name": "Magyar Hajózási Szakközépiskola és Szakiskola",
    "longitude": 19.09063720703125,
    "latitude": 47.543067932128906,
    "education_level": "Unknown",
    "country_iso3_code": "HUN",
    "giga_id_school": "b0dbc7bf-1960-356b-8620-045a8379c1cb",
    "school_data_source": null
  },
  {
    "school_name": "Véméndi Általános Iskola",
    "longitude": 18.614608764648438,
    "latitude": 46.155914306640625,
    "education_level": "Unknown",
    "country_iso3_code": "HUN",
    "giga_id_school": "60a7d65a-b64f-3f4d-a872-175449de28e7",
    "school_data_source": null
  },
  {
    "school_name": "Arany János Általános Iskola - Széchenyi Telephely",
    "longitude": 19.72915267944336,
    "latitude": 46.48798370361328,
    "education_level": "Unknown",
    "country_iso3_code": "HUN",
    "giga_id_school": "c1704f7b-9f03-36c0-8e27-0b2325a54e73",
    "school_data_source": null
  },
  {
    "school_name": "Móra Ferenc Általános Iskola",
    "longitude": 19.511516571044922,
    "latitude": 47.56393814086914,
    "education_level": "Unknown",
    "country_iso3_code": "HUN",
    "giga_id_school": "87ba20d4-4348-302f-9fbb-e56b2f77f377",
    "school_data_source": null
  },
  {
    "school_name": "Általános Iskola Csobánka",
    "longitude": 18.965105056762695,
    "latitude": 47.641109466552734,
    "education_level": "Unknown",
    "country_iso3_code": "HUN",
    "giga_id_school": "c1b086f8-1099-3e2f-b47b-956891d19cff",
    "school_data_source": null
  },
  {
    "school_name": "Modell Divatiskola",
    "longitude": 19.05876350402832,
    "latitude": 47.52367401123047,
    "education_level": "Unknown",
    "country_iso3_code": "HUN",
    "giga_id_school": "2637ed78-c873-34c0-8cb9-abb951e3cc10",
    "school_data_source": null
  },
  {
    "school_name": "Szilágyi Erzsébet Gimnázium",
    "longitude": 19.029987335205078,
    "latitude": 47.49624252319336,
    "education_level": "Unknown",
    "country_iso3_code": "HUN",
    "giga_id_school": "a397a5ee-980e-3eaf-a239-73c611c725a6",
    "school_data_source": null
  },
  {
    "school_name": "MH Kinizsi Pál Tiszthelyettes Szakképző Iskola",
    "longitude": 19.07492446899414,
    "latitude": 47.654380798339844,
    "education_level": "Unknown",
    "country_iso3_code": "HUN",
    "giga_id_school": "47aab413-bfe8-3bd6-9e91-a90103e985f9",
    "school_data_source": null
  },
  {
    "school_name": "Bacsó Béla úti Általános Iskola",
    "longitude": 20.429174423217773,
    "latitude": 47.17595291137695,
    "education_level": "Unknown",
    "country_iso3_code": "HUN",
    "giga_id_school": "99b21e0d-16e5-30a1-a760-ba7513351885",
    "school_data_source": null
  },
  {
    "school_name": "Jurisics Miklós úti Általános Iskola",
    "longitude": 18.211162567138672,
    "latitude": 46.082035064697266,
    "education_level": "Unknown",
    "country_iso3_code": "HUN",
    "giga_id_school": "83afd16e-cc9f-3ddc-b9b2-ace2f1f59f3c",
    "school_data_source": null
  },
  {
    "school_name": "Bolyai János Gimnázium és Szakközépiskola",
    "longitude": 19.228336334228516,
    "latitude": 47.29777145385742,
    "education_level": "Unknown",
    "country_iso3_code": "HUN",
    "giga_id_school": "c84facb4-c4d0-3a5c-9212-a258fa3e861d",
    "school_data_source": null
  },
  {
    "school_name": "Halászy Károly Általános iskola",
    "longitude": 19.223901748657227,
    "latitude": 47.29640197753906,
    "education_level": "Unknown",
    "country_iso3_code": "HUN",
    "giga_id_school": "8e765df9-7105-3af0-add2-a83479d4e6d0",
    "school_data_source": null
  },
  {
    "school_name": "Kölcsey Ferenc Általános Iskola",
    "longitude": 20.407678604125977,
    "latitude": 47.18212127685547,
    "education_level": "Unknown",
    "country_iso3_code": "HUN",
    "giga_id_school": "cc1daa2c-8844-3532-8c10-ed0e8df1898d",
    "school_data_source": null
  },
  {
    "school_name": "ELTE ITK (Rigó utca)",
    "longitude": 19.073257446289062,
    "latitude": 47.48988723754883,
    "education_level": "Unknown",
    "country_iso3_code": "HUN",
    "giga_id_school": "acfe0381-63d1-3536-a31f-1715556491e4",
    "school_data_source": null
  },
  {
    "school_name": "Atalanta Oktatási Központ",
    "longitude": 19.080862045288086,
    "latitude": 47.485782623291016,
    "education_level": "Unknown",
    "country_iso3_code": "HUN",
    "giga_id_school": "9ac0c9f2-dd03-3772-821b-038ef63f9055",
    "school_data_source": null
  },
  {
    "school_name": "Hunyadi Mátyás Szakképző és Szakközépiskola",
    "longitude": 17.273603439331055,
    "latitude": 47.869686126708984,
    "education_level": "Unknown",
    "country_iso3_code": "HUN",
    "giga_id_school": "e89861b3-85ba-32cc-9b9b-408c33c2ed31",
    "school_data_source": null
  },
  {
    "school_name": "Általános Iskola",
    "longitude": 18.769792556762695,
    "latitude": 47.68097686767578,
    "education_level": "Unknown",
    "country_iso3_code": "HUN",
    "giga_id_school": "2e05febb-178d-30af-8fcb-2df2a67fadd8",
    "school_data_source": null
  },
  {
    "school_name": "Kőrösi Csoma Sándor Általános Iskola",
    "longitude": 20.17717742919922,
    "latitude": 47.17635726928711,
    "education_level": "Unknown",
    "country_iso3_code": "HUN",
    "giga_id_school": "4c737372-14e4-35d2-bd3b-e4d50387865b",
    "school_data_source": null
  },
  {
    "school_name": "Szent Márton Általános Iskola",
    "longitude": 17.40607261657715,
    "latitude": 47.88623809814453,
    "education_level": "Unknown",
    "country_iso3_code": "HUN",
    "giga_id_school": "7d31f529-2547-3e4b-8641-6cf7e9476845",
    "school_data_source": null
  },
  {
    "school_name": "Mikszáth Kálmán Általános Iskola",
    "longitude": 19.115806579589844,
    "latitude": 47.38750076293945,
    "education_level": "Unknown",
    "country_iso3_code": "HUN",
    "giga_id_school": "3c8515bd-55d0-3640-9229-289a09b839ac",
    "school_data_source": null
  },
  {
    "school_name": "Grassalkovich Antal Általános Iskola",
    "longitude": 19.116546630859375,
    "latitude": 47.39896011352539,
    "education_level": "Unknown",
    "country_iso3_code": "HUN",
    "giga_id_school": "2832358d-e1e8-3d42-bc23-ddced52b99ad",
    "school_data_source": null
  },
  {
    "school_name": "Keresztúri Dezső",
    "longitude": 19.152992248535156,
    "latitude": 47.500816345214844,
    "education_level": "Unknown",
    "country_iso3_code": "HUN",
    "giga_id_school": "a11a8434-af0b-32cc-8472-ab683d51452a",
    "school_data_source": null
  },
  {
    "school_name": "Belvárosi Tanoda Alapítványi Gimnázium és Szakközépiskola",
    "longitude": 19.055295944213867,
    "latitude": 47.491455078125,
    "education_level": "Unknown",
    "country_iso3_code": "HUN",
    "giga_id_school": "d56e43ac-5b76-3fb5-8b83-9a799c661a90",
    "school_data_source": null
  },
  {
    "school_name": "Óbudai Egyetem TG.",
    "longitude": 19.07804298400879,
    "latitude": 47.4911994934082,
    "education_level": "Unknown",
    "country_iso3_code": "HUN",
    "giga_id_school": "e12dca3f-b930-3be5-a021-d9f67bbdd7cf",
    "school_data_source": null
  },
  {
    "school_name": "Dány, Általános iskola",
    "longitude": 19.547616958618164,
    "latitude": 47.521968841552734,
    "education_level": "Unknown",
    "country_iso3_code": "HUN",
    "giga_id_school": "f882ccba-e3f3-349e-a5cf-214952e66ec9",
    "school_data_source": null
  },
  {
    "school_name": "Nyaralói Iskola",
    "longitude": 19.358379364013672,
    "latitude": 47.44028091430664,
    "education_level": "Unknown",
    "country_iso3_code": "HUN",
    "giga_id_school": "3b46843f-9582-3d1f-9fe1-eeb63d94b5aa",
    "school_data_source": null
  },
  {
    "school_name": "Jálics Ernő Iskola",
    "longitude": 17.6155948638916,
    "latitude": 46.22974395751953,
    "education_level": "Unknown",
    "country_iso3_code": "HUN",
    "giga_id_school": "cc58b1b2-36cc-3b22-8bc4-18de13a7d97f",
    "school_data_source": null
  },
  {
    "school_name": "Új Budai Alma Mater",
    "longitude": 18.98529815673828,
    "latitude": 47.44549560546875,
    "education_level": "Unknown",
    "country_iso3_code": "HUN",
    "giga_id_school": "c5d0461a-3385-3462-b184-b61ac81f29ce",
    "school_data_source": null
  },
  {
    "school_name": "Fáy András Görögkatolikus Közgazdasági Szakgimnázium",
    "longitude": 20.7839412689209,
    "latitude": 48.08534240722656,
    "education_level": "Unknown",
    "country_iso3_code": "HUN",
    "giga_id_school": "f1fc4673-8fc8-30b1-a1e2-a13f343c3b75",
    "school_data_source": null
  },
  {
    "school_name": "Haller János Általános, Szakközép-és Szakiskola",
    "longitude": 17.272214889526367,
    "latitude": 47.8553466796875,
    "education_level": "Unknown",
    "country_iso3_code": "HUN",
    "giga_id_school": "b96717b5-9273-34d9-a898-993589f38da2",
    "school_data_source": null
  },
  {
    "school_name": "Éltes Mátyás Általános Iskola és Diákotthon",
    "longitude": 17.270715713500977,
    "latitude": 47.871036529541016,
    "education_level": "Unknown",
    "country_iso3_code": "HUN",
    "giga_id_school": "a350138c-125c-3b33-99d1-d2cac19898c4",
    "school_data_source": null
  },
  {
    "school_name": "Romhányi György Általános Iskola",
    "longitude": 18.519880294799805,
    "latitude": 47.47673034667969,
    "education_level": "Unknown",
    "country_iso3_code": "HUN",
    "giga_id_school": "b77d9211-1130-338c-b2a0-995b236484ae",
    "school_data_source": null
  },
  {
    "school_name": "Egressy Béni Alapfokú Művészetoktatási intézmény",
    "longitude": 19.738506317138672,
    "latitude": 46.4922981262207,
    "education_level": "Unknown",
    "country_iso3_code": "HUN",
    "giga_id_school": "532aa8a8-5c09-3adc-bc9a-e90142b99436",
    "school_data_source": null
  },
  {
    "school_name": "Szent Gellért Katolikus Általános Iskola",
    "longitude": 19.737712860107422,
    "latitude": 46.49277114868164,
    "education_level": "Unknown",
    "country_iso3_code": "HUN",
    "giga_id_school": "f46ee823-3056-3b89-9786-6e07d42e03d2",
    "school_data_source": null
  },
  {
    "school_name": "Gyermekház iskola",
    "longitude": 19.066598892211914,
    "latitude": 47.53131103515625,
    "education_level": "Unknown",
    "country_iso3_code": "HUN",
    "giga_id_school": "27d01031-061f-39f9-aec6-96bf734bd841",
    "school_data_source": null
  },
  {
    "school_name": "Prizma Általános Iskola és Óvoda",
    "longitude": 19.066312789916992,
    "latitude": 47.530757904052734,
    "education_level": "Unknown",
    "country_iso3_code": "HUN",
    "giga_id_school": "56457eab-e29b-3e53-875e-dc61fbc82c5d",
    "school_data_source": null
  },
  {
    "school_name": "Mustármag Keresztény Általános Iskola és Gimnázium",
    "longitude": 19.04552459716797,
    "latitude": 47.601192474365234,
    "education_level": "Unknown",
    "country_iso3_code": "HUN",
    "giga_id_school": "8a9c82ff-129c-3d71-979d-2e3cf211a880",
    "school_data_source": null
  },
  {
    "school_name": "Bárczi Géza Általános Iskola",
    "longitude": 19.047300338745117,
    "latitude": 47.59507751464844,
    "education_level": "Unknown",
    "country_iso3_code": "HUN",
    "giga_id_school": "5f87d066-536c-323c-8922-15c16f751b96",
    "school_data_source": null
  },
  {
    "school_name": "Gróf Széchényi Imre Általános Iskola",
    "longitude": 17.879859924316406,
    "latitude": 46.84803771972656,
    "education_level": "Unknown",
    "country_iso3_code": "HUN",
    "giga_id_school": "6085f963-1855-38ca-815a-a9d96f070288",
    "school_data_source": null
  },
  {
    "school_name": "Kossuth Lajos Általános Iskola",
    "longitude": 19.303895950317383,
    "latitude": 47.46417999267578,
    "education_level": "Unknown",
    "country_iso3_code": "HUN",
    "giga_id_school": "8c88b60c-588a-301c-b723-17aab8143eb9",
    "school_data_source": null
  },
  {
    "school_name": "Általános iskola",
    "longitude": 17.488048553466797,
    "latitude": 47.72764587402344,
    "education_level": "Unknown",
    "country_iso3_code": "HUN",
    "giga_id_school": "8820254b-bd95-39ba-afe5-a3e76a71855f",
    "school_data_source": null
  },
  {
    "school_name": "Batthyány Kázmér Általános Iskola",
    "longitude": 18.2882080078125,
    "latitude": 45.85904312133789,
    "education_level": "Unknown",
    "country_iso3_code": "HUN",
    "giga_id_school": "6f7fb0a1-f245-3053-aaca-c812f6cea7de",
    "school_data_source": null
  },
  {
    "school_name": "Kanizsai Dorottya Általános Iskola",
    "longitude": 18.29722023010254,
    "latitude": 45.85789489746094,
    "education_level": "Unknown",
    "country_iso3_code": "HUN",
    "giga_id_school": "9ee39c71-e24a-3a7a-b3a8-0cb5f5b54475",
    "school_data_source": null
  },
  {
    "school_name": "Szent Imre Katolikus Iskola",
    "longitude": 18.298851013183594,
    "latitude": 45.85224533081055,
    "education_level": "Unknown",
    "country_iso3_code": "HUN",
    "giga_id_school": "6b875a0e-1bac-3dab-8ab8-9a2b113c0425",
    "school_data_source": null
  },
  {
    "school_name": "Kolonics György Általános Iskola",
    "longitude": 19.03548240661621,
    "latitude": 47.43364334106445,
    "education_level": "Unknown",
    "country_iso3_code": "HUN",
    "giga_id_school": "10940024-1f13-3e83-b283-6ea0fb98bf3e",
    "school_data_source": null
  },
  {
    "school_name": "Csuha Antal Általános Iskola (felső tagozat)",
    "longitude": 21.760465621948242,
    "latitude": 48.13197326660156,
    "education_level": "Unknown",
    "country_iso3_code": "HUN",
    "giga_id_school": "e4703d73-f0df-3fa0-8504-fb1abe1423a0",
    "school_data_source": null
  },
  {
    "school_name": "Csuha Antal Általános Iskola (alsó tagozat)",
    "longitude": 21.763050079345703,
    "latitude": 48.128780364990234,
    "education_level": "Unknown",
    "country_iso3_code": "HUN",
    "giga_id_school": "afcaa0cc-0045-3ed2-b712-e3c03ae66b5b",
    "school_data_source": null
  },
  {
    "school_name": "Általános és Vermesy Péter Művészeti Iskola",
    "longitude": 19.348735809326172,
    "latitude": 47.44225311279297,
    "education_level": "Unknown",
    "country_iso3_code": "HUN",
    "giga_id_school": "707045d8-fd26-3e93-b173-171d13437283",
    "school_data_source": null
  },
  {
    "school_name": "Nemeskócsag Általános Iskola",
    "longitude": 18.54486846923828,
    "latitude": 47.21933364868164,
    "education_level": "Unknown",
    "country_iso3_code": "HUN",
    "giga_id_school": "c550d355-9102-3779-a4df-4577c0da5a79",
    "school_data_source": null
  },
  {
    "school_name": "Arany János Általános Iskola",
    "longitude": 17.64876365661621,
    "latitude": 46.14571762084961,
    "education_level": "Unknown",
    "country_iso3_code": "HUN",
    "giga_id_school": "d1f85c7b-951b-37bd-8d83-07db568d7c72",
    "school_data_source": null
  },
  {
    "school_name": "Károli Gáspár Református Egyetem Tanítóképző Főiskolai Kar",
    "longitude": 19.7850284576416,
    "latitude": 47.03497314453125,
    "education_level": "Unknown",
    "country_iso3_code": "HUN",
    "giga_id_school": "6a48c872-731d-35f6-91ab-b428338d2f75",
    "school_data_source": null
  },
  {
    "school_name": "NKH Személyi Vizsgabázis",
    "longitude": 19.050966262817383,
    "latitude": 47.38584518432617,
    "education_level": "Unknown",
    "country_iso3_code": "HUN",
    "giga_id_school": "9955788f-d603-3a02-bc6b-4cd560becb4f",
    "school_data_source": null
  },
  {
    "school_name": "Zrínyi Miklós Általános Iskola",
    "longitude": 19.29247283935547,
    "latitude": 47.47119903564453,
    "education_level": "Unknown",
    "country_iso3_code": "HUN",
    "giga_id_school": "a3413dcc-7248-34ca-8f52-c9376e3c302f",
    "school_data_source": null
  },
  {
    "school_name": "Régi Iskola",
    "longitude": 20.27607536315918,
    "latitude": 46.15028381347656,
    "education_level": "Unknown",
    "country_iso3_code": "HUN",
    "giga_id_school": "1eacfe51-9157-3934-a755-0a0838ab46cc",
    "school_data_source": null
  },
  {
    "school_name": "Feszty",
    "longitude": 18.13454818725586,
    "latitude": 47.74037551879883,
    "education_level": "Unknown",
    "country_iso3_code": "HUN",
    "giga_id_school": "b4adbb7f-0bdc-38a3-be68-7b54961f41c8",
    "school_data_source": null
  },
  {
    "school_name": "Somogyi József Általános Iskola",
    "longitude": 18.073015213012695,
    "latitude": 46.884578704833984,
    "education_level": "Unknown",
    "country_iso3_code": "HUN",
    "giga_id_school": "4a0824ec-5617-37f0-81a3-8abcd0334d4a",
    "school_data_source": null
  },
  {
    "school_name": "Nádorvárosi Közoktatási Központ",
    "longitude": 17.631153106689453,
    "latitude": 47.67716598510742,
    "education_level": "Unknown",
    "country_iso3_code": "HUN",
    "giga_id_school": "40ed68c7-4481-30d6-bbf3-e20b47e6cf3e",
    "school_data_source": null
  },
  {
    "school_name": "Simon István Általános Iskola",
    "longitude": 17.57054901123047,
    "latitude": 47.138450622558594,
    "education_level": "Unknown",
    "country_iso3_code": "HUN",
    "giga_id_school": "97dbc85c-e3a5-3750-b078-00608d0a1d88",
    "school_data_source": null
  },
  {
    "school_name": "5. Iskola",
    "longitude": 19.69150733947754,
    "latitude": 47.66809844970703,
    "education_level": "Unknown",
    "country_iso3_code": "HUN",
    "giga_id_school": "8ad9edfa-6270-3a6a-b0f5-0b9c4108027c",
    "school_data_source": null
  },
  {
    "school_name": "Doborjáni Ferenc Speciális Oktatási és Nevelési Intézmény",
    "longitude": 16.52814483642578,
    "latitude": 47.67909240722656,
    "education_level": "Unknown",
    "country_iso3_code": "HUN",
    "giga_id_school": "3a6a2161-e2c5-3885-918d-6878ac64cabc",
    "school_data_source": null
  },
  {
    "school_name": "Hétszínvirág Művészeti Óvoda",
    "longitude": 19.349838256835938,
    "latitude": 47.442752838134766,
    "education_level": "Unknown",
    "country_iso3_code": "HUN",
    "giga_id_school": "e9df84ac-dd03-3f72-867e-02b71ec6a489",
    "school_data_source": null
  },
  {
    "school_name": "Móricz Zsigmond Református Gimnázium és Szakközépiskola",
    "longitude": 20.75994300842285,
    "latitude": 47.21799850463867,
    "education_level": "Unknown",
    "country_iso3_code": "HUN",
    "giga_id_school": "59f6d6d5-821a-3903-b010-40852ccbca44",
    "school_data_source": null
  },
  {
    "school_name": "Illéssy Sándor Baptista Gimnázium, Szakgimnázium és Szakközépiskola",
    "longitude": 20.7581729888916,
    "latitude": 47.21892547607422,
    "education_level": "Unknown",
    "country_iso3_code": "HUN",
    "giga_id_school": "05296a8f-e7a6-3e55-93e9-cbdf636ad256",
    "school_data_source": null
  },
  {
    "school_name": "Kossuth Lajos Baptista Általános Iskola és Kollégium",
    "longitude": 20.753816604614258,
    "latitude": 47.21829605102539,
    "education_level": "Unknown",
    "country_iso3_code": "HUN",
    "giga_id_school": "c82f8bc5-3fe7-3395-bd3e-93eb500988d1",
    "school_data_source": null
  },
  {
    "school_name": "Református Általános Iskola",
    "longitude": 20.75827980041504,
    "latitude": 47.21833419799805,
    "education_level": "Unknown",
    "country_iso3_code": "HUN",
    "giga_id_school": "cd5e7b0d-a3bb-3667-a417-d9d4146dc671",
    "school_data_source": null
  },
  {
    "school_name": "Zeneiskola",
    "longitude": 20.753957748413086,
    "latitude": 47.219181060791016,
    "education_level": "Unknown",
    "country_iso3_code": "HUN",
    "giga_id_school": "24eb409b-3d03-3ccc-ae35-9dcf03ce5b4b",
    "school_data_source": null
  },
  {
    "school_name": "Minerva Érettségizettek Szakközépiskolája",
    "longitude": 19.05624771118164,
    "latitude": 47.51383590698242,
    "education_level": "Unknown",
    "country_iso3_code": "HUN",
    "giga_id_school": "dc1963cc-d7fd-31fb-a3d8-87224c309b32",
    "school_data_source": null
  },
  {
    "school_name": "Pallas 70 Oktató és Vizsgaközpont",
    "longitude": 19.056278228759766,
    "latitude": 47.513885498046875,
    "education_level": "Unknown",
    "country_iso3_code": "HUN",
    "giga_id_school": "46d3fa37-b0ac-3836-93c5-aa03a5d427e8",
    "school_data_source": null
  },
  {
    "school_name": "Andor Ilona Ének-Zenei Általános és Alapfokú Művészeti Baptista Iskola",
    "longitude": 19.043331146240234,
    "latitude": 47.53718566894531,
    "education_level": "Unknown",
    "country_iso3_code": "HUN",
    "giga_id_school": "9c914888-f029-3409-a654-4ab5628a7868",
    "school_data_source": null
  },
  {
    "school_name": "Báthori István középiskola",
    "longitude": 21.489534378051758,
    "latitude": 47.46970748901367,
    "education_level": "Unknown",
    "country_iso3_code": "HUN",
    "giga_id_school": "24d8fda6-04e0-38aa-a408-5ee061896e15",
    "school_data_source": null
  },
  {
    "school_name": "Benedek Elek Általános Iskola",
    "longitude": 21.638540267944336,
    "latitude": 47.531002044677734,
    "education_level": "Unknown",
    "country_iso3_code": "HUN",
    "giga_id_school": "bc001b90-47a1-35eb-89d1-48939c5de31f",
    "school_data_source": null
  },
  {
    "school_name": "Sallai István Általános Iskola",
    "longitude": 19.493703842163086,
    "latitude": 46.2789421081543,
    "education_level": "Unknown",
    "country_iso3_code": "HUN",
    "giga_id_school": "2ee40705-2a39-3fe0-a78e-363e058868b1",
    "school_data_source": null
  },
  {
    "school_name": "Árpád Vezér Általános Iskola",
    "longitude": 21.60637664794922,
    "latitude": 47.55537796020508,
    "education_level": "Unknown",
    "country_iso3_code": "HUN",
    "giga_id_school": "a44782db-8f4c-383d-b244-e96bd4eab053",
    "school_data_source": null
  },
  {
    "school_name": "TIT Alapítványi Iskola",
    "longitude": 17.451847076416016,
    "latitude": 45.95691680908203,
    "education_level": "Unknown",
    "country_iso3_code": "HUN",
    "giga_id_school": "90f8ddea-bb2c-365f-81c0-a6a4b7abfa75",
    "school_data_source": null
  },
  {
    "school_name": "Kiss Géza Általános Iskola",
    "longitude": 17.847806930541992,
    "latitude": 45.874717712402344,
    "education_level": "Unknown",
    "country_iso3_code": "HUN",
    "giga_id_school": "6ba4cdda-cf5f-3a5f-9e8c-0a340c39dbf9",
    "school_data_source": null
  },
  {
    "school_name": "Andocsi Általános Iskola",
    "longitude": 17.925819396972656,
    "latitude": 46.648643493652344,
    "education_level": "Unknown",
    "country_iso3_code": "HUN",
    "giga_id_school": "d80810fc-b621-3edf-b133-3649931de28c",
    "school_data_source": null
  },
  {
    "school_name": "Jelky András Ruhaipari és Művészeti Szakközépiskola",
    "longitude": 19.072463989257812,
    "latitude": 47.49232864379883,
    "education_level": "Unknown",
    "country_iso3_code": "HUN",
    "giga_id_school": "aa5ee791-aab3-3e1f-859f-471b4dac4311",
    "school_data_source": null
  },
  {
    "school_name": "Lórántffy Zsuzsanna Szakközépiskola és Szakiskola",
    "longitude": 18.927230834960938,
    "latitude": 46.96089172363281,
    "education_level": "Unknown",
    "country_iso3_code": "HUN",
    "giga_id_school": "aac7db5b-066c-371a-92ba-a2461057cb5e",
    "school_data_source": null
  },
  {
    "school_name": "VM DASZK, Szakképző Iskola",
    "longitude": 17.849153518676758,
    "latitude": 45.87065887451172,
    "education_level": "Unknown",
    "country_iso3_code": "HUN",
    "giga_id_school": "fb65c80e-4169-32ca-9f0e-03582667b140",
    "school_data_source": null
  },
  {
    "school_name": "Fecskeház Erdei Iskola",
    "longitude": 21.1448974609375,
    "latitude": 47.594303131103516,
    "education_level": "Unknown",
    "country_iso3_code": "HUN",
    "giga_id_school": "31b9e589-6295-3103-a4f7-c57b2b078223",
    "school_data_source": null
  },
  {
    "school_name": "Vásárhelyi Pál iskola",
    "longitude": 19.656219482421875,
    "latitude": 46.89460372924805,
    "education_level": "Unknown",
    "country_iso3_code": "HUN",
    "giga_id_school": "a24f5ced-cb6c-301d-a1b4-549126c36a5c",
    "school_data_source": null
  },
  {
    "school_name": "Bán Aladár Általános Iskola",
    "longitude": 18.130586624145508,
    "latitude": 47.200599670410156,
    "education_level": "Unknown",
    "country_iso3_code": "HUN",
    "giga_id_school": "10057942-6108-335c-9234-09eb3bad6c05",
    "school_data_source": null
  },
  {
    "school_name": "Ady Endre Gimnázium",
    "longitude": 21.627744674682617,
    "latitude": 47.5306510925293,
    "education_level": "Unknown",
    "country_iso3_code": "HUN",
    "giga_id_school": "42338ef1-f9c1-3cbe-9ec5-0f8ba326817a",
    "school_data_source": null
  },
  {
    "school_name": "Bíró Lajos Általános Iskola",
    "longitude": 19.045734405517578,
    "latitude": 47.34882736206055,
    "education_level": "Unknown",
    "country_iso3_code": "HUN",
    "giga_id_school": "f5b213bd-d074-3072-bb2e-7a0ba07d7d45",
    "school_data_source": null
  },
  {
    "school_name": "Aba Sámuel Általános Iskola",
    "longitude": 20.003408432006836,
    "latitude": 47.79539489746094,
    "education_level": "Unknown",
    "country_iso3_code": "HUN",
    "giga_id_school": "3f76f463-7755-3faf-af8b-a81192a1bb93",
    "school_data_source": null
  },
  {
    "school_name": "II. János Pál Általános Iskola",
    "longitude": 19.25320053100586,
    "latitude": 46.5228157043457,
    "education_level": "Unknown",
    "country_iso3_code": "HUN",
    "giga_id_school": "68b61df9-97f5-39b3-8d1e-1f9e23d26be2",
    "school_data_source": null
  },
  {
    "school_name": "Karácsony János Katolikus Általános Iskola",
    "longitude": 21.275146484375,
    "latitude": 46.64668655395508,
    "education_level": "Unknown",
    "country_iso3_code": "HUN",
    "giga_id_school": "97e32913-d1c3-355a-9495-ef60f1baf181",
    "school_data_source": null
  },
  {
    "school_name": "Széchenyi István Általános Iskola",
    "longitude": 19.283018112182617,
    "latitude": 47.56648635864258,
    "education_level": "Unknown",
    "country_iso3_code": "HUN",
    "giga_id_school": "59313b25-bb15-3c7b-89c2-b9f5a34bd1c2",
    "school_data_source": null
  },
  {
    "school_name": "Haj-Tan fodrász iskola",
    "longitude": 19.29277229309082,
    "latitude": 47.46994400024414,
    "education_level": "Unknown",
    "country_iso3_code": "HUN",
    "giga_id_school": "4560ca0f-039f-37ed-b061-8336ced81c56",
    "school_data_source": null
  },
  {
    "school_name": "Madách Musical Tánciskola",
    "longitude": 19.1147518157959,
    "latitude": 47.51613235473633,
    "education_level": "Unknown",
    "country_iso3_code": "HUN",
    "giga_id_school": "a092476e-6675-3587-a4c5-d47db34ff157",
    "school_data_source": null
  },
  {
    "school_name": "Száraznád Nevelési-Oktatási Központ",
    "longitude": 19.137845993041992,
    "latitude": 47.54283905029297,
    "education_level": "Unknown",
    "country_iso3_code": "HUN",
    "giga_id_school": "c3310ee0-6741-3374-932a-ee8ae56c9b4c",
    "school_data_source": null
  },
  {
    "school_name": "Kolozsvár Általános Iskola és Összevont Óvoda",
    "longitude": 19.12004280090332,
    "latitude": 47.54127502441406,
    "education_level": "Unknown",
    "country_iso3_code": "HUN",
    "giga_id_school": "74c5cc77-cd3f-3167-8f81-0c0c95a955cb",
    "school_data_source": null
  },
  {
    "school_name": "Budapesti Kommunikációs és Üzleti Főiskola",
    "longitude": 19.129375457763672,
    "latitude": 47.521942138671875,
    "education_level": "Unknown",
    "country_iso3_code": "HUN",
    "giga_id_school": "21a87e57-eb88-38c8-98e2-f619624f588a",
    "school_data_source": null
  },
  {
    "school_name": "Gyárvárosi iskola",
    "longitude": 18.263103485107422,
    "latitude": 46.082950592041016,
    "education_level": "Unknown",
    "country_iso3_code": "HUN",
    "giga_id_school": "ca118073-6055-3944-9fe0-defc064cdda4",
    "school_data_source": null
  },
  {
    "school_name": "Hajnóczy József Kollégium",
    "longitude": 18.26240348815918,
    "latitude": 46.08454513549805,
    "education_level": "Unknown",
    "country_iso3_code": "HUN",
    "giga_id_school": "95ee40ac-90c8-3da1-9aee-6114dd6da05e",
    "school_data_source": null
  },
  {
    "school_name": "Szlovák Nemzetiségi Általános Iskola",
    "longitude": 18.88509178161621,
    "latitude": 47.66872024536133,
    "education_level": "Unknown",
    "country_iso3_code": "HUN",
    "giga_id_school": "f37707ea-9d41-37b9-8e56-3a61b5301e9f",
    "school_data_source": null
  },
  {
    "school_name": "Batthyány-Strattmann László Szakképző Iskola és Gimnázium",
    "longitude": 19.08649253845215,
    "latitude": 47.50626754760742,
    "education_level": "Unknown",
    "country_iso3_code": "HUN",
    "giga_id_school": "22fc6bd6-59dd-31d1-ba72-202e58da8a68",
    "school_data_source": null
  },
  {
    "school_name": "Európa 2000 Közgazdasági, Idegenforgalmi és Informatikai Középiskola",
    "longitude": 19.09819221496582,
    "latitude": 47.509456634521484,
    "education_level": "Unknown",
    "country_iso3_code": "HUN",
    "giga_id_school": "4589247b-dacf-3969-b79d-952b07a7ef61",
    "school_data_source": null
  },
  {
    "school_name": "Teleki Blanka Gimnázium",
    "longitude": 19.094593048095703,
    "latitude": 47.51305389404297,
    "education_level": "Unknown",
    "country_iso3_code": "HUN",
    "giga_id_school": "c84dbba0-c76d-3c25-a80b-6cc38cf7c98a",
    "school_data_source": null
  },
  {
    "school_name": "Szász Ferenc Kereskedelmi Szakközépiskola és Szakiskola",
    "longitude": 19.106910705566406,
    "latitude": 47.49898147583008,
    "education_level": "Unknown",
    "country_iso3_code": "HUN",
    "giga_id_school": "9aa668e4-6cd7-3d86-8b76-3b91b0aedc9f",
    "school_data_source": null
  },
  {
    "school_name": "Vörösmarty Mihály Általános Iskola és Gimnázium",
    "longitude": 19.163267135620117,
    "latitude": 47.440120697021484,
    "education_level": "Unknown",
    "country_iso3_code": "HUN",
    "giga_id_school": "31ff5537-f698-35c9-9f31-ebbc7a89a576",
    "school_data_source": null
  },
  {
    "school_name": "Kavulák János Általános és Zeneiskola",
    "longitude": 17.155488967895508,
    "latitude": 46.207637786865234,
    "education_level": "Unknown",
    "country_iso3_code": "HUN",
    "giga_id_school": "06fb5bd3-ce72-3bd7-b6f6-d33c684e493b",
    "school_data_source": null
  },
  {
    "school_name": "Söjtöri Általános Iskola",
    "longitude": 16.855207443237305,
    "latitude": 46.670928955078125,
    "education_level": "Unknown",
    "country_iso3_code": "HUN",
    "giga_id_school": "d3f1f54f-934a-3ce2-9b86-a8901ca0ad1f",
    "school_data_source": null
  },
  {
    "school_name": "Flestár Péter Egyesített Iskola Városföldi Tagintézete",
    "longitude": 19.758686065673828,
    "latitude": 46.8167839050293,
    "education_level": "Unknown",
    "country_iso3_code": "HUN",
    "giga_id_school": "07cc3ff8-66e5-3a35-b3a9-43b8e45607b5",
    "school_data_source": null
  },
  {
    "school_name": "Baross Gábor Körzeti Általános Iskola",
    "longitude": 20.637527465820312,
    "latitude": 48.16707229614258,
    "education_level": "Unknown",
    "country_iso3_code": "HUN",
    "giga_id_school": "927ebb6f-b7d7-34fd-8543-da89e0c9ef95",
    "school_data_source": null
  },
  {
    "school_name": "Székely Mihály Általános Iskola",
    "longitude": 19.9113712310791,
    "latitude": 47.50434875488281,
    "education_level": "Unknown",
    "country_iso3_code": "HUN",
    "giga_id_school": "239f7e32-3783-393c-b9cb-da8db15eed7a",
    "school_data_source": null
  },
  {
    "school_name": "Palotásy János Zeneiskola",
    "longitude": 19.91292953491211,
    "latitude": 47.50495910644531,
    "education_level": "Unknown",
    "country_iso3_code": "HUN",
    "giga_id_school": "ccdda168-68d7-31a5-aae9-442b7ce90123",
    "school_data_source": null
  },
  {
    "school_name": "Lehel Vezér Gimnázium",
    "longitude": 19.912033081054688,
    "latitude": 47.502357482910156,
    "education_level": "Unknown",
    "country_iso3_code": "HUN",
    "giga_id_school": "9d208e21-2d10-33fe-8bdc-6e8f039a3502",
    "school_data_source": null
  },
  {
    "school_name": "Neumann János Általános Iskola",
    "longitude": 19.30774688720703,
    "latitude": 47.66831588745117,
    "education_level": "Unknown",
    "country_iso3_code": "HUN",
    "giga_id_school": "abe47bb2-5f4a-32f9-aa7e-f36cfb290090",
    "school_data_source": null
  },
  {
    "school_name": "Taksony Vezér Német Nemzetiségi Általános Iskola",
    "longitude": 19.061635971069336,
    "latitude": 47.334136962890625,
    "education_level": "Unknown",
    "country_iso3_code": "HUN",
    "giga_id_school": "7b1ede6c-3402-32f2-9da7-a11ae1670772",
    "school_data_source": null
  },
  {
    "school_name": "Csalogány Készségfejlesztő Speciális Szakiskola",
    "longitude": 19.03390884399414,
    "latitude": 47.53791809082031,
    "education_level": "Unknown",
    "country_iso3_code": "HUN",
    "giga_id_school": "d90c3b6c-b98f-3155-a9ea-a550975a1743",
    "school_data_source": null
  },
  {
    "school_name": "Bányatelepi Általános Iskola",
    "longitude": 19.82318115234375,
    "latitude": 48.0188102722168,
    "education_level": "Unknown",
    "country_iso3_code": "HUN",
    "giga_id_school": "eee52a19-55e6-36ed-9928-272105b17280",
    "school_data_source": null
  },
  {
    "school_name": "Liszt Ferenc Általános Iskola",
    "longitude": 19.09312629699707,
    "latitude": 47.51449203491211,
    "education_level": "Unknown",
    "country_iso3_code": "HUN",
    "giga_id_school": "a8943369-8e09-3a61-9ab2-9608333c4ac8",
    "school_data_source": null
  },
  {
    "school_name": "Kőbányai Szent László Általános Iskola",
    "longitude": 19.130434036254883,
    "latitude": 47.4870491027832,
    "education_level": "Unknown",
    "country_iso3_code": "HUN",
    "giga_id_school": "11a59534-18c7-3465-b4f7-be79caf010fe",
    "school_data_source": null
  },
  {
    "school_name": "Iskola",
    "longitude": 19.85479164123535,
    "latitude": 47.59248733520508,
    "education_level": "Unknown",
    "country_iso3_code": "HUN",
    "giga_id_school": "af6c7631-e8e0-39a7-9c38-2c4f50a26eaf",
    "school_data_source": null
  },
  {
    "school_name": "Tolnai Szent István Katolikus Gimnázium",
    "longitude": 18.781352996826172,
    "latitude": 46.43274688720703,
    "education_level": "Unknown",
    "country_iso3_code": "HUN",
    "giga_id_school": "19091685-21ae-3b4b-80fd-7237bae503b0",
    "school_data_source": null
  },
  {
    "school_name": "Barcsay Jenő Általános Iskola",
    "longitude": 19.05784797668457,
    "latitude": 47.67033767700195,
    "education_level": "Unknown",
    "country_iso3_code": "HUN",
    "giga_id_school": "6e2cabf9-5170-35fd-8a23-6622323e0d6b",
    "school_data_source": null
  },
  {
    "school_name": "Móricz Zsigmond Gimnázium",
    "longitude": 19.06326675415039,
    "latitude": 47.668190002441406,
    "education_level": "Unknown",
    "country_iso3_code": "HUN",
    "giga_id_school": "bc1095f4-15ed-3f45-905a-920aafacc5ab",
    "school_data_source": null
  },
  {
    "school_name": "Szabadkígyósi Általános Iskola",
    "longitude": 21.075546264648438,
    "latitude": 46.60171127319336,
    "education_level": "Unknown",
    "country_iso3_code": "HUN",
    "giga_id_school": "e169656b-c905-3a8a-92c0-3bfaf158e66c",
    "school_data_source": null
  },
  {
    "school_name": "Fazekas Mihály Általános Iskola",
    "longitude": 19.4847412109375,
    "latitude": 46.4381217956543,
    "education_level": "Unknown",
    "country_iso3_code": "HUN",
    "giga_id_school": "1b432a6e-cb63-3062-a36d-f4854ecd137a",
    "school_data_source": null
  },
  {
    "school_name": "Központi Református Általános Iskola Kiskunhalas",
    "longitude": 19.478809356689453,
    "latitude": 46.428855895996094,
    "education_level": "Unknown",
    "country_iso3_code": "HUN",
    "giga_id_school": "f2e9ac92-4f55-321a-b296-26be99e2b247",
    "school_data_source": null
  },
  {
    "school_name": "Kiskunhalasi Alapfokú Művészetoktatási Intézmény",
    "longitude": 19.479419708251953,
    "latitude": 46.427860260009766,
    "education_level": "Unknown",
    "country_iso3_code": "HUN",
    "giga_id_school": "ff3755e6-e546-36ca-a0c3-7b6a192c8cb5",
    "school_data_source": null
  },
  {
    "school_name": "Ikrényi Általános Iskola",
    "longitude": 17.522855758666992,
    "latitude": 47.651939392089844,
    "education_level": "Unknown",
    "country_iso3_code": "HUN",
    "giga_id_school": "991d9ac1-c357-356f-9462-d9ca42165d7d",
    "school_data_source": null
  },
  {
    "school_name": "Edutus Főiskola",
    "longitude": 18.400663375854492,
    "latitude": 47.585105895996094,
    "education_level": "Unknown",
    "country_iso3_code": "HUN",
    "giga_id_school": "e9a88f52-1d3a-3175-a982-4c6d9713aef5",
    "school_data_source": null
  },
  {
    "school_name": "Kenézlő Általános Iskola",
    "longitude": 21.531208038330078,
    "latitude": 48.19898223876953,
    "education_level": "Unknown",
    "country_iso3_code": "HUN",
    "giga_id_school": "17fec252-237b-314a-b5fb-f1c99e0ccbc3",
    "school_data_source": null
  },
  {
    "school_name": "Bem József Általános Iskola",
    "longitude": 17.875490188598633,
    "latitude": 46.9605598449707,
    "education_level": "Unknown",
    "country_iso3_code": "HUN",
    "giga_id_school": "d2369bc5-98f8-3324-8bcb-076ea2fb6d5d",
    "school_data_source": null
  },
  {
    "school_name": "Budapesti Piarista Gimnázium",
    "longitude": 19.052331924438477,
    "latitude": 47.49308395385742,
    "education_level": "Unknown",
    "country_iso3_code": "HUN",
    "giga_id_school": "6d01c5e2-5251-3881-9d09-7c4021f75cdb",
    "school_data_source": null
  },
  {
    "school_name": "Zrínyi Ilona Tagiskola",
    "longitude": 17.505239486694336,
    "latitude": 47.682960510253906,
    "education_level": "Unknown",
    "country_iso3_code": "HUN",
    "giga_id_school": "65895347-b471-3c7f-bd58-5d5edbdcc38a",
    "school_data_source": null
  },
  {
    "school_name": "ATI Autosiskola",
    "longitude": 18.257566452026367,
    "latitude": 46.08037567138672,
    "education_level": "Unknown",
    "country_iso3_code": "HUN",
    "giga_id_school": "a50478c3-12dd-301e-a6d4-cc909299c2f1",
    "school_data_source": null
  },
  {
    "school_name": "Pause Nyelviskola",
    "longitude": 19.202821731567383,
    "latitude": 47.51142501831055,
    "education_level": "Unknown",
    "country_iso3_code": "HUN",
    "giga_id_school": "790819f5-b09d-320a-9652-03e6435f4574",
    "school_data_source": null
  },
  {
    "school_name": "Mercedes-Benz-Schule Sekundarstufe I",
    "longitude": 19.645658493041992,
    "latitude": 46.886253356933594,
    "education_level": "Unknown",
    "country_iso3_code": "HUN",
    "giga_id_school": "3cafd567-9a17-365e-8d28-b9fb69ccad48",
    "school_data_source": null
  },
  {
    "school_name": "Mercedes-Benz-Schule Grundschule",
    "longitude": 19.656795501708984,
    "latitude": 46.89490509033203,
    "education_level": "Unknown",
    "country_iso3_code": "HUN",
    "giga_id_school": "a8351d37-a938-3c3b-85d0-8b919028f8a1",
    "school_data_source": null
  },
  {
    "school_name": "Bajza Utcai Általános Iskola",
    "longitude": 19.068845748901367,
    "latitude": 47.514198303222656,
    "education_level": "Unknown",
    "country_iso3_code": "HUN",
    "giga_id_school": "50532bd9-eca6-3e8b-a95a-84b984fe0cc2",
    "school_data_source": null
  },
  {
    "school_name": "Brassai Sámuel Szakközépiskola",
    "longitude": 21.64466094970703,
    "latitude": 47.534690856933594,
    "education_level": "Unknown",
    "country_iso3_code": "HUN",
    "giga_id_school": "f61ec5a4-e308-38f2-a844-57324f98fc4a",
    "school_data_source": null
  },
  {
    "school_name": "Adu Vállalkozói Szakközép- és Szakiskola",
    "longitude": 19.07221794128418,
    "latitude": 47.43202590942383,
    "education_level": "Unknown",
    "country_iso3_code": "HUN",
    "giga_id_school": "a8f0b664-67c4-37ef-9441-360e2056c5c1",
    "school_data_source": null
  },
  {
    "school_name": "Evangélikus Hittudományi Egyetem",
    "longitude": 19.1148624420166,
    "latitude": 47.5193977355957,
    "education_level": "Unknown",
    "country_iso3_code": "HUN",
    "giga_id_school": "f7be8f40-bf2a-3fe9-b48e-35d97092005f",
    "school_data_source": null
  },
  {
    "school_name": "EVENTUS Üzleti Művészeti Középiskola, Szakiskola, Alapfokú Művészetoktatási Intézmény és Kollégium",
    "longitude": 20.375364303588867,
    "latitude": 47.909820556640625,
    "education_level": "Unknown",
    "country_iso3_code": "HUN",
    "giga_id_school": "2b008b17-bc72-39bd-a914-0129f549a700",
    "school_data_source": null
  },
  {
    "school_name": "Vienna Konservatorium Budapest",
    "longitude": 19.06709098815918,
    "latitude": 47.426570892333984,
    "education_level": "Unknown",
    "country_iso3_code": "HUN",
    "giga_id_school": "a9c3fad6-7a54-328c-a73d-9b7de9550437",
    "school_data_source": null
  },
  {
    "school_name": "Lónyay Menyhért Általános Iskola",
    "longitude": 22.116891860961914,
    "latitude": 48.343082427978516,
    "education_level": "Unknown",
    "country_iso3_code": "HUN",
    "giga_id_school": "3126a952-23d5-3a32-9d58-b85450f077ec",
    "school_data_source": null
  },
  {
    "school_name": "Szatai Iskola",
    "longitude": 21.761722564697266,
    "latitude": 47.54338455200195,
    "education_level": "Unknown",
    "country_iso3_code": "HUN",
    "giga_id_school": "def4f4b6-081f-349f-b70c-008bbb970a86",
    "school_data_source": null
  },
  {
    "school_name": "Fekete Lajos Általános Iskola",
    "longitude": 18.449811935424805,
    "latitude": 47.66326141357422,
    "education_level": "Unknown",
    "country_iso3_code": "HUN",
    "giga_id_school": "187cbbf8-d7a7-3b78-b641-61bf583c4a3b",
    "school_data_source": null
  },
  {
    "school_name": "Általános Iskola és Óvoda",
    "longitude": 18.631267547607422,
    "latitude": 47.40236282348633,
    "education_level": "Unknown",
    "country_iso3_code": "HUN",
    "giga_id_school": "ad89f259-cc43-3d1e-a9ff-de700b10af0f",
    "school_data_source": null
  },
  {
    "school_name": "Szabolcs Vezér Oktatási Központ",
    "longitude": 21.86065673828125,
    "latitude": 47.77225875854492,
    "education_level": "Unknown",
    "country_iso3_code": "HUN",
    "giga_id_school": "0ac08d94-075f-3fef-8d79-6428166dae6b",
    "school_data_source": null
  },
  {
    "school_name": "BSZC Vásárhelyi Pál Technikum és Kollégium",
    "longitude": 21.103803634643555,
    "latitude": 46.680389404296875,
    "education_level": "Unknown",
    "country_iso3_code": "HUN",
    "giga_id_school": "dce076f5-c8e4-38f8-aeff-a422a00c116f",
    "school_data_source": null
  },
  {
    "school_name": "Petőfi Sándor Gimnázium és Kertészeti Szakközépiskola",
    "longitude": 19.288450241088867,
    "latitude": 46.62194061279297,
    "education_level": "Unknown",
    "country_iso3_code": "HUN",
    "giga_id_school": "8586e601-e877-3efb-addc-6fc26fc02e21",
    "school_data_source": null
  },
  {
    "school_name": "Wattay Szakközépiskola",
    "longitude": 19.290374755859375,
    "latitude": 46.61922073364258,
    "education_level": "Unknown",
    "country_iso3_code": "HUN",
    "giga_id_school": "1362a3e6-fb09-3367-800a-f8a99abd6ad7",
    "school_data_source": null
  },
  {
    "school_name": "Petőfi Sándor Kollégium",
    "longitude": 19.28981590270996,
    "latitude": 46.61983871459961,
    "education_level": "Unknown",
    "country_iso3_code": "HUN",
    "giga_id_school": "87752b5c-9177-30bd-a44e-a0d686d96f11",
    "school_data_source": null
  },
  {
    "school_name": "Szent István Gimnázium",
    "longitude": 18.977153778076172,
    "latitude": 46.52740478515625,
    "education_level": "Unknown",
    "country_iso3_code": "HUN",
    "giga_id_school": "ccdf3864-1d37-38d5-95ea-983f4d2e615c",
    "school_data_source": null
  },
  {
    "school_name": "Belvárosi Általános Iskola",
    "longitude": 18.97574806213379,
    "latitude": 46.528385162353516,
    "education_level": "Unknown",
    "country_iso3_code": "HUN",
    "giga_id_school": "13b9a851-ca00-3626-b815-0bacbf3a3b9d",
    "school_data_source": null
  },
  {
    "school_name": "Fertőd-Süttör Iskola",
    "longitude": 16.88727378845215,
    "latitude": 47.61957931518555,
    "education_level": "Unknown",
    "country_iso3_code": "HUN",
    "giga_id_school": "4b3aa2fc-08b5-3517-bd6b-2ec050b7c2ef",
    "school_data_source": null
  },
  {
    "school_name": "Református Iskola",
    "longitude": 21.42804527282715,
    "latitude": 47.84463119506836,
    "education_level": "Unknown",
    "country_iso3_code": "HUN",
    "giga_id_school": "58bbcc6f-9a90-3b7a-b36f-7932f11656e5",
    "school_data_source": null
  },
  {
    "school_name": "Kiskunhalasi Szakképzési Centrum Vári Szabó István Szakképző Iskolája és Kollégiuma",
    "longitude": 19.48086166381836,
    "latitude": 46.440711975097656,
    "education_level": "Unknown",
    "country_iso3_code": "HUN",
    "giga_id_school": "abb04420-5249-331c-ab13-180c404319c6",
    "school_data_source": null
  },
  {
    "school_name": "Felsővárosi Általános Iskola",
    "longitude": 19.478328704833984,
    "latitude": 46.43785858154297,
    "education_level": "Unknown",
    "country_iso3_code": "HUN",
    "giga_id_school": "a6e9f693-da45-39bd-ac68-73483b74e2b9",
    "school_data_source": null
  },
  {
    "school_name": "Szilády Áron Református Gimnázium",
    "longitude": 19.483007431030273,
    "latitude": 46.43034362792969,
    "education_level": "Unknown",
    "country_iso3_code": "HUN",
    "giga_id_school": "69f08ab4-0ddd-30ce-865a-b55e74f11202",
    "school_data_source": null
  },
  {
    "school_name": "Kiskunhalasi SZC Dékáni Árpád Szakgimnáziuma és Szakközépiskolája",
    "longitude": 19.48486328125,
    "latitude": 46.430389404296875,
    "education_level": "Unknown",
    "country_iso3_code": "HUN",
    "giga_id_school": "335e959a-c8a2-3962-94e8-661e66007323",
    "school_data_source": null
  },
  {
    "school_name": "Szent József Katolikus Általános Iskola",
    "longitude": 19.48537826538086,
    "latitude": 46.4246940612793,
    "education_level": "Unknown",
    "country_iso3_code": "HUN",
    "giga_id_school": "f681529c-bc24-338c-997b-a0aaada4c1a8",
    "school_data_source": null
  },
  {
    "school_name": "Szent Gellért Katolikus Gimnázium",
    "longitude": 19.03110122680664,
    "latitude": 47.49716567993164,
    "education_level": "Unknown",
    "country_iso3_code": "HUN",
    "giga_id_school": "5db4fd88-c972-3662-8f60-5ae6ef2324bc",
    "school_data_source": null
  },
  {
    "school_name": "Általános iskola (1-4 osztályok)",
    "longitude": 17.860368728637695,
    "latitude": 46.75128936767578,
    "education_level": "Unknown",
    "country_iso3_code": "HUN",
    "giga_id_school": "c1ff5162-0616-329d-94f2-f2c195977f77",
    "school_data_source": null
  },
  {
    "school_name": "Kurzus Nyelviskola",
    "longitude": 18.391681671142578,
    "latitude": 47.59619903564453,
    "education_level": "Unknown",
    "country_iso3_code": "HUN",
    "giga_id_school": "19093654-1141-3463-a556-4ca48709fa0f",
    "school_data_source": null
  },
  {
    "school_name": "Damjanich János Szakközépiskola, Szakiskola és Kollégium",
    "longitude": 19.678815841674805,
    "latitude": 47.66767883300781,
    "education_level": "Unknown",
    "country_iso3_code": "HUN",
    "giga_id_school": "e7fbc55c-02e4-3a34-bd85-8bc8dbc5621a",
    "school_data_source": null
  },
  {
    "school_name": "Tatai kutyaiskola",
    "longitude": 18.309823989868164,
    "latitude": 47.66752624511719,
    "education_level": "Unknown",
    "country_iso3_code": "HUN",
    "giga_id_school": "6670940f-8da4-3ac7-b8ec-95fdd830fa66",
    "school_data_source": null
  },
  {
    "school_name": "Toponári Tagiskola",
    "longitude": 17.832069396972656,
    "latitude": 46.392887115478516,
    "education_level": "Unknown",
    "country_iso3_code": "HUN",
    "giga_id_school": "56191443-4e55-367f-a69d-cf3fb38ed48b",
    "school_data_source": null
  },
  {
    "school_name": "Piarista Szakképző Iskola, Gimnázium és Kollégium",
    "longitude": 19.12823486328125,
    "latitude": 47.68121337890625,
    "education_level": "Unknown",
    "country_iso3_code": "HUN",
    "giga_id_school": "c8f3a8d9-3d26-344a-81c5-03d4f4e838c8",
    "school_data_source": null
  },
  {
    "school_name": "Gödi Németh László Általános Iskola és Alapfokú Művészeti Iskola",
    "longitude": 19.14320945739746,
    "latitude": 47.70759963989258,
    "education_level": "Unknown",
    "country_iso3_code": "HUN",
    "giga_id_school": "25127cbb-828f-31f3-a22f-1d22675d5086",
    "school_data_source": null
  },
  {
    "school_name": "Osli Általános Iskola",
    "longitude": 17.07745361328125,
    "latitude": 47.63546371459961,
    "education_level": "Unknown",
    "country_iso3_code": "HUN",
    "giga_id_school": "208d2d74-2232-3565-beda-3cad83005381",
    "school_data_source": null
  },
  {
    "school_name": "II. Rákóczi Ferenc Általános Iskola",
    "longitude": 19.537277221679688,
    "latitude": 47.76616668701172,
    "education_level": "Unknown",
    "country_iso3_code": "HUN",
    "giga_id_school": "47caccbf-05ec-341b-ae43-df91faa8b00e",
    "school_data_source": null
  },
  {
    "school_name": "Szent Benedek Gimnázium, Szakképző Iskola és Kollégium - Balatonfüredi Széchényi Ferenc Tagintézmény",
    "longitude": 17.894624710083008,
    "latitude": 46.9695930480957,
    "education_level": "Unknown",
    "country_iso3_code": "HUN",
    "giga_id_school": "f3a3a8e3-bae6-3f28-8e66-06aa09226694",
    "school_data_source": null
  },
  {
    "school_name": "Kittenberger Kálmán Általános és Művészeti Iskola (Alsó tagozat)",
    "longitude": 18.95966148376465,
    "latitude": 47.789276123046875,
    "education_level": "Unknown",
    "country_iso3_code": "HUN",
    "giga_id_school": "58aa6453-c7f3-3c95-b3b0-d0d3dd211b4b",
    "school_data_source": null
  },
  {
    "school_name": "Rakamaz Piros Iskola",
    "longitude": 21.47267723083496,
    "latitude": 48.1260986328125,
    "education_level": "Unknown",
    "country_iso3_code": "HUN",
    "giga_id_school": "1f278dfa-e5a6-39f1-b1d0-e3ceaca2f7d1",
    "school_data_source": null
  },
  {
    "school_name": "Veres Péter Gimnázium, Szakközépiskola és Szakképző",
    "longitude": 21.343042373657227,
    "latitude": 47.61054611206055,
    "education_level": "Unknown",
    "country_iso3_code": "HUN",
    "giga_id_school": "43a47cb3-6af5-317f-b464-a6674a5fd250",
    "school_data_source": null
  },
  {
    "school_name": "Remenyik Zsigmond Gimnázium",
    "longitude": 20.415658950805664,
    "latitude": 47.74845886230469,
    "education_level": "Unknown",
    "country_iso3_code": "HUN",
    "giga_id_school": "986e3100-bf30-3514-ac84-447906c36b1b",
    "school_data_source": null
  },
  {
    "school_name": "Várkonyi István Általános Iskola Rákóczi úti épület",
    "longitude": 19.802343368530273,
    "latitude": 47.177467346191406,
    "education_level": "Unknown",
    "country_iso3_code": "HUN",
    "giga_id_school": "3d05958c-a911-3308-8764-83012246a491",
    "school_data_source": null
  },
  {
    "school_name": "Computer School Debrecen",
    "longitude": 21.625553131103516,
    "latitude": 47.534366607666016,
    "education_level": "Unknown",
    "country_iso3_code": "HUN",
    "giga_id_school": "43109e75-6bb3-3d06-b98f-03508b0b584d",
    "school_data_source": null
  },
  {
    "school_name": "Petzelt József Szakközépiskola",
    "longitude": 19.075359344482422,
    "latitude": 47.66378402709961,
    "education_level": "Unknown",
    "country_iso3_code": "HUN",
    "giga_id_school": "81d03a5c-1308-33f4-94e1-9ceffd8340d3",
    "school_data_source": null
  },
  {
    "school_name": "Burattino Általános, Közép- és Szakképző Iskola, Gyermekotthon",
    "longitude": 19.072349548339844,
    "latitude": 47.4331169128418,
    "education_level": "Unknown",
    "country_iso3_code": "HUN",
    "giga_id_school": "e59c4441-49b8-308f-a960-22ea73a4eee2",
    "school_data_source": null
  },
  {
    "school_name": "Oxford Nyelviskola",
    "longitude": 20.193279266357422,
    "latitude": 47.17197799682617,
    "education_level": "Unknown",
    "country_iso3_code": "HUN",
    "giga_id_school": "1d531671-8132-33d6-a731-711d39fe5c99",
    "school_data_source": null
  },
  {
    "school_name": "Eötvös József Evangélikus Gimnázium és Egészségügyi Szakközépiskola",
    "longitude": 16.59067726135254,
    "latitude": 47.679813385009766,
    "education_level": "Unknown",
    "country_iso3_code": "HUN",
    "giga_id_school": "7273093a-1d9d-3225-a1e9-65ef1c8cd258",
    "school_data_source": null
  },
  {
    "school_name": "Deák Téri Általános Iskola",
    "longitude": 16.59139633178711,
    "latitude": 47.67921829223633,
    "education_level": "Unknown",
    "country_iso3_code": "HUN",
    "giga_id_school": "eb8eee89-d839-3c9a-ad0d-4430b97817c2",
    "school_data_source": null
  },
  {
    "school_name": "Német Nemzetiségi Általános Iskola",
    "longitude": 17.81497573852539,
    "latitude": 47.30913162231445,
    "education_level": "Unknown",
    "country_iso3_code": "HUN",
    "giga_id_school": "91a083dc-8631-3681-a85e-662a36acd96b",
    "school_data_source": null
  },
  {
    "school_name": "Takáts Gyula Általános Iskola",
    "longitude": 18.035442352294922,
    "latitude": 46.73382568359375,
    "education_level": "Unknown",
    "country_iso3_code": "HUN",
    "giga_id_school": "f3d8d932-ee8d-3d5a-9a6c-dbf0b978ae05",
    "school_data_source": null
  },
  {
    "school_name": "VSZC Ipari Szakgimnáziuma",
    "longitude": 17.904964447021484,
    "latitude": 47.090858459472656,
    "education_level": "Unknown",
    "country_iso3_code": "HUN",
    "giga_id_school": "f887da7f-e97f-35b8-9e7b-cf95ff32fba9",
    "school_data_source": null
  },
  {
    "school_name": "Szilágyi Erzsébet Keresztény Általános Iskola és Alapfokú Művészetoktatási Intézmény",
    "longitude": 17.904434204101562,
    "latitude": 47.09156799316406,
    "education_level": "Unknown",
    "country_iso3_code": "HUN",
    "giga_id_school": "a0d508b3-a963-3c02-b90d-0ce8d8a1d1b0",
    "school_data_source": null
  },
  {
    "school_name": "SÉF Vendéglátóipari Kereskedelmi és Idegenforgalmi Szakképző Iskola",
    "longitude": 17.914522171020508,
    "latitude": 47.10476303100586,
    "education_level": "Unknown",
    "country_iso3_code": "HUN",
    "giga_id_school": "92ca475f-afe7-3cbc-b9cc-bcb471232725",
    "school_data_source": null
  },
  {
    "school_name": "Váci Mihály Általános Iskola",
    "longitude": 17.73835563659668,
    "latitude": 47.694766998291016,
    "education_level": "Unknown",
    "country_iso3_code": "HUN",
    "giga_id_school": "a841806b-309f-3dec-b8b1-97697a62db8b",
    "school_data_source": null
  },
  {
    "school_name": "Fekete István Általános Iskola és Alapfokú Művészet Oktatási Intézmény",
    "longitude": 18.918121337890625,
    "latitude": 47.05420684814453,
    "education_level": "Unknown",
    "country_iso3_code": "HUN",
    "giga_id_school": "348614ed-61e2-3e28-8d99-e6fd94c9efed",
    "school_data_source": null
  },
  {
    "school_name": "Fazekas Utcai Általános Iskola",
    "longitude": 18.31502914428711,
    "latitude": 47.642005920410156,
    "education_level": "Unknown",
    "country_iso3_code": "HUN",
    "giga_id_school": "514966f1-1e84-3834-b2b4-9299f8bb9eb1",
    "school_data_source": null
  },
  {
    "school_name": "Menner Bernát Zeneiskola",
    "longitude": 18.315473556518555,
    "latitude": 47.64215087890625,
    "education_level": "Unknown",
    "country_iso3_code": "HUN",
    "giga_id_school": "65b7743a-cae5-3608-8850-d5deba4010d2",
    "school_data_source": null
  },
  {
    "school_name": "Eötvös Károly Általános Iskola",
    "longitude": 18.272642135620117,
    "latitude": 46.992401123046875,
    "education_level": "Unknown",
    "country_iso3_code": "HUN",
    "giga_id_school": "094c2554-027b-31e8-9e42-e09ad9575c45",
    "school_data_source": null
  },
  {
    "school_name": "Csokonai Vitéz Mihály Általános Iskola",
    "longitude": 17.8526611328125,
    "latitude": 47.49618148803711,
    "education_level": "Unknown",
    "country_iso3_code": "HUN",
    "giga_id_school": "8efd42ce-3898-3bdd-b57f-b435471f4124",
    "school_data_source": null
  },
  {
    "school_name": "Nagyboldogasszony Kéttannyelvű Katolikus Általános Iskola",
    "longitude": 19.911022186279297,
    "latitude": 47.50492477416992,
    "education_level": "Unknown",
    "country_iso3_code": "HUN",
    "giga_id_school": "41869a9c-2cab-301b-95a2-7540552081d2",
    "school_data_source": null
  },
  {
    "school_name": "I. István Általános Iskola",
    "longitude": 20.41280746459961,
    "latitude": 47.804874420166016,
    "education_level": "Unknown",
    "country_iso3_code": "HUN",
    "giga_id_school": "5e56df59-aa1b-32d3-b900-513b2f206821",
    "school_data_source": null
  },
  {
    "school_name": "Mátyás király Katolikus Általános Iskola",
    "longitude": 20.825368881225586,
    "latitude": 46.45632553100586,
    "education_level": "Unknown",
    "country_iso3_code": "HUN",
    "giga_id_school": "976f743e-0772-35dd-b2b7-94b13a958be8",
    "school_data_source": null
  },
  {
    "school_name": "Kertvárosi Katolikus Általános Iskola",
    "longitude": 20.31140899658203,
    "latitude": 46.40903091430664,
    "education_level": "Unknown",
    "country_iso3_code": "HUN",
    "giga_id_school": "cbe25c76-f1e7-355f-a412-2413b27fab49",
    "school_data_source": null
  },
  {
    "school_name": "Nádasdy Kálmán Alapfokú Művészeti Iskola és Általános Iskola",
    "longitude": 19.021286010742188,
    "latitude": 47.409210205078125,
    "education_level": "Unknown",
    "country_iso3_code": "HUN",
    "giga_id_school": "c50bb301-ca56-3b83-b333-a306e2ced131",
    "school_data_source": null
  },
  {
    "school_name": "Greater Grace International School",
    "longitude": 18.999773025512695,
    "latitude": 47.515296936035156,
    "education_level": "Unknown",
    "country_iso3_code": "HUN",
    "giga_id_school": "c0d8a0a2-f435-35e9-a7d8-d74dea972888",
    "school_data_source": null
  },
  {
    "school_name": "Zöldliget Magyar - Angol Két Tanítási Nyelvű Baptista Általános Iskola",
    "longitude": 18.660274505615234,
    "latitude": 47.22273635864258,
    "education_level": "Unknown",
    "country_iso3_code": "HUN",
    "giga_id_school": "03cbfc63-b120-3235-9889-c0e685a8c990",
    "school_data_source": null
  },
  {
    "school_name": "Berg Gusztáv Szakiskola",
    "longitude": 17.035112380981445,
    "latitude": 47.59307098388672,
    "education_level": "Unknown",
    "country_iso3_code": "HUN",
    "giga_id_school": "e861b6fe-25de-3285-a3fa-58edb5a2b862",
    "school_data_source": null
  },
  {
    "school_name": "Uptown Nyelviskola",
    "longitude": 18.908248901367188,
    "latitude": 47.40703582763672,
    "education_level": "Unknown",
    "country_iso3_code": "HUN",
    "giga_id_school": "87363d9d-bceb-39a7-bd3d-e1a72e735683",
    "school_data_source": null
  },
  {
    "school_name": "Gábor Áron Általános Iskola",
    "longitude": 17.107624053955078,
    "latitude": 46.737796783447266,
    "education_level": "Unknown",
    "country_iso3_code": "HUN",
    "giga_id_school": "75c84b7c-5290-3183-9676-fa676bdf6f10",
    "school_data_source": null
  },
  {
    "school_name": "Amerikai Intézet",
    "longitude": 18.923717498779297,
    "latitude": 47.38300704956055,
    "education_level": "Unknown",
    "country_iso3_code": "HUN",
    "giga_id_school": "6d59781e-1d85-3354-ad0d-b7b69dd0925b",
    "school_data_source": null
  },
  {
    "school_name": "Úri Szent Imre Általános Iskola és Alapfokú Művészeti Iskola",
    "longitude": 19.52425193786621,
    "latitude": 47.41385269165039,
    "education_level": "Unknown",
    "country_iso3_code": "HUN",
    "giga_id_school": "87f4715f-aa24-38ef-a65b-b01548efa183",
    "school_data_source": null
  },
  {
    "school_name": "József Attila Általános Iskola",
    "longitude": 21.537832260131836,
    "latitude": 47.224815368652344,
    "education_level": "Unknown",
    "country_iso3_code": "HUN",
    "giga_id_school": "f9f1ca64-cb19-3604-acc5-cc215f7aac5f",
    "school_data_source": null
  },
  {
    "school_name": "Arany János Gimnázium és Szakközépiskola",
    "longitude": 21.534116744995117,
    "latitude": 47.227699279785156,
    "education_level": "Unknown",
    "country_iso3_code": "HUN",
    "giga_id_school": "5403b5b2-1af6-3a88-b300-3d63e1cf0ade",
    "school_data_source": null
  },
  {
    "school_name": "Hársfadombi Nyelvoktató Német Nemzetiségi Általános Iskola",
    "longitude": 18.653011322021484,
    "latitude": 47.528602600097656,
    "education_level": "Unknown",
    "country_iso3_code": "HUN",
    "giga_id_school": "b4aa986e-9a64-3083-b88d-bc6978c3d0f4",
    "school_data_source": null
  },
  {
    "school_name": "Dr. Batthyány-Strattmann László Általános Iskola",
    "longitude": 17.28911781311035,
    "latitude": 47.967960357666016,
    "education_level": "Unknown",
    "country_iso3_code": "HUN",
    "giga_id_school": "4a3021ac-c4af-376f-aa3f-28b9180b8f68",
    "school_data_source": null
  },
  {
    "school_name": "Perczel Mór Tagiskola",
    "longitude": 20.95263671875,
    "latitude": 48.024410247802734,
    "education_level": "Unknown",
    "country_iso3_code": "HUN",
    "giga_id_school": "3be44f9a-fcc3-38a6-b117-67ba0a46c0af",
    "school_data_source": null
  },
  {
    "school_name": "Rajzszög Kreatív Terápiás Alkotóműhely, Rajziskola",
    "longitude": 18.888803482055664,
    "latitude": 47.41937255859375,
    "education_level": "Unknown",
    "country_iso3_code": "HUN",
    "giga_id_school": "6d79d69f-3016-3bad-a0f3-f39655d76f25",
    "school_data_source": null
  },
  {
    "school_name": "Gyulai Általános Iskola és Alapfokú Művészeti Iskola",
    "longitude": 21.263187408447266,
    "latitude": 46.64931869506836,
    "education_level": "Unknown",
    "country_iso3_code": "HUN",
    "giga_id_school": "17fe7c09-c149-3c89-942a-2093c54a61fc",
    "school_data_source": null
  },
  {
    "school_name": "Deák Ferenc Általános iskola",
    "longitude": 20.740907669067383,
    "latitude": 48.178977966308594,
    "education_level": "Unknown",
    "country_iso3_code": "HUN",
    "giga_id_school": "a31b51c1-a843-3d30-8246-9cf7db86df7f",
    "school_data_source": null
  },
  {
    "school_name": "Pácini Általános Iskola",
    "longitude": 21.83436393737793,
    "latitude": 48.33069610595703,
    "education_level": "Unknown",
    "country_iso3_code": "HUN",
    "giga_id_school": "b5a8123b-3a0d-3db1-87b9-a94761f0491d",
    "school_data_source": null
  },
  {
    "school_name": "Kossuth úti Általános iskola",
    "longitude": 20.62509536743164,
    "latitude": 47.01087188720703,
    "education_level": "Unknown",
    "country_iso3_code": "HUN",
    "giga_id_school": "b0b0d512-97e0-38c4-877f-35a9cb83b397",
    "school_data_source": null
  },
  {
    "school_name": "Főiskola",
    "longitude": 20.617477416992188,
    "latitude": 47.00373077392578,
    "education_level": "Unknown",
    "country_iso3_code": "HUN",
    "giga_id_school": "a20a588e-57ab-33ab-87d5-9541ba55ef9a",
    "school_data_source": null
  },
  {
    "school_name": "Szent István Katolikus Általános Iskola",
    "longitude": 20.623138427734375,
    "latitude": 47.002567291259766,
    "education_level": "Unknown",
    "country_iso3_code": "HUN",
    "giga_id_school": "b37fc63d-5def-37d2-a579-4f2bc71630b6",
    "school_data_source": null
  },
  {
    "school_name": "Szlovák Általános Iskola, Óvoda és Kollégium",
    "longitude": 20.551435470581055,
    "latitude": 46.86122131347656,
    "education_level": "Unknown",
    "country_iso3_code": "HUN",
    "giga_id_school": "47f3dc16-20f8-36f8-9edc-38257d04d7bf",
    "school_data_source": null
  },
  {
    "school_name": "Rákóczi Úti Általános Iskola",
    "longitude": 20.620357513427734,
    "latitude": 46.997371673583984,
    "education_level": "Unknown",
    "country_iso3_code": "HUN",
    "giga_id_school": "593702f3-8489-3bab-b5b7-93df3c807fbf",
    "school_data_source": null
  },
  {
    "school_name": "Újvárosi Általános iskola",
    "longitude": 20.606122970581055,
    "latitude": 46.99864196777344,
    "education_level": "Unknown",
    "country_iso3_code": "HUN",
    "giga_id_school": "ddf91884-efc8-39f8-b2b2-b02799060b43",
    "school_data_source": null
  },
  {
    "school_name": "Csolnoki Német Nemzetiségi Általános Iskola",
    "longitude": 18.716503143310547,
    "latitude": 47.690086364746094,
    "education_level": "Unknown",
    "country_iso3_code": "HUN",
    "giga_id_school": "0d5c9692-b566-3c7b-8c3b-b6e7e8a5bb82",
    "school_data_source": null
  },
  {
    "school_name": "Móra Ferenc Általános Iskola és Alapfokú Művészetoktatási Intézmény",
    "longitude": 17.018169403076172,
    "latitude": 47.42379379272461,
    "education_level": "Unknown",
    "country_iso3_code": "HUN",
    "giga_id_school": "8aa50f1c-aeb8-3000-af3c-1061ac782bca",
    "school_data_source": null
  },
  {
    "school_name": "Nakovich Mihály Általános Iskola",
    "longitude": 16.641910552978516,
    "latitude": 47.6373176574707,
    "education_level": "Unknown",
    "country_iso3_code": "HUN",
    "giga_id_school": "5e4cc643-17b3-39d0-861d-9e03fde5a56a",
    "school_data_source": null
  },
  {
    "school_name": "Ágfalvi Váci Mihály Általános Iskola",
    "longitude": 16.520305633544922,
    "latitude": 47.68808364868164,
    "education_level": "Unknown",
    "country_iso3_code": "HUN",
    "giga_id_school": "14095a87-8d6b-35cc-9cbb-035d5b3e3606",
    "school_data_source": null
  },
  {
    "school_name": "Fertőrákosi Általános Iskola és Alapfokú Művészeti Iskola",
    "longitude": 16.655298233032227,
    "latitude": 47.715431213378906,
    "education_level": "Unknown",
    "country_iso3_code": "HUN",
    "giga_id_school": "61b890ce-8855-3f3d-9347-03e28facd1c0",
    "school_data_source": null
  },
  {
    "school_name": "DartmooR nyelviskola és vizsgahely",
    "longitude": 19.130239486694336,
    "latitude": 47.780460357666016,
    "education_level": "Unknown",
    "country_iso3_code": "HUN",
    "giga_id_school": "dccf7963-e38a-3a5c-abe4-2e5674f24e40",
    "school_data_source": null
  },
  {
    "school_name": "Tóth Antal Óvoda, Általános Iskola, Kollégium és Pedagógiai Szakszolgálat",
    "longitude": 16.569110870361328,
    "latitude": 47.684139251708984,
    "education_level": "Unknown",
    "country_iso3_code": "HUN",
    "giga_id_school": "d562c286-650d-302f-9c59-b0aa85c552c0",
    "school_data_source": null
  },
  {
    "school_name": "Bezerédj Amália Általános Iskola",
    "longitude": 18.58993911743164,
    "latitude": 46.34698486328125,
    "education_level": "Unknown",
    "country_iso3_code": "HUN",
    "giga_id_school": "9369bae4-abdf-330c-a526-69975ad3054e",
    "school_data_source": null
  },
  {
    "school_name": "Baktay Ervin Gimnázium",
    "longitude": 19.092411041259766,
    "latitude": 47.35484313964844,
    "education_level": "Unknown",
    "country_iso3_code": "HUN",
    "giga_id_school": "5e5edf5a-e204-32bb-a843-fed7fb29ac4a",
    "school_data_source": null
  },
  {
    "school_name": "Váci Bartók-Pikéthy Zeneművészeti Szakgimnázium és Zeneiskola, Alapfokú Művészeti Iskola",
    "longitude": 19.13060188293457,
    "latitude": 47.776824951171875,
    "education_level": "Unknown",
    "country_iso3_code": "HUN",
    "giga_id_school": "c1954064-2f37-3412-ba26-20f51727ca27",
    "school_data_source": null
  },
  {
    "school_name": "Katedra Nyelviskola",
    "longitude": 19.133846282958984,
    "latitude": 47.50638961791992,
    "education_level": "Unknown",
    "country_iso3_code": "HUN",
    "giga_id_school": "931c7db3-4b8e-3c7d-9087-4c1f3e29b6e7",
    "school_data_source": null
  },
  {
    "school_name": "Kosztolányi Dezső Általános Iskola",
    "longitude": 19.109107971191406,
    "latitude": 47.46721267700195,
    "education_level": "Unknown",
    "country_iso3_code": "HUN",
    "giga_id_school": "524bf304-1e08-335a-9d68-3ace3f38ef84",
    "school_data_source": null
  },
  {
    "school_name": "Schulek Frigyes Két Tanítási Nyelvű Építőipari Szakgimnázium",
    "longitude": 19.082162857055664,
    "latitude": 47.49858093261719,
    "education_level": "Unknown",
    "country_iso3_code": "HUN",
    "giga_id_school": "1d241f61-b944-3bdb-893f-6d304c0fab15",
    "school_data_source": null
  },
  {
    "school_name": "Fóti ökumenikus általános iskola",
    "longitude": 19.200422286987305,
    "latitude": 47.6068115234375,
    "education_level": "Unknown",
    "country_iso3_code": "HUN",
    "giga_id_school": "e2cc1f07-e891-3c4c-9d73-cd058cc4c890",
    "school_data_source": null
  },
  {
    "school_name": "Miskolc-Szirmai Református Általános Iskola, AMI és Óvoda",
    "longitude": 20.825742721557617,
    "latitude": 48.07388687133789,
    "education_level": "Unknown",
    "country_iso3_code": "HUN",
    "giga_id_school": "c7e68ae7-7ce9-34e8-a144-4e456ba0000f",
    "school_data_source": null
  },
  {
    "school_name": "Nyelvstúdió",
    "longitude": 19.255279541015625,
    "latitude": 46.520503997802734,
    "education_level": "Unknown",
    "country_iso3_code": "HUN",
    "giga_id_school": "ac12fe5f-2430-3bf6-a91d-fafcb02c199c",
    "school_data_source": null
  },
  {
    "school_name": "Eötvös József református oktatási központ",
    "longitude": 20.293781280517578,
    "latitude": 47.5916748046875,
    "education_level": "Unknown",
    "country_iso3_code": "HUN",
    "giga_id_school": "5e746f82-103c-3d12-9f50-397967d56600",
    "school_data_source": null
  },
  {
    "school_name": "PPHF Szent Mária Magdolna Gyakorló Általános Iskola",
    "longitude": 18.116865158081055,
    "latitude": 46.142250061035156,
    "education_level": "Unknown",
    "country_iso3_code": "HUN",
    "giga_id_school": "91dbe23d-1658-328e-ad9a-634256a1b1e2",
    "school_data_source": null
  },
  {
    "school_name": "Oktatási centrum",
    "longitude": 18.95429801940918,
    "latitude": 46.17509460449219,
    "education_level": "Unknown",
    "country_iso3_code": "HUN",
    "giga_id_school": "b92976c0-f978-3135-8a52-07508de364b7",
    "school_data_source": null
  },
  {
    "school_name": "Nyugi Suli oktatási központ",
    "longitude": 19.186100006103516,
    "latitude": 47.51003646850586,
    "education_level": "Unknown",
    "country_iso3_code": "HUN",
    "giga_id_school": "6adc038d-6346-36f8-98fe-6710cdc074d2",
    "school_data_source": null
  },
  {
    "school_name": "Kovács Béla Általános Iskola",
    "longitude": 18.18214225769043,
    "latitude": 46.06794738769531,
    "education_level": "Unknown",
    "country_iso3_code": "HUN",
    "giga_id_school": "caf3339f-1c69-3732-ad8e-4948fc3516a3",
    "school_data_source": null
  },
  {
    "school_name": "Encsi Váci Mihály Gimnázium, Szakképző Iskola és Kollégium",
    "longitude": 21.113483428955078,
    "latitude": 48.332977294921875,
    "education_level": "Unknown",
    "country_iso3_code": "HUN",
    "giga_id_school": "9b5ff505-41ae-32da-a198-c4c9f9fc3329",
    "school_data_source": null
  },
  {
    "school_name": "Blaskovich János Általános Iskola (Felső tagozat)",
    "longitude": 19.87625503540039,
    "latitude": 47.33173370361328,
    "education_level": "Unknown",
    "country_iso3_code": "HUN",
    "giga_id_school": "9c21996e-a72f-3a3e-ab50-7c3877461669",
    "school_data_source": null
  },
  {
    "school_name": "Szent László Általános Iskola",
    "longitude": 20.110626220703125,
    "latitude": 46.601261138916016,
    "education_level": "Unknown",
    "country_iso3_code": "HUN",
    "giga_id_school": "e9473df8-0ad8-3e3b-b577-4560b40f5504",
    "school_data_source": null
  },
  {
    "school_name": "Kárpáti János Általános és Alapfokú Művészeti Iskola Várvölgyi Tagintézménye",
    "longitude": 17.296710968017578,
    "latitude": 46.86899185180664,
    "education_level": "Unknown",
    "country_iso3_code": "HUN",
    "giga_id_school": "641a4ae0-29fd-37bb-890b-514bdb901491",
    "school_data_source": null
  },
  {
    "school_name": "Kováts Mihály Általános Iskola",
    "longitude": 20.921627044677734,
    "latitude": 47.316837310791016,
    "education_level": "Unknown",
    "country_iso3_code": "HUN",
    "giga_id_school": "f7303fc7-488b-30e5-a1e5-ca01896a419b",
    "school_data_source": null
  },
  {
    "school_name": "Szentannai Sámuel Gimnázium, Szakközépiskola és Kollégium",
    "longitude": 20.90481948852539,
    "latitude": 47.300537109375,
    "education_level": "Unknown",
    "country_iso3_code": "HUN",
    "giga_id_school": "35d22664-0612-30df-9797-dcf9e25d957d",
    "school_data_source": null
  },
  {
    "school_name": "Dr. Mester György Általános Iskola",
    "longitude": 21.252063751220703,
    "latitude": 46.52717208862305,
    "education_level": "Unknown",
    "country_iso3_code": "HUN",
    "giga_id_school": "9cc34cdd-cb01-323a-88e6-fb4a6c784b4e",
    "school_data_source": null
  },
  {
    "school_name": "Arany László Általános Iskola",
    "longitude": 18.686725616455078,
    "latitude": 46.805686950683594,
    "education_level": "Unknown",
    "country_iso3_code": "HUN",
    "giga_id_school": "bb223cdc-23b5-392f-945f-e6150839beb1",
    "school_data_source": null
  },
  {
    "school_name": "Herceg Ágnes wine school",
    "longitude": 19.038217544555664,
    "latitude": 47.49985122680664,
    "education_level": "Unknown",
    "country_iso3_code": "HUN",
    "giga_id_school": "d9ac12f1-d21f-3bcc-89c1-80e3e191f703",
    "school_data_source": null
  },
  {
    "school_name": "Gönczy Pál Általános Iskola",
    "longitude": 21.571622848510742,
    "latitude": 47.59828186035156,
    "education_level": "Unknown",
    "country_iso3_code": "HUN",
    "giga_id_school": "b75b1115-2ea4-3c57-91c5-a42f7b63fa21",
    "school_data_source": null
  },
  {
    "school_name": "Lorántffy Zsuzsanna Általános Iskola",
    "longitude": 21.586225509643555,
    "latitude": 47.60089111328125,
    "education_level": "Unknown",
    "country_iso3_code": "HUN",
    "giga_id_school": "be155956-5ae3-3b79-9158-02bd051d31a7",
    "school_data_source": null
  },
  {
    "school_name": "Török János Mezőgazdasági és Egészségügyi Szakképző Iskola",
    "longitude": 19.803802490234375,
    "latitude": 47.17588806152344,
    "education_level": "Unknown",
    "country_iso3_code": "HUN",
    "giga_id_school": "d226eec3-aaf1-3a8c-86fa-4df5e21e4fc3",
    "school_data_source": null
  },
  {
    "school_name": "Vasvári Zeneiskola",
    "longitude": 16.79944610595703,
    "latitude": 47.04892349243164,
    "education_level": "Unknown",
    "country_iso3_code": "HUN",
    "giga_id_school": "0d9b58c2-a658-3cda-920c-84ae7bf920f8",
    "school_data_source": null
  },
  {
    "school_name": "Éltes Mátyás Általános Iskola és Speciális Szakiskola",
    "longitude": 18.390857696533203,
    "latitude": 47.575557708740234,
    "education_level": "Unknown",
    "country_iso3_code": "HUN",
    "giga_id_school": "6f6c8603-5e08-300a-8825-f6c655e819df",
    "school_data_source": null
  },
  {
    "school_name": "Erdei Iskola",
    "longitude": 21.83767318725586,
    "latitude": 47.55842208862305,
    "education_level": "Unknown",
    "country_iso3_code": "HUN",
    "giga_id_school": "6e17cd76-98f8-313b-b251-c568df050f5d",
    "school_data_source": null
  },
  {
    "school_name": "Napközi otthon",
    "longitude": 17.9691162109375,
    "latitude": 47.05712127685547,
    "education_level": "Unknown",
    "country_iso3_code": "HUN",
    "giga_id_school": "da5f9e92-cf3d-3d87-8f29-7a7ab37611ad",
    "school_data_source": null
  },
  {
    "school_name": "Erdei iskola",
    "longitude": 19.28371810913086,
    "latitude": 47.935848236083984,
    "education_level": "Unknown",
    "country_iso3_code": "HUN",
    "giga_id_school": "ae479e52-f259-38c2-8ccc-25c8f7eda34e",
    "school_data_source": null
  },
  {
    "school_name": "Szakiskola és diákotthon",
    "longitude": 17.091943740844727,
    "latitude": 46.52714538574219,
    "education_level": "Unknown",
    "country_iso3_code": "HUN",
    "giga_id_school": "ef2b9561-40ae-34cd-859a-dc3178cd8f06",
    "school_data_source": null
  },
  {
    "school_name": "Huzella",
    "longitude": 19.13210678100586,
    "latitude": 47.682403564453125,
    "education_level": "Unknown",
    "country_iso3_code": "HUN",
    "giga_id_school": "0c93265f-93e9-3384-aaa2-bb38e1d91bbf",
    "school_data_source": null
  },
  {
    "school_name": "Óvoda",
    "longitude": 16.733489990234375,
    "latitude": 46.637996673583984,
    "education_level": "Unknown",
    "country_iso3_code": "HUN",
    "giga_id_school": "746c0142-db17-36b9-bbdf-54c4dc199beb",
    "school_data_source": null
  },
  {
    "school_name": "Alsóiskola",
    "longitude": 16.733503341674805,
    "latitude": 46.520782470703125,
    "education_level": "Unknown",
    "country_iso3_code": "HUN",
    "giga_id_school": "c032e9ac-bd9b-32d1-96b6-4e6b312b85a6",
    "school_data_source": null
  },
  {
    "school_name": "Felső iskola",
    "longitude": 16.73431396484375,
    "latitude": 46.51968002319336,
    "education_level": "Unknown",
    "country_iso3_code": "HUN",
    "giga_id_school": "f3167616-b82e-39f8-bf6f-c00d5739ca2b",
    "school_data_source": null
  },
  {
    "school_name": "Ilosvai Selymes Péter Általános Iskola",
    "longitude": 21.186527252197266,
    "latitude": 48.277774810791016,
    "education_level": "Unknown",
    "country_iso3_code": "HUN",
    "giga_id_school": "59272c49-14db-35ff-8cc2-48be7a5f3a51",
    "school_data_source": null
  },
  {
    "school_name": "Vasút úti Általános Iskola",
    "longitude": 20.014217376708984,
    "latitude": 47.17748260498047,
    "education_level": "Unknown",
    "country_iso3_code": "HUN",
    "giga_id_school": "c2ad849b-4278-3c11-8513-08abdcaf83a3",
    "school_data_source": null
  },
  {
    "school_name": "Móricz Zsigmond Általános Iskola",
    "longitude": 19.086162567138672,
    "latitude": 47.71452331542969,
    "education_level": "Unknown",
    "country_iso3_code": "HUN",
    "giga_id_school": "a73beda0-2e8c-3a76-91c6-a0e406a18ab5",
    "school_data_source": null
  },
  {
    "school_name": "Fekete László Általános Iskola",
    "longitude": 17.72913360595703,
    "latitude": 46.30799865722656,
    "education_level": "Unknown",
    "country_iso3_code": "HUN",
    "giga_id_school": "02a7c091-514f-36c3-b90e-bded29c81aef",
    "school_data_source": null
  },
  {
    "school_name": "Liszt Ferenc Német Nemzetiségi Általános Iskola",
    "longitude": 18.474550247192383,
    "latitude": 46.22948455810547,
    "education_level": "Unknown",
    "country_iso3_code": "HUN",
    "giga_id_school": "fc8eafce-9118-35fa-8db7-b4e119681136",
    "school_data_source": null
  },
  {
    "school_name": "Csiga Biga Alapítvány",
    "longitude": 18.69351577758789,
    "latitude": 46.33809280395508,
    "education_level": "Unknown",
    "country_iso3_code": "HUN",
    "giga_id_school": "e6389159-8437-3823-890b-0dc0e255a307",
    "school_data_source": null
  },
  {
    "school_name": "Herman Ottó Környezetvédelmi és Mezőgazdasági Szakgimnázium, Szakközépiskola és Kollégium",
    "longitude": 16.580745697021484,
    "latitude": 47.24104690551758,
    "education_level": "Unknown",
    "country_iso3_code": "HUN",
    "giga_id_school": "f945ac4d-118d-303e-99cb-09f95898718f",
    "school_data_source": null
  },
  {
    "school_name": "Brózik Dezső Mezőgazdasági Szakközépiskola és szakmunkásképző",
    "longitude": 21.53073501586914,
    "latitude": 47.213768005371094,
    "education_level": "Unknown",
    "country_iso3_code": "HUN",
    "giga_id_school": "3b570b5c-e494-3eff-9c62-7bbc910dccdc",
    "school_data_source": null
  },
  {
    "school_name": "József Attila Iskola",
    "longitude": 21.536550521850586,
    "latitude": 47.22556686401367,
    "education_level": "Unknown",
    "country_iso3_code": "HUN",
    "giga_id_school": "24c9f46f-d20c-33f7-b024-7369ca841f16",
    "school_data_source": null
  },
  {
    "school_name": "József Attila Óvoda",
    "longitude": 21.536182403564453,
    "latitude": 47.22574996948242,
    "education_level": "Unknown",
    "country_iso3_code": "HUN",
    "giga_id_school": "d57f01e7-3db4-3268-8c3d-c1f385204d29",
    "school_data_source": null
  },
  {
    "school_name": "Rákóczi Tagóvoda",
    "longitude": 21.528610229492188,
    "latitude": 47.224388122558594,
    "education_level": "Unknown",
    "country_iso3_code": "HUN",
    "giga_id_school": "56cc4dd0-9c3d-3125-8238-c7c0ff8c402d",
    "school_data_source": null
  },
  {
    "school_name": "Vass Jenő Óvoda",
    "longitude": 21.532733917236328,
    "latitude": 47.22736740112305,
    "education_level": "Unknown",
    "country_iso3_code": "HUN",
    "giga_id_school": "b134a70b-600e-348a-b4f0-ebb743ec0cbc",
    "school_data_source": null
  },
  {
    "school_name": "Kollégium",
    "longitude": 19.559633255004883,
    "latitude": 47.02779769897461,
    "education_level": "Unknown",
    "country_iso3_code": "HUN",
    "giga_id_school": "0a631c32-0bca-3777-bfca-c3b822d7ca39",
    "school_data_source": null
  },
  {
    "school_name": "Csapókerti Általános Iskola",
    "longitude": 21.65311622619629,
    "latitude": 47.54195785522461,
    "education_level": "Unknown",
    "country_iso3_code": "HUN",
    "giga_id_school": "55341dd6-b473-3c65-8788-daaadebb57f0",
    "school_data_source": null
  },
  {
    "school_name": "Dombosi általános iskola",
    "longitude": 21.70892333984375,
    "latitude": 47.60250473022461,
    "education_level": "Unknown",
    "country_iso3_code": "HUN",
    "giga_id_school": "44f91e1e-9e21-3b4e-982a-22d48400d1f4",
    "school_data_source": null
  },
  {
    "school_name": "Erdészeti lovasiskola",
    "longitude": 21.717945098876953,
    "latitude": 47.47472381591797,
    "education_level": "Unknown",
    "country_iso3_code": "HUN",
    "giga_id_school": "ae49a5a4-4d53-396e-83e9-d54b7fe58d21",
    "school_data_source": null
  },
  {
    "school_name": "Iskola (Steinfeld-kastély)",
    "longitude": 21.477529525756836,
    "latitude": 47.57923889160156,
    "education_level": "Unknown",
    "country_iso3_code": "HUN",
    "giga_id_school": "cd6dbd83-ab48-3c4e-93ae-783d53e787b6",
    "school_data_source": null
  },
  {
    "school_name": "Kinizsi Pál Általános Iskola",
    "longitude": 21.645341873168945,
    "latitude": 47.5387077331543,
    "education_level": "Unknown",
    "country_iso3_code": "HUN",
    "giga_id_school": "e77d59b5-ebd5-38ac-b9c9-eee19967040f",
    "school_data_source": null
  },
  {
    "school_name": "Református gyülekezet (volt iskola)",
    "longitude": 21.77644920349121,
    "latitude": 47.526065826416016,
    "education_level": "Unknown",
    "country_iso3_code": "HUN",
    "giga_id_school": "d2b31d90-1676-3898-b994-7ed5129d245b",
    "school_data_source": null
  },
  {
    "school_name": "Volt Mézeshegyi iskola",
    "longitude": 21.706499099731445,
    "latitude": 47.450748443603516,
    "education_level": "Unknown",
    "country_iso3_code": "HUN",
    "giga_id_school": "d386e00a-7af8-341d-bfb0-620ff27b2521",
    "school_data_source": null
  },
  {
    "school_name": "Volt Állóhegyi iskola",
    "longitude": 21.852741241455078,
    "latitude": 47.505191802978516,
    "education_level": "Unknown",
    "country_iso3_code": "HUN",
    "giga_id_school": "8d51fd7a-6e5b-3f37-8f57-051431a01cd2",
    "school_data_source": null
  },
  {
    "school_name": "Fejlesztő iskola",
    "longitude": 20.194049835205078,
    "latitude": 46.20289993286133,
    "education_level": "Unknown",
    "country_iso3_code": "HUN",
    "giga_id_school": "bef416ed-2112-3667-a3d2-a118f5c2a4bd",
    "school_data_source": null
  },
  {
    "school_name": "Martin János Szakképző Iskola",
    "longitude": 20.780128479003906,
    "latitude": 48.08229064941406,
    "education_level": "Unknown",
    "country_iso3_code": "HUN",
    "giga_id_school": "83cb51df-625e-3e53-a25c-d43555f3918c",
    "school_data_source": null
  },
  {
    "school_name": "Diósgyőr-Vasgyári Szakképző Iskola és Kollégium",
    "longitude": 20.726716995239258,
    "latitude": 48.0916862487793,
    "education_level": "Unknown",
    "country_iso3_code": "HUN",
    "giga_id_school": "8f0e4000-7528-3004-bb68-20a5bcb32054",
    "school_data_source": null
  },
  {
    "school_name": "Miskolci Egressy Béni-Erkel Ferenc Alapfokú Művészeti Iskola",
    "longitude": 20.78103256225586,
    "latitude": 48.104530334472656,
    "education_level": "Unknown",
    "country_iso3_code": "HUN",
    "giga_id_school": "b6203a3a-8993-3167-93db-2b182f30cefe",
    "school_data_source": null
  },
  {
    "school_name": "Fráter György Gimnázium",
    "longitude": 20.778182983398438,
    "latitude": 48.1046028137207,
    "education_level": "Unknown",
    "country_iso3_code": "HUN",
    "giga_id_school": "b18779cf-dfd9-31d9-9357-0379b8b719b5",
    "school_data_source": null
  },
  {
    "school_name": "Gábor Áron \"Művészeti Iskola\" Szakközépiskola",
    "longitude": 20.7235107421875,
    "latitude": 48.0929069519043,
    "education_level": "Unknown",
    "country_iso3_code": "HUN",
    "giga_id_school": "b0705b0a-0ffc-38dc-b01d-0c2af319e54e",
    "school_data_source": null
  },
  {
    "school_name": "Gárdonyi Géza Általános és Magyar-Angol Kéttannyelvű Iskola",
    "longitude": 20.785371780395508,
    "latitude": 48.07384490966797,
    "education_level": "Unknown",
    "country_iso3_code": "HUN",
    "giga_id_school": "0e7adc53-4786-34d5-a0e7-0eaf8e4144c1",
    "school_data_source": null
  },
  {
    "school_name": "Komlóstetői Általános Iskola Fazola Henrik Tagiskola",
    "longitude": 20.722606658935547,
    "latitude": 48.091182708740234,
    "education_level": "Unknown",
    "country_iso3_code": "HUN",
    "giga_id_school": "acb6e0f0-65a9-3d85-8a9c-421773a30eeb",
    "school_data_source": null
  },
  {
    "school_name": "Rendészeti Kiképző Központ",
    "longitude": 20.77933692932129,
    "latitude": 48.136348724365234,
    "education_level": "Unknown",
    "country_iso3_code": "HUN",
    "giga_id_school": "f48014af-0ffd-3b98-b90f-eec58e447e20",
    "school_data_source": null
  },
  {
    "school_name": "Selyemréti Általános és Magyar-Angol Két Tanítási Nyelvű Iskola tagiskolája",
    "longitude": 20.8101806640625,
    "latitude": 48.10555648803711,
    "education_level": "Unknown",
    "country_iso3_code": "HUN",
    "giga_id_school": "7afb2b8d-b614-3dac-9672-065a965d0493",
    "school_data_source": null
  },
  {
    "school_name": "Éltes Mátyás Általános Iskola és Egységes Gyógypedagógiai Módszertani Intézmény",
    "longitude": 20.793411254882812,
    "latitude": 48.10749053955078,
    "education_level": "Unknown",
    "country_iso3_code": "HUN",
    "giga_id_school": "30feb6df-d540-3e57-96c2-a67c16f88f82",
    "school_data_source": null
  },
  {
    "school_name": "Szinyei Merse Pál Általános és Alapfokú Művészeti Iskola",
    "longitude": 20.80068016052246,
    "latitude": 48.152103424072266,
    "education_level": "Unknown",
    "country_iso3_code": "HUN",
    "giga_id_school": "513d73cc-d794-3b5f-aaf5-2e9f7bb40588",
    "school_data_source": null
  },
  {
    "school_name": "Ált. iskola",
    "longitude": 20.77598762512207,
    "latitude": 48.19265365600586,
    "education_level": "Unknown",
    "country_iso3_code": "HUN",
    "giga_id_school": "be006f59-b001-36d3-a165-dcdd3951d7e2",
    "school_data_source": null
  },
  {
    "school_name": "Illés Gyula Általános Iskola",
    "longitude": 17.71697235107422,
    "latitude": 46.49147033691406,
    "education_level": "Unknown",
    "country_iso3_code": "HUN",
    "giga_id_school": "f1bab8c8-9810-377c-a32b-92eb5d36ffc3",
    "school_data_source": null
  },
  {
    "school_name": "Géza Fejedelem Református Általános Iskola, Óvoda és Bölcsőde",
    "longitude": 19.039461135864258,
    "latitude": 47.82204055786133,
    "education_level": "Unknown",
    "country_iso3_code": "HUN",
    "giga_id_school": "3630a393-1362-3574-93b3-90c79b552e5c",
    "school_data_source": null
  },