[
  {
    "school_name": "Bai T. Moore Public  School",
    "longitude": -10.83450698852539,
    "latitude": 6.524168968200684,
    "education_level": "Unknown",
    "country_iso3_code": "LBR",
    "giga_id_school": "e436c32d-bc3f-3ea6-a0c0-87807391bed5",
    "school_data_source": null
  },
  {
    "school_name": "Beh Town Elem/Jr High School",
    "longitude": -10.984099388122559,
    "latitude": 6.61604118347168,
    "education_level": "Unknown",
    "country_iso3_code": "LBR",
    "giga_id_school": "ed4f56d8-0a5f-3332-9b5d-c352572754b0",
    "school_data_source": null
  },
  {
    "school_name": "Bogbeh  Public School",
    "longitude": -10.874872207641602,
    "latitude": 6.4978718757629395,
    "education_level": "Unknown",
    "country_iso3_code": "LBR",
    "giga_id_school": "e987e0ce-1562-3eb3-abc1-5296dfe92986",
    "school_data_source": null
  },
  {
    "school_name": "Boiwen Public School",
    "longitude": -10.871158599853516,
    "latitude": 6.608152866363525,
    "education_level": "Unknown",
    "country_iso3_code": "LBR",
    "giga_id_school": "bce366c5-29fc-3fee-b6f2-a27fab8b9229",
    "school_data_source": null
  },
  {
    "school_name": "Bonjeh Public School",
    "longitude": -10.855764389038086,
    "latitude": 6.489029884338379,
    "education_level": "Unknown",
    "country_iso3_code": "LBR",
    "giga_id_school": "e08757ea-ec95-3c78-b15c-416bc03399c9",
    "school_data_source": null
  },
  {
    "school_name": "Cofee Farm Public",
    "longitude": -10.92654037475586,
    "latitude": 6.5173139572143555,
    "education_level": "Unknown",
    "country_iso3_code": "LBR",
    "giga_id_school": "24ca752a-9eb0-3d67-8959-26483ac90dcf",
    "school_data_source": null
  },
  {
    "school_name": "Cornia Public",
    "longitude": -10.969342231750488,
    "latitude": 6.596141815185547,
    "education_level": "Unknown",
    "country_iso3_code": "LBR",
    "giga_id_school": "de184a5c-2dbc-31d5-940a-560ee2b9fa32",
    "school_data_source": null
  },
  {
    "school_name": "Dagweh Town Public",
    "longitude": -10.945988655090332,
    "latitude": 6.564488887786865,
    "education_level": "Unknown",
    "country_iso3_code": "LBR",
    "giga_id_school": "751e0f20-c515-37a9-9b11-7b4d45497eb6",
    "school_data_source": null
  },
  {
    "school_name": "Folley Town Public School",
    "longitude": -10.83698844909668,
    "latitude": 6.580944061279297,
    "education_level": "Unknown",
    "country_iso3_code": "LBR",
    "giga_id_school": "08b473af-f682-33f5-9b15-1d1ddf109dd5",
    "school_data_source": null
  },
  {
    "school_name": "Gbaigbon Town Public",
    "longitude": -10.995406150817871,
    "latitude": 6.57011079788208,
    "education_level": "Unknown",
    "country_iso3_code": "LBR",
    "giga_id_school": "be7395b7-1416-320f-bd80-5bf9efb140cd",
    "school_data_source": null
  },
  {
    "school_name": "Gomai Town Public Sch",
    "longitude": -10.934015274047852,
    "latitude": 6.576432228088379,
    "education_level": "Unknown",
    "country_iso3_code": "LBR",
    "giga_id_school": "94149bb3-6731-3040-9da1-0ba0be2488b3",
    "school_data_source": null
  },
  {
    "school_name": "Hayes Mission School",
    "longitude": -10.87157154083252,
    "latitude": 6.537807941436768,
    "education_level": "Unknown",
    "country_iso3_code": "LBR",
    "giga_id_school": "eea3f9fb-2627-361f-bae2-fa5b7829ade5",
    "school_data_source": null
  },
  {
    "school_name": "Jenneh Elem/Jr High",
    "longitude": -10.851031303405762,
    "latitude": 6.538288116455078,
    "education_level": "Unknown",
    "country_iso3_code": "LBR",
    "giga_id_school": "156e0e54-b1f5-344a-9f69-10ffcfa75dc1",
    "school_data_source": null
  },
  {
    "school_name": "Joe Village Academy",
    "longitude": -10.957280158996582,
    "latitude": 6.631227970123291,
    "education_level": "Unknown",
    "country_iso3_code": "LBR",
    "giga_id_school": "0cfba3dc-9d4c-3d8d-bb3f-42c95dbabce7",
    "school_data_source": null
  },
  {
    "school_name": "Kpagbola Public School",
    "longitude": -10.98855209350586,
    "latitude": 6.601245880126953,
    "education_level": "Unknown",
    "country_iso3_code": "LBR",
    "giga_id_school": "7fc83dd8-4c79-34b2-a46f-a68ae2b448e3",
    "school_data_source": null
  },
  {
    "school_name": "Levuma Public",
    "longitude": -10.84195613861084,
    "latitude": 6.511704921722412,
    "education_level": "Unknown",
    "country_iso3_code": "LBR",
    "giga_id_school": "f6c0f6b1-eadf-338a-9ab8-77d90110697a",
    "school_data_source": null
  },
  {
    "school_name": "Leyahn Public School",
    "longitude": -10.901945114135742,
    "latitude": 6.5705461502075195,
    "education_level": "Unknown",
    "country_iso3_code": "LBR",
    "giga_id_school": "e5d30950-68a0-32a9-933c-f9169af34e70",
    "school_data_source": null
  },
  {
    "school_name": "Peyan Community",
    "longitude": -10.957747459411621,
    "latitude": 6.589016914367676,
    "education_level": "Unknown",
    "country_iso3_code": "LBR",
    "giga_id_school": "40318bb0-c82e-3ce8-8940-837e37332417",
    "school_data_source": null
  },
  {
    "school_name": "Providence Baptist Community",
    "longitude": -10.805750846862793,
    "latitude": 6.588131904602051,
    "education_level": "Unknown",
    "country_iso3_code": "LBR",
    "giga_id_school": "83af9cfe-5fc7-3757-81bb-fd27118a2cfd",
    "school_data_source": null
  },
  {
    "school_name": "Saykay Town Public Sch.",
    "longitude": -10.928742408752441,
    "latitude": 6.977512836456299,
    "education_level": "Unknown",
    "country_iso3_code": "LBR",
    "giga_id_school": "9290dee0-696f-315d-b24e-cac1fee5716f",
    "school_data_source": null
  },
  {
    "school_name": "Tomah Town Public",
    "longitude": -10.953376770019531,
    "latitude": 6.532197952270508,
    "education_level": "Unknown",
    "country_iso3_code": "LBR",
    "giga_id_school": "88fe7c06-4d1c-3bb3-abe2-c1e82ef83f18",
    "school_data_source": null
  },
  {
    "school_name": "Vincent Ward Public",
    "longitude": -10.82089614868164,
    "latitude": 6.508540153503418,
    "education_level": "Unknown",
    "country_iso3_code": "LBR",
    "giga_id_school": "9d5fcdf5-0e0f-3ba5-983b-347a94897651",
    "school_data_source": null
  },
  {
    "school_name": "Vortor Public School",
    "longitude": -11.034059524536133,
    "latitude": 6.617885112762451,
    "education_level": "Unknown",
    "country_iso3_code": "LBR",
    "giga_id_school": "9376ab47-ad53-3778-a561-1935757f2170",
    "school_data_source": null
  },
  {
    "school_name": "Weajor Public",
    "longitude": -10.927844047546387,
    "latitude": 6.5998921394348145,
    "education_level": "Unknown",
    "country_iso3_code": "LBR",
    "giga_id_school": "d89d347d-7edb-34f7-a9f6-fc7a444ca98d",
    "school_data_source": null
  },
  {
    "school_name": "Wheamah Public School",
    "longitude": -10.763846397399902,
    "latitude": 6.556519985198975,
    "education_level": "Unknown",
    "country_iso3_code": "LBR",
    "giga_id_school": "860c41c8-7ec7-36be-98f3-63ddf58d2b77",
    "school_data_source": null
  },
  {
    "school_name": "Yormu Public School",
    "longitude": -10.9419527053833,
    "latitude": 6.611043930053711,
    "education_level": "Unknown",
    "country_iso3_code": "LBR",
    "giga_id_school": "b2b5bf71-f7d0-35c8-bf72-d097dfe046d9",
    "school_data_source": null
  },
  {
    "school_name": "Alfred K. Brown Wesleyan Institute",
    "longitude": -10.861235618591309,
    "latitude": 6.549330234527588,
    "education_level": "Unknown",
    "country_iso3_code": "LBR",
    "giga_id_school": "3bf28fd4-750d-39a3-b0dc-185caea1663a",
    "school_data_source": null
  },
  {
    "school_name": "Amos Fully Public  School",
    "longitude": -10.885346412658691,
    "latitude": 6.59876823425293,
    "education_level": "Unknown",
    "country_iso3_code": "LBR",
    "giga_id_school": "be312ced-9523-374e-b4b2-344320efa874",
    "school_data_source": null
  },
  {
    "school_name": "Beakini Public School",
    "longitude": -10.858780860900879,
    "latitude": 6.734929084777832,
    "education_level": "Unknown",
    "country_iso3_code": "LBR",
    "giga_id_school": "82384d8f-6a39-3ba3-b102-2047f3eaf16e",
    "school_data_source": null
  },
  {
    "school_name": "Besty Williams Academy",
    "longitude": -10.875484466552734,
    "latitude": 6.695003986358643,
    "education_level": "Unknown",
    "country_iso3_code": "LBR",
    "giga_id_school": "c529be99-dc40-3e15-b13c-d38a1dd70351",
    "school_data_source": null
  },
  {
    "school_name": "Blagai Public School",
    "longitude": -10.873003005981445,
    "latitude": 6.563769817352295,
    "education_level": "Unknown",
    "country_iso3_code": "LBR",
    "giga_id_school": "2e2a7499-c6c5-3069-ae30-c44658f7f882",
    "school_data_source": null
  },
  {
    "school_name": "C.F.M Children Hope Sch.",
    "longitude": -10.888839721679688,
    "latitude": 6.596346855163574,
    "education_level": "Unknown",
    "country_iso3_code": "LBR",
    "giga_id_school": "da3cc76c-6db6-3d7e-b299-4fc66d453c8a",
    "school_data_source": null
  },
  {
    "school_name": "Deadilah Public",
    "longitude": -10.762361526489258,
    "latitude": 6.686921119689941,
    "education_level": "Unknown",
    "country_iso3_code": "LBR",
    "giga_id_school": "d498c168-2352-329d-8629-ae285901c167",
    "school_data_source": null
  },
  {
    "school_name": "Doma Gbeay Public",
    "longitude": -10.860912322998047,
    "latitude": 6.640769958496094,
    "education_level": "Unknown",
    "country_iso3_code": "LBR",
    "giga_id_school": "28701d3f-5269-3a30-9845-d2931d23061e",
    "school_data_source": null
  },
  {
    "school_name": "Factory Camp Sch. (Sam Darby)",
    "longitude": -11.013476371765137,
    "latitude": 6.705644130706787,
    "education_level": "Unknown",
    "country_iso3_code": "LBR",
    "giga_id_school": "c3c7fe7a-8e59-3b7f-9cce-f3e20c877f12",
    "school_data_source": null
  },
  {
    "school_name": "Fefeh Town",
    "longitude": -10.74138355255127,
    "latitude": 6.651051998138428,
    "education_level": "Unknown",
    "country_iso3_code": "LBR",
    "giga_id_school": "c39c674d-201e-341e-9586-955417abcc75",
    "school_data_source": null
  },
  {
    "school_name": "Gangama Public",
    "longitude": -10.88083553314209,
    "latitude": 6.572137832641602,
    "education_level": "Unknown",
    "country_iso3_code": "LBR",
    "giga_id_school": "202be2ea-bee3-38f1-97e5-3a2455277b89",
    "school_data_source": null
  },
  {
    "school_name": "Garnodeyan Public",
    "longitude": -10.916969299316406,
    "latitude": 6.700645923614502,
    "education_level": "Unknown",
    "country_iso3_code": "LBR",
    "giga_id_school": "9181e516-287f-371c-82d3-8c979e8a7843",
    "school_data_source": null
  },
  {
    "school_name": "Gertrude Yancy Public",
    "longitude": -10.871292114257812,
    "latitude": 6.695034027099609,
    "education_level": "Unknown",
    "country_iso3_code": "LBR",
    "giga_id_school": "026053de-6e17-3f10-8d9e-b0984b7a8c73",
    "school_data_source": null
  },
  {
    "school_name": "Gevehfahncee Public",
    "longitude": -10.744819641113281,
    "latitude": 6.7923102378845215,
    "education_level": "Unknown",
    "country_iso3_code": "LBR",
    "giga_id_school": "f3664d6a-c527-3afd-bcd6-b02165a2a466",
    "school_data_source": null
  },
  {
    "school_name": "Goghen Public School",
    "longitude": -10.73286247253418,
    "latitude": 6.732618808746338,
    "education_level": "Unknown",
    "country_iso3_code": "LBR",
    "giga_id_school": "05fb366b-f80d-3fcc-b552-c35b906068c0",
    "school_data_source": null
  },
  {
    "school_name": "Golodee Public",
    "longitude": -11.014872550964355,
    "latitude": 6.6879448890686035,
    "education_level": "Unknown",
    "country_iso3_code": "LBR",
    "giga_id_school": "7e58adec-ca67-3ef9-8f27-bfeac011e47e",
    "school_data_source": null
  },
  {
    "school_name": "Gonah Town",
    "longitude": -10.751529693603516,
    "latitude": 6.5919718742370605,
    "education_level": "Unknown",
    "country_iso3_code": "LBR",
    "giga_id_school": "dc68a2a8-4dbf-35d0-af0b-bb78864dfad9",
    "school_data_source": null
  },
  {
    "school_name": "Gongor Town Public Sch",
    "longitude": -10.751294136047363,
    "latitude": 6.710687160491943,
    "education_level": "Unknown",
    "country_iso3_code": "LBR",
    "giga_id_school": "8f884e2d-0dde-3469-8124-c84697d92f1c",
    "school_data_source": null
  },
  {
    "school_name": "Gonjeh Public School",
    "longitude": -10.834478378295898,
    "latitude": 6.647950172424316,
    "education_level": "Unknown",
    "country_iso3_code": "LBR",
    "giga_id_school": "a35e4b9e-a038-3cb9-9b51-33f65dd10525",
    "school_data_source": null
  },
  {
    "school_name": "Gonzipo Public School",
    "longitude": -10.925415992736816,
    "latitude": 6.659664154052734,
    "education_level": "Unknown",
    "country_iso3_code": "LBR",
    "giga_id_school": "db3b621b-30e9-3ee9-9def-831881f4572c",
    "school_data_source": null
  },
  {
    "school_name": "Guie Town Public",
    "longitude": -10.8506441116333,
    "latitude": 6.755658149719238,
    "education_level": "Unknown",
    "country_iso3_code": "LBR",
    "giga_id_school": "80338919-8af8-3199-863c-f9d63c2b84e9",
    "school_data_source": null
  },
  {
    "school_name": "Hill Town Public",
    "longitude": -10.776315689086914,
    "latitude": 6.621452808380127,
    "education_level": "Unknown",
    "country_iso3_code": "LBR",
    "giga_id_school": "d0439798-e635-3ea3-b56d-2b7c9b518216",
    "school_data_source": null
  },
  {
    "school_name": "Jah Konah Public Sch.",
    "longitude": -10.849428176879883,
    "latitude": 6.692259788513184,
    "education_level": "Unknown",
    "country_iso3_code": "LBR",
    "giga_id_school": "666ed7a1-f476-3899-958c-7631b27a8407",
    "school_data_source": null
  },
  {
    "school_name": "Jawajeh Public School",
    "longitude": -10.771838188171387,
    "latitude": 6.741330146789551,
    "education_level": "Unknown",
    "country_iso3_code": "LBR",
    "giga_id_school": "cb2bc32b-10e2-32e3-a38b-bc310bb423ce",
    "school_data_source": null
  },
  {
    "school_name": "Joe Primary School sysyem",
    "longitude": -10.820040702819824,
    "latitude": 6.869638919830322,
    "education_level": "Unknown",
    "country_iso3_code": "LBR",
    "giga_id_school": "424e24ac-6564-34c7-b447-fb1adde743c0",
    "school_data_source": null
  },
  {
    "school_name": "Jorjorma  Public Sch.",
    "longitude": -10.760539054870605,
    "latitude": 6.635319232940674,
    "education_level": "Unknown",
    "country_iso3_code": "LBR",
    "giga_id_school": "3265ff11-c42a-335a-92aa-8dae0b00ff05",
    "school_data_source": null
  },
  {
    "school_name": "Julijuah Public",
    "longitude": -10.755525588989258,
    "latitude": 6.673584938049316,
    "education_level": "Unknown",
    "country_iso3_code": "LBR",
    "giga_id_school": "0294a039-e290-3dc7-8989-da174b526bd2",
    "school_data_source": null
  },
  {
    "school_name": "Kakou Public Sch.",
    "longitude": -11.025810241699219,
    "latitude": 6.661799907684326,
    "education_level": "Unknown",
    "country_iso3_code": "LBR",
    "giga_id_school": "1ff1a7b1-d727-3c2c-a921-01d606157280",
    "school_data_source": null
  },
  {
    "school_name": "Kangacia Public Sch.",
    "longitude": -10.824917793273926,
    "latitude": 6.731115818023682,
    "education_level": "Unknown",
    "country_iso3_code": "LBR",
    "giga_id_school": "56aa5b9b-e9b3-35ad-8d29-04ebd07f374b",
    "school_data_source": null
  },
  {
    "school_name": "Karnga Public",
    "longitude": -10.863451957702637,
    "latitude": 6.546512126922607,
    "education_level": "Unknown",
    "country_iso3_code": "LBR",
    "giga_id_school": "65838b4f-4226-38fd-b17e-c8d018698a48",
    "school_data_source": null
  },
  {
    "school_name": "Karza-Maher Elem. Sch.",
    "longitude": -10.851133346557617,
    "latitude": 6.781057834625244,
    "education_level": "Unknown",
    "country_iso3_code": "LBR",
    "giga_id_school": "83b99ba6-d748-30e4-8fbf-b30cfa580f22",
    "school_data_source": null
  },
  {
    "school_name": "KINGDOM BUILDER COMMUNITY SCHOOL",
    "longitude": -10.874614715576172,
    "latitude": 6.69635009765625,
    "education_level": "Unknown",
    "country_iso3_code": "LBR",
    "giga_id_school": "9925188c-f887-36c3-9a22-c7eee0562048",
    "school_data_source": null
  },
  {
    "school_name": "Kissi Camp School",
    "longitude": -10.954996109008789,
    "latitude": 6.690017223358154,
    "education_level": "Unknown",
    "country_iso3_code": "LBR",
    "giga_id_school": "6a1e66e0-faba-347b-b23f-2d5659066151",
    "school_data_source": null
  },
  {
    "school_name": "Maherzoebandy Public",
    "longitude": -10.808920860290527,
    "latitude": 6.813766002655029,
    "education_level": "Unknown",
    "country_iso3_code": "LBR",
    "giga_id_school": "609fcc75-3776-3f5d-a7e1-59d78ed5455c",
    "school_data_source": null
  },
  {
    "school_name": "Malema Camp Sch. (Sam Darby)",
    "longitude": -10.973925590515137,
    "latitude": 6.677984237670898,
    "education_level": "Unknown",
    "country_iso3_code": "LBR",
    "giga_id_school": "fa0ab473-1708-353a-ac30-bd1472895f22",
    "school_data_source": null
  },
  {
    "school_name": "Malema Public Sch.",
    "longitude": -10.973984718322754,
    "latitude": 6.675164222717285,
    "education_level": "Unknown",
    "country_iso3_code": "LBR",
    "giga_id_school": "b15c911c-5a64-36e1-a3d3-f5630b51736c",
    "school_data_source": null
  },
  {
    "school_name": "Mambo Camp #2 School",
    "longitude": -10.994958877563477,
    "latitude": 6.687870979309082,
    "education_level": "Unknown",
    "country_iso3_code": "LBR",
    "giga_id_school": "db691da5-bc76-3b57-84f0-dbe07a2a879e",
    "school_data_source": null
  },
  {
    "school_name": "Mana Gbokai Public",
    "longitude": -10.808945655822754,
    "latitude": 6.777657985687256,
    "education_level": "Unknown",
    "country_iso3_code": "LBR",
    "giga_id_school": "273be33b-d793-37aa-a615-33bcf4f4816f",
    "school_data_source": null
  },
  {
    "school_name": "Monnoh Public",
    "longitude": -10.81319808959961,
    "latitude": 6.666347026824951,
    "education_level": "Unknown",
    "country_iso3_code": "LBR",
    "giga_id_school": "5cd0b031-9f30-3ca6-8343-b9aca0675529",
    "school_data_source": null
  },
  {
    "school_name": "Moussa Toure Christian Acad.",
    "longitude": -10.87348461151123,
    "latitude": 6.694159984588623,
    "education_level": "Unknown",
    "country_iso3_code": "LBR",
    "giga_id_school": "08ae4194-4ae0-36ad-9501-02ec154d2295",
    "school_data_source": null
  },
  {
    "school_name": "NEW MILLENIUN DAY CARE SCHOOL",
    "longitude": -10.8935546875,
    "latitude": 6.583816051483154,
    "education_level": "Unknown",
    "country_iso3_code": "LBR",
    "giga_id_school": "a829f778-df88-39f4-8748-dac8c667a642",
    "school_data_source": null
  },
  {
    "school_name": "Nyamah Public",
    "longitude": -10.808929443359375,
    "latitude": 6.697506904602051,
    "education_level": "Unknown",
    "country_iso3_code": "LBR",
    "giga_id_school": "a06193c3-cf82-3862-81c9-88bee8941f77",
    "school_data_source": null
  },
  {
    "school_name": "Nyuandee Public",
    "longitude": -10.700242042541504,
    "latitude": 6.760444164276123,
    "education_level": "Unknown",
    "country_iso3_code": "LBR",
    "giga_id_school": "bae76b25-a083-3e7c-a98b-c74e98dfd6d4",
    "school_data_source": null
  },
  {
    "school_name": "Olivia S. Washington Public",
    "longitude": -10.879899024963379,
    "latitude": 6.647214889526367,
    "education_level": "Unknown",
    "country_iso3_code": "LBR",
    "giga_id_school": "f4066480-5c90-3569-bc25-d5b3ebeeb971",
    "school_data_source": null
  },
  {
    "school_name": "Omega Welfare Sch. System",
    "longitude": -10.974567413330078,
    "latitude": 6.668535232543945,
    "education_level": "Unknown",
    "country_iso3_code": "LBR",
    "giga_id_school": "9002f0ea-9adc-308a-94d7-6b2e212f6d6d",
    "school_data_source": null
  },
  {
    "school_name": "Rev. Ernest A. Mark",
    "longitude": -10.891263008117676,
    "latitude": 6.583744049072266,
    "education_level": "Unknown",
    "country_iso3_code": "LBR",
    "giga_id_school": "f7bb2703-a9d3-3694-9b2e-526e09358ba5",
    "school_data_source": null
  },
  {
    "school_name": "Sass town Elem/Jr High School",
    "longitude": -10.890299797058105,
    "latitude": 6.583514213562012,
    "education_level": "Unknown",
    "country_iso3_code": "LBR",
    "giga_id_school": "5bfab09a-7eea-35f1-946c-d1fd6fd67499",
    "school_data_source": null
  },
  {
    "school_name": "Saymabu  Public Sch.",
    "longitude": -10.84660816192627,
    "latitude": 6.555290222167969,
    "education_level": "Unknown",
    "country_iso3_code": "LBR",
    "giga_id_school": "be754afb-541f-3753-b9dd-b8d01a138e7e",
    "school_data_source": null
  },
  {
    "school_name": "Seah Town Public School",
    "longitude": -10.883880615234375,
    "latitude": 6.706575870513916,
    "education_level": "Unknown",
    "country_iso3_code": "LBR",
    "giga_id_school": "f13fda5d-b41b-3856-bdb7-e64cd66c2fa9",
    "school_data_source": null
  },
  {
    "school_name": "St. Mugagga's Catholic School",
    "longitude": -10.874045372009277,
    "latitude": 6.701213836669922,
    "education_level": "Unknown",
    "country_iso3_code": "LBR",
    "giga_id_school": "6e142072-b463-3207-8689-cad76c72627c",
    "school_data_source": null
  },
  {
    "school_name": "Temas Foundation School Syster",
    "longitude": -10.87575626373291,
    "latitude": 6.679884910583496,
    "education_level": "Unknown",
    "country_iso3_code": "LBR",
    "giga_id_school": "abc81d20-15ba-34c0-a56a-cdfd5af29987",
    "school_data_source": null
  },
  {
    "school_name": "Todien Public",
    "longitude": -10.898539543151855,
    "latitude": 6.6119232177734375,
    "education_level": "Unknown",
    "country_iso3_code": "LBR",
    "giga_id_school": "eabebdbc-de5d-3172-b719-8011451bce10",
    "school_data_source": null
  },
  {
    "school_name": "Vorkor",
    "longitude": -10.841323852539062,
    "latitude": 6.753864765167236,
    "education_level": "Unknown",
    "country_iso3_code": "LBR",
    "giga_id_school": "c6adb34c-e7ec-3647-b4b7-f94a011bc1d3",
    "school_data_source": null
  },
  {
    "school_name": "Weamoi Public Sch.",
    "longitude": -10.817401885986328,
    "latitude": 6.681032180786133,
    "education_level": "Unknown",
    "country_iso3_code": "LBR",
    "giga_id_school": "2c6d3c8c-a055-3701-9b3a-0b89df9e4e9d",
    "school_data_source": null
  },
  {
    "school_name": "Willie H. Kimbah",
    "longitude": -10.77081298828125,
    "latitude": 6.756763935089111,
    "education_level": "Unknown",
    "country_iso3_code": "LBR",
    "giga_id_school": "f1223bce-f7b6-357c-9b03-fec9c6d10e12",
    "school_data_source": null
  },
  {
    "school_name": "Yassah J. David Christian Academy",
    "longitude": -10.760007858276367,
    "latitude": 6.739313125610352,
    "education_level": "Unknown",
    "country_iso3_code": "LBR",
    "giga_id_school": "6fe83014-8776-3969-8d04-664b30211e66",
    "school_data_source": null
  },
  {
    "school_name": "Zordee Public",
    "longitude": -10.783306121826172,
    "latitude": 6.674243927001953,
    "education_level": "Unknown",
    "country_iso3_code": "LBR",
    "giga_id_school": "ffe04309-e93d-38b8-988d-bf80a242065d",
    "school_data_source": null
  },
  {
    "school_name": "Al-Rashad Islamic School",
    "longitude": -10.822811126708984,
    "latitude": 6.86906099319458,
    "education_level": "Unknown",
    "country_iso3_code": "LBR",
    "giga_id_school": "c8fc4294-4d7e-3ac0-9b37-d37da6153568",
    "school_data_source": null
  },
  {
    "school_name": "Anderson-Weamah UM School",
    "longitude": -10.827018737792969,
    "latitude": 6.864255905151367,
    "education_level": "Unknown",
    "country_iso3_code": "LBR",
    "giga_id_school": "f8676ea3-6f32-3549-8bf9-28d02630ac4f",
    "school_data_source": null
  },
  {
    "school_name": "Barmoore Public School",
    "longitude": -10.8983154296875,
    "latitude": 6.908067226409912,
    "education_level": "Unknown",
    "country_iso3_code": "LBR",
    "giga_id_school": "58924911-d18a-3da6-b470-d290f919562e",
    "school_data_source": null
  },
  {
    "school_name": "Beafinie Public School",
    "longitude": -10.897162437438965,
    "latitude": 6.860198974609375,
    "education_level": "Unknown",
    "country_iso3_code": "LBR",
    "giga_id_school": "44195ba6-305e-35a4-aa6a-c3a45d0e03b9",
    "school_data_source": null
  },
  {
    "school_name": "Beajah Public School",
    "longitude": -10.858210563659668,
    "latitude": 6.829130172729492,
    "education_level": "Unknown",
    "country_iso3_code": "LBR",
    "giga_id_school": "fcc18dc7-8741-3955-bea7-999b3e1efca3",
    "school_data_source": null
  },
  {
    "school_name": "Beh-Sao Public School",
    "longitude": -10.914076805114746,
    "latitude": 6.734922885894775,
    "education_level": "Unknown",
    "country_iso3_code": "LBR",
    "giga_id_school": "c0976885-3c34-30b7-a0ef-059fc56e3715",
    "school_data_source": null
  },
  {
    "school_name": "Bola Public School",
    "longitude": -10.844315528869629,
    "latitude": 6.913632869720459,
    "education_level": "Unknown",
    "country_iso3_code": "LBR",
    "giga_id_school": "ec30bac7-1d1f-3465-90da-e73d2c27a801",
    "school_data_source": null
  },
  {
    "school_name": "Bomi Junior High School",
    "longitude": -10.827107429504395,
    "latitude": 6.87640380859375,
    "education_level": "Unknown",
    "country_iso3_code": "LBR",
    "giga_id_school": "2c033d39-c380-37a7-8c3d-6e3a0d9efd0e",
    "school_data_source": null
  },
  {
    "school_name": "Charity Day-Care Academy (CDA)",
    "longitude": -10.819490432739258,
    "latitude": 6.872045993804932,
    "education_level": "Unknown",
    "country_iso3_code": "LBR",
    "giga_id_school": "0e43bc77-082e-3888-88d4-a9ca51f3ac7e",
    "school_data_source": null
  },
  {
    "school_name": "Charles Henry Dewey Central AM",
    "longitude": -10.82797622680664,
    "latitude": 6.86716890335083,
    "education_level": "Unknown",
    "country_iso3_code": "LBR",
    "giga_id_school": "2f4303b1-cd33-3eaf-8bb6-c70a0a311ca7",
    "school_data_source": null
  },
  {
    "school_name": "Charles Henry Dewey Central High PM",
    "longitude": -10.827920913696289,
    "latitude": 6.867105007171631,
    "education_level": "Unknown",
    "country_iso3_code": "LBR",
    "giga_id_school": "fcf4fdb2-1f70-342d-891f-589f5bd28c72",
    "school_data_source": null
  },
  {
    "school_name": "Colemanhill Preparatory School",
    "longitude": -10.829044342041016,
    "latitude": 6.823084831237793,
    "education_level": "Unknown",
    "country_iso3_code": "LBR",
    "giga_id_school": "910defa2-2c07-32b3-94ad-e5241ff66631",
    "school_data_source": null
  },
  {
    "school_name": "Damah Public",
    "longitude": -10.921467781066895,
    "latitude": 6.719947814941406,
    "education_level": "Unknown",
    "country_iso3_code": "LBR",
    "giga_id_school": "fc30c562-2b45-315f-acf1-d81f90e69662",
    "school_data_source": null
  },
  {
    "school_name": "Divine Day Care & Primary",
    "longitude": -10.823391914367676,
    "latitude": 6.87335205078125,
    "education_level": "Unknown",
    "country_iso3_code": "LBR",
    "giga_id_school": "47d5e31a-2be8-3a8d-87b9-1f7efc58e25c",
    "school_data_source": null
  },
  {
    "school_name": "Early Learning Foundation",
    "longitude": -10.973428726196289,
    "latitude": 6.712317943572998,
    "education_level": "Unknown",
    "country_iso3_code": "LBR",
    "giga_id_school": "7aeb9c7f-57e7-3810-a48e-b2f44b43887d",
    "school_data_source": null
  },
  {
    "school_name": "Edward S. Wragiri",
    "longitude": -10.819294929504395,
    "latitude": 6.872961044311523,
    "education_level": "Unknown",
    "country_iso3_code": "LBR",
    "giga_id_school": "2116e16b-0223-35ff-9700-84c802f727fe",
    "school_data_source": null
  },
  {
    "school_name": "Eric Z. Zinnah Elem. School",
    "longitude": -10.822216033935547,
    "latitude": 6.871503829956055,
    "education_level": "Unknown",
    "country_iso3_code": "LBR",
    "giga_id_school": "5927d527-ed60-39cf-b55e-3e2a7a15895b",
    "school_data_source": null
  },
  {
    "school_name": "Forestry Training Institute",
    "longitude": -10.824402809143066,
    "latitude": 6.877860069274902,
    "education_level": "Unknown",
    "country_iso3_code": "LBR",
    "giga_id_school": "591c3975-197f-38c9-9c57-24449bc1bc9d",
    "school_data_source": null
  },
  {
    "school_name": "Free Pentecostal Global Mission",
    "longitude": -10.828749656677246,
    "latitude": 6.871959209442139,
    "education_level": "Unknown",
    "country_iso3_code": "LBR",
    "giga_id_school": "5cd1a03c-f854-3fa0-af4f-fbd78e90b99b",
    "school_data_source": null
  },
  {
    "school_name": "Free Pentecostal Mission",
    "longitude": -9.463191986083984,
    "latitude": 6.997230529785156,
    "education_level": "Unknown",
    "country_iso3_code": "LBR",
    "giga_id_school": "5d6ce974-f830-3a38-a6a2-769bc8874a43",
    "school_data_source": null
  },
  {
    "school_name": "Gayah Hill Public School",
    "longitude": -10.911048889160156,
    "latitude": 6.760562896728516,
    "education_level": "Unknown",
    "country_iso3_code": "LBR",
    "giga_id_school": "cef6aedb-6ade-3f67-b12e-ded4ef1a7ed5",
    "school_data_source": null
  },
  {
    "school_name": "Gbah Deglar Public School",
    "longitude": -10.939459800720215,
    "latitude": 6.882710933685303,
    "education_level": "Unknown",
    "country_iso3_code": "LBR",
    "giga_id_school": "9fd5d660-2349-3a48-958b-023d5e294388",
    "school_data_source": null
  },
  {
    "school_name": "Gbah Public",
    "longitude": -10.974233627319336,
    "latitude": 6.714447021484375,
    "education_level": "Unknown",
    "country_iso3_code": "LBR",
    "giga_id_school": "b868419b-89d5-3ebe-b4cc-7f845746a27a",
    "school_data_source": null
  },
  {
    "school_name": "Gofamint Day-Care & Elementary",
    "longitude": -10.823763847351074,
    "latitude": 6.8721089363098145,
    "education_level": "Unknown",
    "country_iso3_code": "LBR",
    "giga_id_school": "a149fe6c-f530-38f2-b158-e9e3fcb4c183",
    "school_data_source": null
  },
  {
    "school_name": "Henry QuayeTaylor Public",
    "longitude": -10.8152494430542,
    "latitude": 6.87488317489624,
    "education_level": "Unknown",
    "country_iso3_code": "LBR",
    "giga_id_school": "ff2ab13e-b08c-3fa7-b744-1b0912afc187",
    "school_data_source": null
  },
  {
    "school_name": "Islamic Call Foundation Arabic and English",
    "longitude": -10.971492767333984,
    "latitude": 6.713860034942627,
    "education_level": "Unknown",
    "country_iso3_code": "LBR",
    "giga_id_school": "c6d98018-8984-3a36-9230-f1fe68989c62",
    "school_data_source": null
  },
  {
    "school_name": "John and Beryl Stevens Foundation Elem School",
    "longitude": -10.831080436706543,
    "latitude": 6.877601146697998,
    "education_level": "Unknown",
    "country_iso3_code": "LBR",
    "giga_id_school": "00742293-72b6-32a5-9837-f68f55c6f5fe",
    "school_data_source": null
  },
  {
    "school_name": "John Lewis Parvola Public",
    "longitude": -10.814801216125488,
    "latitude": 6.862142086029053,
    "education_level": "Unknown",
    "country_iso3_code": "LBR",
    "giga_id_school": "17b27ebf-3359-3997-aea6-2dce4f64bc32",
    "school_data_source": null
  },
  {
    "school_name": "Kamada Town",
    "longitude": -10.853963851928711,
    "latitude": 6.8939361572265625,
    "education_level": "Unknown",
    "country_iso3_code": "LBR",
    "giga_id_school": "f0e7b9e3-7be0-3241-8a81-603c663247b1",
    "school_data_source": null
  },
  {
    "school_name": "Kartumu Yatta Boakai Public",
    "longitude": -10.887065887451172,
    "latitude": 6.734911918640137,
    "education_level": "Unknown",
    "country_iso3_code": "LBR",
    "giga_id_school": "9e7d41cb-daa0-3280-8adb-83abbb93429e",
    "school_data_source": null
  },
  {
    "school_name": "Maher Bridge Public School",
    "longitude": -10.843742370605469,
    "latitude": 6.784571170806885,
    "education_level": "Unknown",
    "country_iso3_code": "LBR",
    "giga_id_school": "c68e3d45-98ab-38cb-89f4-4554b06dcfd3",
    "school_data_source": null
  },
  {
    "school_name": "Maher Ward Public School",
    "longitude": -10.814776420593262,
    "latitude": 6.866180896759033,
    "education_level": "Unknown",
    "country_iso3_code": "LBR",
    "giga_id_school": "dcb901c6-9c40-39dc-b27e-558bf2416723",
    "school_data_source": null
  },
  {
    "school_name": "Married camp Community",
    "longitude": -10.94671630859375,
    "latitude": 6.742805004119873,
    "education_level": "Unknown",
    "country_iso3_code": "LBR",
    "giga_id_school": "9dfecb13-62b6-321f-b0b4-1f292756a607",
    "school_data_source": null
  },
  {
    "school_name": "Moore Town Public",
    "longitude": -10.903731346130371,
    "latitude": 6.796525955200195,
    "education_level": "Unknown",
    "country_iso3_code": "LBR",
    "giga_id_school": "69a8a84b-d696-35d5-b782-41830dad8670",
    "school_data_source": null
  },
  {
    "school_name": "Moses Vincent Elem School",
    "longitude": -10.819086074829102,
    "latitude": 6.870473861694336,
    "education_level": "Unknown",
    "country_iso3_code": "LBR",
    "giga_id_school": "1e20e03f-97b1-3e11-8255-7c29e5ecb8ea",
    "school_data_source": null
  },
  {
    "school_name": "Oscar Romero School for the Deaf",
    "longitude": -10.814885139465332,
    "latitude": 6.860877990722656,
    "education_level": "Unknown",
    "country_iso3_code": "LBR",
    "giga_id_school": "a9f4d723-06ff-3077-804d-d93f432aada1",
    "school_data_source": null
  },
  {
    "school_name": "Rev. Alex D.Bai Primary School",
    "longitude": -10.81809139251709,
    "latitude": 6.870452880859375,
    "education_level": "Unknown",
    "country_iso3_code": "LBR",
    "giga_id_school": "d907a5bb-61a2-30e4-af22-85d3ffddea3c",
    "school_data_source": null
  },
  {
    "school_name": "Rev. Willie H. Fayiah A. G. Mission School",
    "longitude": -10.819607734680176,
    "latitude": 6.862771987915039,
    "education_level": "Unknown",
    "country_iso3_code": "LBR",
    "giga_id_school": "1abef2bb-04ee-3d71-8427-4d1c8b912197",
    "school_data_source": null
  },
  {
    "school_name": "Sackie Town Public",
    "longitude": -10.928751945495605,
    "latitude": 6.9775309562683105,
    "education_level": "Unknown",
    "country_iso3_code": "LBR",
    "giga_id_school": "726adc5e-ce38-39f4-8a52-aaae420519e3",
    "school_data_source": null
  },
  {
    "school_name": "Samuel David Hill Public",
    "longitude": -10.827913284301758,
    "latitude": 6.876429080963135,
    "education_level": "Unknown",
    "country_iso3_code": "LBR",
    "giga_id_school": "678bdb15-6ce3-38e5-aaac-29007c97c1f0",
    "school_data_source": null
  },
  {
    "school_name": "Sime Darby Central High",
    "longitude": -10.962834358215332,
    "latitude": 6.714741230010986,
    "education_level": "Unknown",
    "country_iso3_code": "LBR",
    "giga_id_school": "36ccfd32-561d-32e0-82f4-7af5eebf0a2b",
    "school_data_source": null
  },
  {
    "school_name": "Thomas Kofa Public School",
    "longitude": -10.804619789123535,
    "latitude": 6.93369722366333,
    "education_level": "Unknown",
    "country_iso3_code": "LBR",
    "giga_id_school": "d64defbb-068a-3867-a1ca-df23e3e4c54b",
    "school_data_source": null
  },
  {
    "school_name": "Tomorrow's People Foundation",
    "longitude": -10.818868637084961,
    "latitude": 6.871419906616211,
    "education_level": "Unknown",
    "country_iso3_code": "LBR",
    "giga_id_school": "61dc87ea-4a70-3c56-8c0b-63d1c4621e79",
    "school_data_source": null
  },
  {
    "school_name": "Total Child Care Initiative",
    "longitude": -10.827274322509766,
    "latitude": 6.867959976196289,
    "education_level": "Unknown",
    "country_iso3_code": "LBR",
    "giga_id_school": "67f1fba9-0704-3dc4-8198-e1edc02c2cb0",
    "school_data_source": null
  },
  {
    "school_name": "United Pentecostal Mission School",
    "longitude": -10.825081825256348,
    "latitude": 6.874684810638428,
    "education_level": "Unknown",
    "country_iso3_code": "LBR",
    "giga_id_school": "784648c5-716f-331d-a1fe-e1ce922bf6c6",
    "school_data_source": null
  },
  {
    "school_name": "Weakama Public",
    "longitude": -10.82358169555664,
    "latitude": 6.8413519859313965,
    "education_level": "Unknown",
    "country_iso3_code": "LBR",
    "giga_id_school": "b4793191-455f-34f5-82b8-9d347e9cbb70",
    "school_data_source": null
  },
  {
    "school_name": "Zarmeyan Town Public",
    "longitude": -10.95293140411377,
    "latitude": 6.836671829223633,
    "education_level": "Unknown",
    "country_iso3_code": "LBR",
    "giga_id_school": "fe0fd40f-9138-3b6c-8042-0fac2818e77d",
    "school_data_source": null
  },
  {
    "school_name": "Ambulia Gbangba Public School",
    "longitude": -10.697023391723633,
    "latitude": 6.689640998840332,
    "education_level": "Unknown",
    "country_iso3_code": "LBR",
    "giga_id_school": "0f4b7642-59de-387f-8a4d-1004082afc72",
    "school_data_source": null
  },
  {
    "school_name": "Bassa Camp Public School",
    "longitude": -10.730297088623047,
    "latitude": 6.583728790283203,
    "education_level": "Unknown",
    "country_iso3_code": "LBR",
    "giga_id_school": "6cae037c-8292-371b-866e-7435f78773e3",
    "school_data_source": null
  },
  {
    "school_name": "Big Geweh Public School",
    "longitude": -10.609288215637207,
    "latitude": 6.79666805267334,
    "education_level": "Unknown",
    "country_iso3_code": "LBR",
    "giga_id_school": "e12da84a-5171-3c08-ac01-057f12bd33c8",
    "school_data_source": null
  },
  {
    "school_name": "Gbai Town Public Sch.",
    "longitude": -10.573073387145996,
    "latitude": 6.807929992675781,
    "education_level": "Unknown",
    "country_iso3_code": "LBR",
    "giga_id_school": "773d3c0e-e5d1-32d9-9041-15aa5375d075",
    "school_data_source": null
  },
  {
    "school_name": "Gbao Public",
    "longitude": -10.668131828308105,
    "latitude": 6.682194232940674,
    "education_level": "Unknown",
    "country_iso3_code": "LBR",
    "giga_id_school": "fb8ff453-b67a-3b01-81f2-cdab53357faa",
    "school_data_source": null
  },
  {
    "school_name": "Gebena Public School",
    "longitude": -10.666069984436035,
    "latitude": 6.651698112487793,
    "education_level": "Unknown",
    "country_iso3_code": "LBR",
    "giga_id_school": "bc4945b8-af43-33cb-8231-62663583990e",
    "school_data_source": null
  },
  {
    "school_name": "Geewo Public",
    "longitude": -10.607236862182617,
    "latitude": 6.698791027069092,
    "education_level": "Unknown",
    "country_iso3_code": "LBR",
    "giga_id_school": "8eaf3d26-fb90-3122-8975-a973be393c60",
    "school_data_source": null
  },
  {
    "school_name": "J D Memorial",
    "longitude": -10.714845657348633,
    "latitude": 6.602599143981934,
    "education_level": "Unknown",
    "country_iso3_code": "LBR",
    "giga_id_school": "aba2b892-707a-3202-8608-ab3c5768b7d8",
    "school_data_source": null
  },
  {
    "school_name": "John A. Lymas Public",
    "longitude": -10.673505783081055,
    "latitude": 6.605860233306885,
    "education_level": "Unknown",
    "country_iso3_code": "LBR",
    "giga_id_school": "0beadb20-d4ad-369f-b32f-a273e7e58efb",
    "school_data_source": null
  },
  {
    "school_name": "Kannay Town Public",
    "longitude": -10.521697044372559,
    "latitude": 6.832366943359375,
    "education_level": "Unknown",
    "country_iso3_code": "LBR",
    "giga_id_school": "66b040dd-5a43-329a-b65d-2c09c3272abe",
    "school_data_source": null
  },
  {
    "school_name": "Levekai Public School",
    "longitude": -10.726152420043945,
    "latitude": 6.62619686126709,
    "education_level": "Unknown",
    "country_iso3_code": "LBR",
    "giga_id_school": "e581cd4a-3964-3a33-9488-6c8df8ac1b9a",
    "school_data_source": null
  },
  {
    "school_name": "Mae Davis Public",
    "longitude": -10.696407318115234,
    "latitude": 6.639706134796143,
    "education_level": "Unknown",
    "country_iso3_code": "LBR",
    "giga_id_school": "e1d4f473-94e3-3c67-874b-a0e3c954ba6d",
    "school_data_source": null
  },
  {
    "school_name": "Mecca Elementary School",
    "longitude": -10.580438613891602,
    "latitude": 6.82919979095459,
    "education_level": "Unknown",
    "country_iso3_code": "LBR",
    "giga_id_school": "f7cb920b-09d2-3d48-a47e-dddefe76e6ab",
    "school_data_source": null
  },
  {
    "school_name": "Memmeh Town Public",
    "longitude": -10.578568458557129,
    "latitude": 6.872848987579346,
    "education_level": "Unknown",
    "country_iso3_code": "LBR",
    "giga_id_school": "407054c2-1190-3638-b133-b7fd313972a1",
    "school_data_source": null
  },
  {
    "school_name": "Momo G. Bally Bonnie Public School",
    "longitude": -10.627758026123047,
    "latitude": 6.643129825592041,
    "education_level": "Unknown",
    "country_iso3_code": "LBR",
    "giga_id_school": "5086ef3c-faa4-3dc5-b7b7-fc234463c559",
    "school_data_source": null
  },
  {
    "school_name": "Mulbah Town Public School",
    "longitude": -10.619449615478516,
    "latitude": 6.750707149505615,
    "education_level": "Unknown",
    "country_iso3_code": "LBR",
    "giga_id_school": "b0019a1f-7b0a-38df-879b-3e9fa24fee61",
    "school_data_source": null
  },
  {
    "school_name": "Nikpa Public School",
    "longitude": -10.673521995544434,
    "latitude": 6.753612041473389,
    "education_level": "Unknown",
    "country_iso3_code": "LBR",
    "giga_id_school": "8cd88f39-5599-3fed-9b23-14bdbf947384",
    "school_data_source": null
  },
  {
    "school_name": "Richard Blama Devine Public",
    "longitude": -10.653987884521484,
    "latitude": 6.704346179962158,
    "education_level": "Unknown",
    "country_iso3_code": "LBR",
    "giga_id_school": "ed892a67-4fd1-34e2-a430-54189e16e9f2",
    "school_data_source": null
  },
  {
    "school_name": "River Bank Public School",
    "longitude": -10.624597549438477,
    "latitude": 6.618502140045166,
    "education_level": "Unknown",
    "country_iso3_code": "LBR",
    "giga_id_school": "2598065d-6eb7-3d81-8fd1-f5ed5edcadbf",
    "school_data_source": null
  },
  {
    "school_name": "Simulu M. Dawley Public School",
    "longitude": -10.6952543258667,
    "latitude": 6.661076068878174,
    "education_level": "Unknown",
    "country_iso3_code": "LBR",
    "giga_id_school": "78d932e4-7a61-3219-aaa3-c943e52239ed",
    "school_data_source": null
  },
  {
    "school_name": "St. Augustine Catholic School",
    "longitude": -10.648967742919922,
    "latitude": 6.616470813751221,
    "education_level": "Unknown",
    "country_iso3_code": "LBR",
    "giga_id_school": "e662713e-447c-3502-8ffb-ee5c9b8fb726",
    "school_data_source": null
  },
  {
    "school_name": "Suehn Village Public School",
    "longitude": -10.70845890045166,
    "latitude": 6.615631103515625,
    "education_level": "Unknown",
    "country_iso3_code": "LBR",
    "giga_id_school": "a9b28715-9f40-3bda-a395-eef3f87bf968",
    "school_data_source": null
  },
  {
    "school_name": "Suehn-Mecca High School",
    "longitude": -10.694950103759766,
    "latitude": 6.645143032073975,
    "education_level": "Unknown",
    "country_iso3_code": "LBR",
    "giga_id_school": "6e582706-1704-3906-b9ce-8f94d4656165",
    "school_data_source": null
  },
  {
    "school_name": "Sumo Town Public",
    "longitude": -10.729622840881348,
    "latitude": 6.641894817352295,
    "education_level": "Unknown",
    "country_iso3_code": "LBR",
    "giga_id_school": "3646b155-280d-37b3-bacb-f26073421bf5",
    "school_data_source": null
  },
  {
    "school_name": "Teh Public School",
    "longitude": -10.668298721313477,
    "latitude": 6.621053218841553,
    "education_level": "Unknown",
    "country_iso3_code": "LBR",
    "giga_id_school": "27abba5c-0a4f-365c-8961-cff2c53ba557",
    "school_data_source": null
  },
  {
    "school_name": "Weadolo Public School",
    "longitude": -10.695357322692871,
    "latitude": 6.640982151031494,
    "education_level": "Unknown",
    "country_iso3_code": "LBR",
    "giga_id_school": "a52de3d4-4ff2-3edf-9804-f6c48a6df064",
    "school_data_source": null
  },
  {
    "school_name": "Zuwah Public School",
    "longitude": -10.711648941040039,
    "latitude": 6.65619421005249,
    "education_level": "Unknown",
    "country_iso3_code": "LBR",
    "giga_id_school": "a1e106d5-0cf8-38c6-b208-8167c74a3a30",
    "school_data_source": null
  },
  {
    "school_name": "Boduala Public School",
    "longitude": -10.349984169006348,
    "latitude": 6.921170234680176,
    "education_level": "Unknown",
    "country_iso3_code": "LBR",
    "giga_id_school": "18dc2a1f-1c05-3474-9947-534996cb112d",
    "school_data_source": null
  },
  {
    "school_name": "Bong Mine Central High",
    "longitude": -10.360544204711914,
    "latitude": 6.813413143157959,
    "education_level": "Unknown",
    "country_iso3_code": "LBR",
    "giga_id_school": "c717f5ef-8a3f-3c2d-a4cc-e5a81cb2d0c0",
    "school_data_source": null
  },
  {
    "school_name": "Bong Mine Community Church School",
    "longitude": -10.366329193115234,
    "latitude": 6.807841777801514,
    "education_level": "Unknown",
    "country_iso3_code": "LBR",
    "giga_id_school": "afbdb013-f7dd-3baa-8060-7756d71f7e0c",
    "school_data_source": null
  },
  {
    "school_name": "Borlormei Public",
    "longitude": -10.166850090026855,
    "latitude": 7.09941291809082,
    "education_level": "Unknown",
    "country_iso3_code": "LBR",
    "giga_id_school": "6ffbeb5f-6acd-31dc-a0d4-05df0211abf8",
    "school_data_source": null
  },
  {
    "school_name": "Botoe Barclay Public",
    "longitude": -10.362606048583984,
    "latitude": 6.807999134063721,
    "education_level": "Unknown",
    "country_iso3_code": "LBR",
    "giga_id_school": "c0bcce03-a393-323c-b356-efa8ff26ad7b",
    "school_data_source": null
  },
  {
    "school_name": "Children of Africa School System",
    "longitude": -10.361043930053711,
    "latitude": 6.8233160972595215,
    "education_level": "Unknown",
    "country_iso3_code": "LBR",
    "giga_id_school": "08310c44-ec67-397b-be8d-cb3aec6e7c2b",
    "school_data_source": null
  },
  {
    "school_name": "Christine T. Norman Public",
    "longitude": -10.366000175476074,
    "latitude": 6.815000057220459,
    "education_level": "Unknown",
    "country_iso3_code": "LBR",
    "giga_id_school": "ee97e10d-4e89-37a5-916e-485bdcf6c1bf",
    "school_data_source": null
  },
  {
    "school_name": "Church of Christ",
    "longitude": -10.363468170166016,
    "latitude": 6.801045894622803,
    "education_level": "Unknown",
    "country_iso3_code": "LBR",
    "giga_id_school": "c7055b02-ff27-3a5a-9053-b39557e1e36e",
    "school_data_source": null
  },
  {
    "school_name": "D. Elaine Harris Baptist School",
    "longitude": -10.363396644592285,
    "latitude": 6.808084011077881,
    "education_level": "Unknown",
    "country_iso3_code": "LBR",
    "giga_id_school": "80b3d9ed-9816-3ead-8758-c5d31ab78512",
    "school_data_source": null
  },
  {
    "school_name": "David-Ta Public",
    "longitude": -10.289826393127441,
    "latitude": 6.977788925170898,
    "education_level": "Unknown",
    "country_iso3_code": "LBR",
    "giga_id_school": "3a0df9ee-3d7c-3a4d-b159-319520edc978",
    "school_data_source": null
  },
  {
    "school_name": "Dobli Island Public",
    "longitude": -10.38253402709961,
    "latitude": 6.8805108070373535,
    "education_level": "Unknown",
    "country_iso3_code": "LBR",
    "giga_id_school": "942f3ea9-7aa2-3188-83bb-52845c8b4b35",
    "school_data_source": null
  },
  {
    "school_name": "Doblic-Ta Public",
    "longitude": -10.311060905456543,
    "latitude": 6.915101051330566,
    "education_level": "Unknown",
    "country_iso3_code": "LBR",
    "giga_id_school": "45797749-0f78-3d59-b6ae-87dbac3a39c1",
    "school_data_source": null
  },
  {
    "school_name": "Ellen Johnson Sirleaf Children Academy",
    "longitude": -10.361787796020508,
    "latitude": 6.817553997039795,
    "education_level": "Unknown",
    "country_iso3_code": "LBR",
    "giga_id_school": "e54f077c-0d71-3f56-baeb-1e632212ed90",
    "school_data_source": null
  },
  {
    "school_name": "Fuamah Industrious Academy",
    "longitude": -10.389188766479492,
    "latitude": 6.887190818786621,
    "education_level": "Unknown",
    "country_iso3_code": "LBR",
    "giga_id_school": "8992c7d7-e483-3747-9308-2f1243a5c818",
    "school_data_source": null
  },
  {
    "school_name": "Gbalala Public School",
    "longitude": -10.268959999084473,
    "latitude": 6.998696804046631,
    "education_level": "Unknown",
    "country_iso3_code": "LBR",
    "giga_id_school": "ebb0c8be-8ea2-35c6-9d81-ffbf5ce36a93",
    "school_data_source": null
  },
  {
    "school_name": "Gbandi Community",
    "longitude": -10.3659029006958,
    "latitude": 6.800535202026367,
    "education_level": "Unknown",
    "country_iso3_code": "LBR",
    "giga_id_school": "88a1c4e4-9bcd-3e5e-9d9f-5eb6cf3bfde4",
    "school_data_source": null
  },
  {
    "school_name": "Gorlorwuma",
    "longitude": -10.37598705291748,
    "latitude": 6.779269218444824,
    "education_level": "Unknown",
    "country_iso3_code": "LBR",
    "giga_id_school": "693e3d71-0fa7-323b-8c24-c32821b19e69",
    "school_data_source": null
  },
  {
    "school_name": "Kankalanta Public",
    "longitude": -10.14378547668457,
    "latitude": 7.011983871459961,
    "education_level": "Unknown",
    "country_iso3_code": "LBR",
    "giga_id_school": "d6173b22-d08d-3e75-b513-6f844441a016",
    "school_data_source": null
  },
  {
    "school_name": "Kpingbah Town Public",
    "longitude": -10.257024765014648,
    "latitude": 6.899220943450928,
    "education_level": "Unknown",
    "country_iso3_code": "LBR",
    "giga_id_school": "f3bd3278-0663-3f0f-9b1a-903992e6edad",
    "school_data_source": null
  },
  {
    "school_name": "Lawana Public",
    "longitude": -10.365987777709961,
    "latitude": 6.810235977172852,
    "education_level": "Unknown",
    "country_iso3_code": "LBR",
    "giga_id_school": "a35a38cf-b1a4-3d66-b78c-9676f6d1b07e",
    "school_data_source": null
  },
  {
    "school_name": "Linemah Public",
    "longitude": -10.400197982788086,
    "latitude": 6.964739799499512,
    "education_level": "Unknown",
    "country_iso3_code": "LBR",
    "giga_id_school": "315e9019-9e23-39bb-9b3e-45fd5d3459b2",
    "school_data_source": null
  },
  {
    "school_name": "Martin Luther King",
    "longitude": -10.442448616027832,
    "latitude": 6.794006824493408,
    "education_level": "Unknown",
    "country_iso3_code": "LBR",
    "giga_id_school": "f0ab7d60-d281-306c-84fd-02d688be1894",
    "school_data_source": null
  },
  {
    "school_name": "Mawah Public",
    "longitude": -10.424290657043457,
    "latitude": 6.851860046386719,
    "education_level": "Unknown",
    "country_iso3_code": "LBR",
    "giga_id_school": "71d26eee-01db-36ea-a050-600cc7bc5b64",
    "school_data_source": null
  },
  {
    "school_name": "Nancy B. Doe Public",
    "longitude": -10.360575675964355,
    "latitude": 6.8044562339782715,
    "education_level": "Unknown",
    "country_iso3_code": "LBR",
    "giga_id_school": "47998688-5f4c-3fc9-8d36-0e5a2dc515e8",
    "school_data_source": null
  },
  {
    "school_name": "Nehporkolli Ta Public School",
    "longitude": -10.280792236328125,
    "latitude": 6.83127498626709,
    "education_level": "Unknown",
    "country_iso3_code": "LBR",
    "giga_id_school": "5b1da341-62f2-3247-afac-cb7b39bbd291",
    "school_data_source": null
  },
  {
    "school_name": "Nuimu Public School",
    "longitude": -10.468696594238281,
    "latitude": 6.816062927246094,
    "education_level": "Unknown",
    "country_iso3_code": "LBR",
    "giga_id_school": "94864d2f-2b2c-3e5a-8f2c-97b8426ecd50",
    "school_data_source": null
  },
  {
    "school_name": "Odessa Public School",
    "longitude": -10.3307523727417,
    "latitude": 6.874824047088623,
    "education_level": "Unknown",
    "country_iso3_code": "LBR",
    "giga_id_school": "0cc96326-3135-3ce9-b6a0-774ab25b2dac",
    "school_data_source": null
  },
  {
    "school_name": "Pentecostal Public",
    "longitude": -10.360894203186035,
    "latitude": 6.815025806427002,
    "education_level": "Unknown",
    "country_iso3_code": "LBR",
    "giga_id_school": "acb187e3-69d9-3779-b42d-817c101c0b94",
    "school_data_source": null
  },
  {
    "school_name": "Popota Public",
    "longitude": -10.303400039672852,
    "latitude": 6.879271030426025,
    "education_level": "Unknown",
    "country_iso3_code": "LBR",
    "giga_id_school": "b0a4f0ee-8b15-39ae-9a5a-26fc04001fa5",
    "school_data_source": null
  },
  {
    "school_name": "Sumo Saih Elem. School",
    "longitude": -10.36644458770752,
    "latitude": 6.815093994140625,
    "education_level": "Unknown",
    "country_iso3_code": "LBR",
    "giga_id_school": "cec0f929-c2e9-3c12-a250-0d3ca16794e9",
    "school_data_source": null
  },
  {
    "school_name": "Willieta Public School",
    "longitude": -10.326897621154785,
    "latitude": 6.852025985717773,
    "education_level": "Unknown",
    "country_iso3_code": "LBR",
    "giga_id_school": "05322482-5d74-3d35-b895-8da85e35e37c",
    "school_data_source": null
  },
  {
    "school_name": "World Wide Mission",
    "longitude": -10.3656587600708,
    "latitude": 6.808271884918213,
    "education_level": "Unknown",
    "country_iso3_code": "LBR",
    "giga_id_school": "3da7d335-906a-36ca-a8c5-d13acdeb9f32",
    "school_data_source": null
  },
  {
    "school_name": "Yarbayai Public",
    "longitude": -10.203248977661133,
    "latitude": 6.900835037231445,
    "education_level": "Unknown",
    "country_iso3_code": "LBR",
    "giga_id_school": "a7516912-027a-355c-b7bf-de5c38fc9391",
    "school_data_source": null
  },
  {
    "school_name": "Zulo Hill Public",
    "longitude": -10.257893562316895,
    "latitude": 7.047084808349609,
    "education_level": "Unknown",
    "country_iso3_code": "LBR",
    "giga_id_school": "20ea4172-d731-3b09-abf5-2a9fb590bfb3",
    "school_data_source": null
  },
  {
    "school_name": "A.B Francis SDA High School",
    "longitude": -9.477510452270508,
    "latitude": 6.9909539222717285,
    "education_level": "Unknown",
    "country_iso3_code": "LBR",
    "giga_id_school": "4eb65dfb-063a-3dea-92a8-d469d5c10f31",
    "school_data_source": null
  },
  {
    "school_name": "Alexandria A. Andrews Academy",
    "longitude": -9.476853370666504,
    "latitude": 7.024931907653809,
    "education_level": "Unknown",
    "country_iso3_code": "LBR",
    "giga_id_school": "6a6d3dab-13a1-360c-9b3c-a75f639b7e83",
    "school_data_source": null
  },
  {
    "school_name": "Anointed Word of Faith School",
    "longitude": -9.47650146484375,
    "latitude": 7.014686107635498,
    "education_level": "Unknown",
    "country_iso3_code": "LBR",
    "giga_id_school": "e693c13f-1078-31af-aee5-23fb9990f64e",
    "school_data_source": null
  },
  {
    "school_name": "Beeyeamah Public School",
    "longitude": -9.347606658935547,
    "latitude": 6.982158184051514,
    "education_level": "Unknown",
    "country_iso3_code": "LBR",
    "giga_id_school": "47759def-0361-3a9b-9aa4-09ff61c71730",
    "school_data_source": null
  },
  {
    "school_name": "Benjamin T. Britt Academy",
    "longitude": -9.47260570526123,
    "latitude": 7.048104763031006,
    "education_level": "Unknown",
    "country_iso3_code": "LBR",
    "giga_id_school": "48596db9-cb66-3cce-b922-7dd045af23cd",
    "school_data_source": null
  },
  {
    "school_name": "Biana Memoria School",
    "longitude": -9.45494556427002,
    "latitude": 6.9997029304504395,
    "education_level": "Unknown",
    "country_iso3_code": "LBR",
    "giga_id_school": "5aecf506-2797-30a9-bda7-a9227679230a",
    "school_data_source": null
  },
  {
    "school_name": "Bong Community School",
    "longitude": -9.46868896484375,
    "latitude": 7.005070209503174,
    "education_level": "Unknown",
    "country_iso3_code": "LBR",
    "giga_id_school": "2bd5c40a-fcc0-3caf-887c-e383794d96ec",
    "school_data_source": null
  },
  {
    "school_name": "Calvary Preparatory School",
    "longitude": -9.483943939208984,
    "latitude": 7.012160778045654,
    "education_level": "Unknown",
    "country_iso3_code": "LBR",
    "giga_id_school": "c21a9366-1868-3c1d-af77-1aa2492c585f",
    "school_data_source": null
  },
  {
    "school_name": "Canmue Memorial Institute",
    "longitude": -9.468097686767578,
    "latitude": 7.002264976501465,
    "education_level": "Unknown",
    "country_iso3_code": "LBR",
    "giga_id_school": "f892e39c-392d-38e7-bdc7-3c424af8f979",
    "school_data_source": null
  },
  {
    "school_name": "Charles M. Kpaingbah Memorial School",
    "longitude": -9.486230850219727,
    "latitude": 7.016894817352295,
    "education_level": "Unknown",
    "country_iso3_code": "LBR",
    "giga_id_school": "5afe475d-4521-3900-bf89-b2509ae41c92",
    "school_data_source": null
  },
  {
    "school_name": "Chief Compound",
    "longitude": -9.479523658752441,
    "latitude": 6.975136756896973,
    "education_level": "Unknown",
    "country_iso3_code": "LBR",
    "giga_id_school": "14cb92f4-8425-34de-b644-91f98456e41d",
    "school_data_source": null
  },
  {
    "school_name": "Chief Compound Assembly Of God Elem",
    "longitude": -9.478193283081055,
    "latitude": 6.98301887512207,
    "education_level": "Unknown",
    "country_iso3_code": "LBR",
    "giga_id_school": "75d00276-e2c9-3bc2-bd97-c7c84bb2241f",
    "school_data_source": null
  },
  {
    "school_name": "Chief Compound Pub.School",
    "longitude": -9.479974746704102,
    "latitude": 6.974886894226074,
    "education_level": "Unknown",
    "country_iso3_code": "LBR",
    "giga_id_school": "3aec7124-7764-3222-8453-7fe6122f522d",
    "school_data_source": null
  },
  {
    "school_name": "Christ Reliance Academy",
    "longitude": -9.476234436035156,
    "latitude": 6.9886040687561035,
    "education_level": "Unknown",
    "country_iso3_code": "LBR",
    "giga_id_school": "4cc319b5-74a0-3497-8c38-b7eaf1e4b775",
    "school_data_source": null
  },
  {
    "school_name": "Christ The King",
    "longitude": -9.477581024169922,
    "latitude": 7.000189781188965,
    "education_level": "Unknown",
    "country_iso3_code": "LBR",
    "giga_id_school": "9ffae371-8b89-3e02-b77c-3eaab835d7a0",
    "school_data_source": null
  },
  {
    "school_name": "Christian Baptist Ele. Sch",
    "longitude": -9.457942962646484,
    "latitude": 6.990368843078613,
    "education_level": "Unknown",
    "country_iso3_code": "LBR",
    "giga_id_school": "9294ba6a-1f26-33ff-a11d-e872e61615bb",
    "school_data_source": null
  },
  {
    "school_name": "Christian Foundation Elem School",
    "longitude": -9.452900886535645,
    "latitude": 6.992612838745117,
    "education_level": "Unknown",
    "country_iso3_code": "LBR",
    "giga_id_school": "15cbf48e-c429-3bb2-833d-6e9d094f4ba9",
    "school_data_source": null
  },
  {
    "school_name": "Christ's Children Home",
    "longitude": -9.459325790405273,
    "latitude": 7.002021789550781,
    "education_level": "Unknown",
    "country_iso3_code": "LBR",
    "giga_id_school": "4722d284-6c0e-362b-8f7d-32a384816ff6",
    "school_data_source": null
  },
  {
    "school_name": "Church of christ christian Academy",
    "longitude": -9.479968070983887,
    "latitude": 7.012087821960449,
    "education_level": "Unknown",
    "country_iso3_code": "LBR",
    "giga_id_school": "5c829552-174c-3f0c-935c-1c77433c6576",
    "school_data_source": null
  },
  {
    "school_name": "Community House School",
    "longitude": -9.485158920288086,
    "latitude": 7.002335071563721,
    "education_level": "Unknown",
    "country_iso3_code": "LBR",
    "giga_id_school": "43c22fdd-e410-3d6a-81c7-cb4787613b73",
    "school_data_source": null
  },
  {
    "school_name": "Darjue Flomo Kohoe Elem School",
    "longitude": -9.4581880569458,
    "latitude": 6.997950077056885,
    "education_level": "Unknown",
    "country_iso3_code": "LBR",
    "giga_id_school": "37ad8325-59e5-3774-b765-5bccf46acd5b",
    "school_data_source": null
  },
  {
    "school_name": "Dolo Community Elem & Jr High",
    "longitude": -9.488313674926758,
    "latitude": 7.004127025604248,
    "education_level": "Unknown",
    "country_iso3_code": "LBR",
    "giga_id_school": "1d37be58-9930-3496-a618-5af9c3d5f3cc",
    "school_data_source": null
  },
  {
    "school_name": "Dolokelen Barror",
    "longitude": -9.516247749328613,
    "latitude": 7.043060779571533,
    "education_level": "Unknown",
    "country_iso3_code": "LBR",
    "giga_id_school": "311bf35b-ce46-3b3c-a35c-36da27c0ce63",
    "school_data_source": null
  },
  {
    "school_name": "Dolokelen Gboveh Public",
    "longitude": -9.467588424682617,
    "latitude": 7.007232189178467,
    "education_level": "Unknown",
    "country_iso3_code": "LBR",
    "giga_id_school": "f1c8bbfc-e16a-33da-bf8d-b7cb71c67834",
    "school_data_source": null
  },
  {
    "school_name": "Dominion Christian Institute",
    "longitude": -9.474735260009766,
    "latitude": 7.002258777618408,
    "education_level": "Unknown",
    "country_iso3_code": "LBR",
    "giga_id_school": "d2a99fab-c9d4-3a25-a73c-88938fa9e71f",
    "school_data_source": null
  },
  {
    "school_name": "Dorothy Cooper Elem/Jr. High",
    "longitude": -9.479101181030273,
    "latitude": 7.013279914855957,
    "education_level": "Unknown",
    "country_iso3_code": "LBR",
    "giga_id_school": "bb970129-9e8a-3594-8e9c-c17d28aab134",
    "school_data_source": null
  },
  {
    "school_name": "Dorothy Cooper KG/Primary",
    "longitude": -9.478269577026367,
    "latitude": 7.0050811767578125,
    "education_level": "Unknown",
    "country_iso3_code": "LBR",
    "giga_id_school": "1d731c66-f2dc-31fe-a32b-075bfb3178c3",
    "school_data_source": null
  },
  {
    "school_name": "Dr. Finnian Foundation School",
    "longitude": -9.477753639221191,
    "latitude": 7.019835948944092,
    "education_level": "Unknown",
    "country_iso3_code": "LBR",
    "giga_id_school": "c56eb75b-7bf4-39fb-8dc3-dadc248acc23",
    "school_data_source": null
  },
  {
    "school_name": "Elizebath Memorial School",
    "longitude": -9.455089569091797,
    "latitude": 6.993340969085693,
    "education_level": "Unknown",
    "country_iso3_code": "LBR",
    "giga_id_school": "9cf308aa-f21f-3071-9766-f5d50af96831",
    "school_data_source": null
  },
  {
    "school_name": "Feleta Children Village School",
    "longitude": -9.439225196838379,
    "latitude": 6.990265846252441,
    "education_level": "Unknown",
    "country_iso3_code": "LBR",
    "giga_id_school": "ef9c5b0b-a16f-3b65-905f-745d631b831d",
    "school_data_source": null
  },
  {
    "school_name": "Flomo T Barror",
    "longitude": -9.334395408630371,
    "latitude": 7.031092166900635,
    "education_level": "Unknown",
    "country_iso3_code": "LBR",
    "giga_id_school": "f94fbc0c-b1a9-33a4-96d7-e0dccf019e62",
    "school_data_source": null
  },
  {
    "school_name": "Free Pentecostal Mission School",
    "longitude": -9.463245391845703,
    "latitude": 6.997064113616943,
    "education_level": "Unknown",
    "country_iso3_code": "LBR",
    "giga_id_school": "4095a2b1-3758-3620-8c56-9cb74e508732",
    "school_data_source": null
  },
  {
    "school_name": "Full Gospel Mission School",
    "longitude": -9.457320213317871,
    "latitude": 6.997097969055176,
    "education_level": "Unknown",
    "country_iso3_code": "LBR",
    "giga_id_school": "1afb06e8-7c3e-33e4-ace4-26d8cb89fc46",
    "school_data_source": null
  },
  {
    "school_name": "G. Dungbo Public School",
    "longitude": -9.43047046661377,
    "latitude": 7.000328063964844,
    "education_level": "Unknown",
    "country_iso3_code": "LBR",
    "giga_id_school": "3de231fd-efb2-3486-8f95-9ce7cd6e2702",
    "school_data_source": null
  },
  {
    "school_name": "Glory Academy Elem School",
    "longitude": -9.471802711486816,
    "latitude": 6.989593029022217,
    "education_level": "Unknown",
    "country_iso3_code": "LBR",
    "giga_id_school": "f2b46788-7cd0-3177-948d-05f97b16aff0",
    "school_data_source": null
  },
  {
    "school_name": "God Shephered Inlernational Shool",
    "longitude": -9.479072570800781,
    "latitude": 6.989184856414795,
    "education_level": "Unknown",
    "country_iso3_code": "LBR",
    "giga_id_school": "02bfe367-f69d-385e-b43c-2ea8a3b41f26",
    "school_data_source": null
  },
  {
    "school_name": "Good Shephred Mission",
    "longitude": -9.47199535369873,
    "latitude": 7.024089813232422,
    "education_level": "Unknown",
    "country_iso3_code": "LBR",
    "giga_id_school": "af4ae7ea-906a-317b-a4ae-1f1747e43b0d",
    "school_data_source": null
  },
  {
    "school_name": "Grace Baptist Elem .jr High",
    "longitude": -9.471364974975586,
    "latitude": 6.99205207824707,
    "education_level": "Unknown",
    "country_iso3_code": "LBR",
    "giga_id_school": "b73f45dc-3ef4-3459-9ad9-8144cf109d4d",
    "school_data_source": null
  },
  {
    "school_name": "Happy Africa Daycare",
    "longitude": -9.462390899658203,
    "latitude": 7.010708808898926,
    "education_level": "Unknown",
    "country_iso3_code": "LBR",
    "giga_id_school": "a6f1d633-e9df-35f4-b2f2-276259fb5a45",
    "school_data_source": null
  },
  {
    "school_name": "Holy Life Elem,Jr High School",
    "longitude": -9.489413261413574,
    "latitude": 7.007962226867676,
    "education_level": "Unknown",
    "country_iso3_code": "LBR",
    "giga_id_school": "bbd09e0e-7329-3f55-b2b0-d0699a7c42ad",
    "school_data_source": null
  },
  {
    "school_name": "Home of Quran and Hadith",
    "longitude": -9.467799186706543,
    "latitude": 6.997986793518066,
    "education_level": "Unknown",
    "country_iso3_code": "LBR",
    "giga_id_school": "d6664eab-dd4e-3fc6-a4ab-5bcfdb4df6b5",
    "school_data_source": null
  },
  {
    "school_name": "Hope International Elem",
    "longitude": -9.480793952941895,
    "latitude": 6.984331130981445,
    "education_level": "Unknown",
    "country_iso3_code": "LBR",
    "giga_id_school": "1baa7ec9-e62f-3e80-8536-d8277fb987a8",
    "school_data_source": null
  },
  {
    "school_name": "IMS (International Missionary Standard) Day Care & Elementary.",
    "longitude": -9.48668098449707,
    "latitude": 7.012585163116455,
    "education_level": "Unknown",
    "country_iso3_code": "LBR",
    "giga_id_school": "309d597b-3422-37bf-a232-c860c4dcf1cf",
    "school_data_source": null
  },
  {
    "school_name": "Islamic Solidarity",
    "longitude": -9.470047950744629,
    "latitude": 6.9973368644714355,
    "education_level": "Unknown",
    "country_iso3_code": "LBR",
    "giga_id_school": "68c3f06d-bf9a-31d6-8bd6-0b06640634bf",
    "school_data_source": null
  },
  {
    "school_name": "J. Dunbar Norris School",
    "longitude": -9.47475528717041,
    "latitude": 6.99298095703125,
    "education_level": "Unknown",
    "country_iso3_code": "LBR",
    "giga_id_school": "783bb1c2-2b7d-3cbc-bf5b-b5f5b073eaad",
    "school_data_source": null
  },
  {
    "school_name": "Jawoe Manalah Public",
    "longitude": -9.396321296691895,
    "latitude": 7.003564834594727,
    "education_level": "Unknown",
    "country_iso3_code": "LBR",
    "giga_id_school": "4b62a64c-0b56-334b-b8b4-084e41a7c394",
    "school_data_source": null
  },
  {
    "school_name": "Jemima S. Carter Memorial Inst.",
    "longitude": -9.46867847442627,
    "latitude": 6.990245819091797,
    "education_level": "Unknown",
    "country_iso3_code": "LBR",
    "giga_id_school": "0c0b785f-fcc8-3f2d-ada5-fda1ee372e0f",
    "school_data_source": null
  },
  {
    "school_name": "Jemmiyea Community School",
    "longitude": -9.378026962280273,
    "latitude": 6.99606990814209,
    "education_level": "Unknown",
    "country_iso3_code": "LBR",
    "giga_id_school": "4f8a4684-66bf-34a4-a5f2-0acb59ae609a",
    "school_data_source": null
  },
  {
    "school_name": "Jerome Francis Clarke",
    "longitude": -9.4708890914917,
    "latitude": 6.992589950561523,
    "education_level": "Unknown",
    "country_iso3_code": "LBR",
    "giga_id_school": "a35c3ce0-11c5-3c7e-8c72-e594dce3cc82",
    "school_data_source": null
  },
  {
    "school_name": "Jinniepeleta Public",
    "longitude": -9.350730895996094,
    "latitude": 7.00902795791626,
    "education_level": "Unknown",
    "country_iso3_code": "LBR",
    "giga_id_school": "76e61d55-4ed5-36ae-8502-8ea34538bdb1",
    "school_data_source": null
  },
  {
    "school_name": "John F.Bakalu Public",
    "longitude": -9.473538398742676,
    "latitude": 7.005568027496338,
    "education_level": "Unknown",
    "country_iso3_code": "LBR",
    "giga_id_school": "eafd00bf-0eb3-306e-8f8f-b2e19a812453",
    "school_data_source": null
  },
  {
    "school_name": "Johnson K.Mulbah Memoria Public",
    "longitude": -9.492170333862305,
    "latitude": 7.002994060516357,
    "education_level": "Unknown",
    "country_iso3_code": "LBR",
    "giga_id_school": "8414e5ba-768d-3552-a941-5a54f22f7e47",
    "school_data_source": null
  },
  {
    "school_name": "Jorkpenmue Public",
    "longitude": -9.462958335876465,
    "latitude": 7.014553070068359,
    "education_level": "Unknown",
    "country_iso3_code": "LBR",
    "giga_id_school": "c0e5b01b-8d17-3b5f-a5a4-23524d561fb2",
    "school_data_source": null
  },
  {
    "school_name": "Keenan Institute",
    "longitude": -9.546104431152344,
    "latitude": 7.050547122955322,
    "education_level": "Unknown",
    "country_iso3_code": "LBR",
    "giga_id_school": "e84ffe8d-a872-31d5-8cf9-1ac2108fd908",
    "school_data_source": null
  },
  {
    "school_name": "Kelekpalah Public",
    "longitude": -8.615753173828125,
    "latitude": 6.9611029624938965,
    "education_level": "Unknown",
    "country_iso3_code": "LBR",
    "giga_id_school": "2513ecac-5e6c-3e1a-a023-5218937be8ef",
    "school_data_source": null
  },
  {
    "school_name": "Kerkulah Farm Pub. School",
    "longitude": -9.378719329833984,
    "latitude": 7.007865905761719,
    "education_level": "Unknown",
    "country_iso3_code": "LBR",
    "giga_id_school": "5976afa4-a15e-3e3f-bb10-8d42d60e41bc",
    "school_data_source": null
  },
  {
    "school_name": "Kerkulah G Larteh",
    "longitude": -9.489013671875,
    "latitude": 6.988537788391113,
    "education_level": "Unknown",
    "country_iso3_code": "LBR",
    "giga_id_school": "7e8deef9-cc50-3a1e-90a0-86022a129a5b",
    "school_data_source": null
  },
  {
    "school_name": "Kpaiyah",
    "longitude": -9.33021068572998,
    "latitude": 7.1043171882629395,
    "education_level": "Unknown",
    "country_iso3_code": "LBR",
    "giga_id_school": "0adb32da-f464-3506-98a0-f015c1e61b69",
    "school_data_source": null
  },
  {
    "school_name": "Kpanyah Public",
    "longitude": -9.32519817352295,
    "latitude": 7.080150127410889,
    "education_level": "Unknown",
    "country_iso3_code": "LBR",
    "giga_id_school": "aa5b47a3-edf0-3eae-b237-6b147734131c",
    "school_data_source": null
  },
  {
    "school_name": "LAG Foundation",
    "longitude": -9.464886665344238,
    "latitude": 6.995062828063965,
    "education_level": "Unknown",
    "country_iso3_code": "LBR",
    "giga_id_school": "eae6628d-1410-38df-8ed0-ca8b6fb7a474",
    "school_data_source": null
  },
  {
    "school_name": "Liberia Muslim Association School",
    "longitude": -9.472271919250488,
    "latitude": 7.004872798919678,
    "education_level": "Unknown",
    "country_iso3_code": "LBR",
    "giga_id_school": "60414e86-eb94-361b-8640-57dba90fb883",
    "school_data_source": null
  },
  {
    "school_name": "Liberty Baptist Christian School",
    "longitude": -9.457563400268555,
    "latitude": 6.977312088012695,
    "education_level": "Unknown",
    "country_iso3_code": "LBR",
    "giga_id_school": "ddae7529-8252-3fdf-8195-cc7016c794fc",
    "school_data_source": null
  },
  {
    "school_name": "LOIC Extension High School",
    "longitude": -9.476555824279785,
    "latitude": 7.004374027252197,
    "education_level": "Unknown",
    "country_iso3_code": "LBR",
    "giga_id_school": "34b35bcf-6e3b-3db7-86cc-394587e91bcf",
    "school_data_source": null
  },
  {
    "school_name": "LSB Wohn-A-Nehn",
    "longitude": -9.485945701599121,
    "latitude": 7.0158820152282715,
    "education_level": "Unknown",
    "country_iso3_code": "LBR",
    "giga_id_school": "6eea90b5-a990-322e-9053-ea9b6cf095dc",
    "school_data_source": null
  },
  {
    "school_name": "Ma- Ruth Memorial Maranatha Baptist",
    "longitude": -9.468537330627441,
    "latitude": 6.977484226226807,
    "education_level": "Unknown",
    "country_iso3_code": "LBR",
    "giga_id_school": "b60595a3-298f-3db5-b105-14d42b4581fa",
    "school_data_source": null
  },
  {
    "school_name": "Macedonia Baptist Elem School",
    "longitude": -9.491004943847656,
    "latitude": 7.013461112976074,
    "education_level": "Unknown",
    "country_iso3_code": "LBR",
    "giga_id_school": "4810d26e-8050-33e9-b81b-b5d5fd5f71ef",
    "school_data_source": null
  },
  {
    "school_name": "Mission Of Hope Academy",
    "longitude": -9.502440452575684,
    "latitude": 7.026063919067383,
    "education_level": "Unknown",
    "country_iso3_code": "LBR",
    "giga_id_school": "2bce2db9-4288-3dfe-b209-9dd3c8fa2ad2",
    "school_data_source": null
  },
  {
    "school_name": "Mother Louise Neufville",
    "longitude": -9.454812049865723,
    "latitude": 7.001893043518066,
    "education_level": "Unknown",
    "country_iso3_code": "LBR",
    "giga_id_school": "3d1f47d2-2114-37ab-9430-a05cac1ca0fa",
    "school_data_source": null
  },
  {
    "school_name": "N V. Massaquoi Public School",
    "longitude": -9.464569091796875,
    "latitude": 6.987419128417969,
    "education_level": "Unknown",
    "country_iso3_code": "LBR",
    "giga_id_school": "9c159e88-368d-39b8-b7a7-7e82a8e0c4ed",
    "school_data_source": null
  },
  {
    "school_name": "New Born Christian Daycare",
    "longitude": -9.492232322692871,
    "latitude": 7.01287317276001,
    "education_level": "Unknown",
    "country_iso3_code": "LBR",
    "giga_id_school": "6cb63380-f7e0-3b4c-94f3-5daf6cb4292f",
    "school_data_source": null
  },
  {
    "school_name": "New Convenant Academy",
    "longitude": -9.474590301513672,
    "latitude": 6.984823226928711,
    "education_level": "Unknown",
    "country_iso3_code": "LBR",
    "giga_id_school": "ac36d7ce-1003-3fc1-8e66-318813a33ca0",
    "school_data_source": null
  },
  {
    "school_name": "New Life Baptist School",
    "longitude": -9.54349422454834,
    "latitude": 7.0424652099609375,
    "education_level": "Unknown",
    "country_iso3_code": "LBR",
    "giga_id_school": "0b655373-e356-35ae-91e1-88b5bc67c26a",
    "school_data_source": null
  },
  {
    "school_name": "New Life Outreach Preparetory School",
    "longitude": -9.47044563293457,
    "latitude": 7.000376224517822,
    "education_level": "Unknown",
    "country_iso3_code": "LBR",
    "giga_id_school": "ae238492-a922-395b-8e0e-b2702b0a6812",
    "school_data_source": null
  },
  {
    "school_name": "Philadelphia Group Of School System",
    "longitude": -9.465514183044434,
    "latitude": 7.007756233215332,
    "education_level": "Unknown",
    "country_iso3_code": "LBR",
    "giga_id_school": "d99790fd-27e0-325c-aca1-bbd7bb4ed1ff",
    "school_data_source": null
  },
  {
    "school_name": "Redeemed School",
    "longitude": -9.476679801940918,
    "latitude": 7.009512901306152,
    "education_level": "Unknown",
    "country_iso3_code": "LBR",
    "giga_id_school": "ab1a8c68-7506-3f59-b72e-34fa44da208c",
    "school_data_source": null
  },
  {
    "school_name": "Royal Foundation Daycare / Primary",
    "longitude": -9.479310989379883,
    "latitude": 6.986262798309326,
    "education_level": "Unknown",
    "country_iso3_code": "LBR",
    "giga_id_school": "7733bf79-cf06-354c-983c-b8833c76d90e",
    "school_data_source": null
  },
  {
    "school_name": "Royal Preparatory",
    "longitude": -9.472803115844727,
    "latitude": 7.001805782318115,
    "education_level": "Unknown",
    "country_iso3_code": "LBR",
    "giga_id_school": "a2bf767b-7162-3649-a8fe-814b978599eb",
    "school_data_source": null
  },
  {
    "school_name": "S. Kpoto Baysah Elementary",
    "longitude": -9.4744234085083,
    "latitude": 6.98905086517334,
    "education_level": "Unknown",
    "country_iso3_code": "LBR",
    "giga_id_school": "cdb1119c-6966-338b-b290-ddcc60fdef34",
    "school_data_source": null
  },
  {
    "school_name": "Salvation in Christ Elem school",
    "longitude": -9.487252235412598,
    "latitude": 7.007016181945801,
    "education_level": "Unknown",
    "country_iso3_code": "LBR",
    "giga_id_school": "db335e3d-3a8f-3ce1-994a-96c0b8cbbd7b",
    "school_data_source": null
  },
  {
    "school_name": "School of Faith",
    "longitude": -9.475663185119629,
    "latitude": 7.00192403793335,
    "education_level": "Unknown",
    "country_iso3_code": "LBR",
    "giga_id_school": "641498e2-3990-3546-9d35-1c920c79b3b8",
    "school_data_source": null
  },
  {
    "school_name": "School of Wisdom",
    "longitude": -9.474535942077637,
    "latitude": 6.982101917266846,
    "education_level": "Unknown",
    "country_iso3_code": "LBR",
    "giga_id_school": "b921f548-c5f7-3a16-8b09-4af914bc7a0e",
    "school_data_source": null
  },
  {
    "school_name": "Sis. Ruth Memorial Elem",
    "longitude": -9.460044860839844,
    "latitude": 6.998334884643555,
    "education_level": "Unknown",
    "country_iso3_code": "LBR",
    "giga_id_school": "1dee1942-2f94-3ee6-a921-689f9a83b2e7",
    "school_data_source": null
  },
  {
    "school_name": "St. Mark Lutheran High",
    "longitude": -9.469982147216797,
    "latitude": 7.0009589195251465,
    "education_level": "Unknown",
    "country_iso3_code": "LBR",
    "giga_id_school": "7d098348-7839-3493-a898-4cce92309cd8",
    "school_data_source": null
  },
  {
    "school_name": "St. Matthe's Day Care & Primary",
    "longitude": -9.482112884521484,
    "latitude": 7.003332138061523,
    "education_level": "Unknown",
    "country_iso3_code": "LBR",
    "giga_id_school": "42f931ea-abd5-3254-ba70-d07c13ec9927",
    "school_data_source": null
  },
  {
    "school_name": "St. Matthew Academy",
    "longitude": -9.467256546020508,
    "latitude": 6.98475980758667,
    "education_level": "Unknown",
    "country_iso3_code": "LBR",
    "giga_id_school": "045ee86f-5ff4-3ea2-a5b2-aa80837fbbf7",
    "school_data_source": null
  },
  {
    "school_name": "St. Peter's Episcopal High School",
    "longitude": -9.473483085632324,
    "latitude": 7.001248836517334,
    "education_level": "Unknown",
    "country_iso3_code": "LBR",
    "giga_id_school": "757a1246-6adc-3630-bb5c-3cba992a0edc",
    "school_data_source": null
  },
  {
    "school_name": "Sugar Hill Community Jr High & Vocation",
    "longitude": -9.452789306640625,
    "latitude": 7.004465103149414,
    "education_level": "Unknown",
    "country_iso3_code": "LBR",
    "giga_id_school": "cbc82283-5c85-3d05-b1d0-bb5caeb7ee51",
    "school_data_source": null
  },
  {
    "school_name": "Therma K. G. Elementary & Junior High",
    "longitude": -9.458210945129395,
    "latitude": 6.988436222076416,
    "education_level": "Unknown",
    "country_iso3_code": "LBR",
    "giga_id_school": "06a0c0bd-504c-3690-be27-2e2634af5ec5",
    "school_data_source": null
  },
  {
    "school_name": "United Lib.Inland Church Academy",
    "longitude": -9.470540046691895,
    "latitude": 7.010643005371094,
    "education_level": "Unknown",
    "country_iso3_code": "LBR",
    "giga_id_school": "92af2649-bbdf-36b6-91f3-13c4ebe1e7f3",
    "school_data_source": null
  },
  {
    "school_name": "William V.S. Tubman Gray School",
    "longitude": -9.843438148498535,
    "latitude": 6.8411688804626465,
    "education_level": "Unknown",
    "country_iso3_code": "LBR",
    "giga_id_school": "60ba8848-6a07-3506-840c-8ba0eb6e56a1",
    "school_data_source": null
  },
  {
    "school_name": "World Overcomers Academy",
    "longitude": -9.46035385131836,
    "latitude": 7.007606029510498,
    "education_level": "Unknown",
    "country_iso3_code": "LBR",
    "giga_id_school": "24fcc9db-33da-3a55-9472-b295177cc9ed",
    "school_data_source": null
  },
  {
    "school_name": "Bahn Hill Light House Mission",
    "longitude": -9.2251615524292,
    "latitude": 6.654736042022705,
    "education_level": "Unknown",
    "country_iso3_code": "LBR",
    "giga_id_school": "a361211f-789c-3587-9b90-39e12719b91a",
    "school_data_source": null
  },
  {
    "school_name": "Barsee Kpangbai Public School",
    "longitude": -9.418573379516602,
    "latitude": 6.918067932128906,
    "education_level": "Unknown",
    "country_iso3_code": "LBR",
    "giga_id_school": "6d34a4ed-950c-3b94-a039-8aac002fefef",
    "school_data_source": null
  },
  {
    "school_name": "Baryata Public School",
    "longitude": -9.34695053100586,
    "latitude": 6.795632839202881,
    "education_level": "Unknown",
    "country_iso3_code": "LBR",
    "giga_id_school": "2be93014-2c96-3dc0-9638-bd82a8fdb859",
    "school_data_source": null
  },
  {
    "school_name": "Beletanla Public School",
    "longitude": -9.423503875732422,
    "latitude": 6.864131927490234,
    "education_level": "Unknown",
    "country_iso3_code": "LBR",
    "giga_id_school": "d32e6ccc-f2c4-3ad6-b945-6dbababe5a1b",
    "school_data_source": null
  },
  {
    "school_name": "Boinwein Progressive School",
    "longitude": -9.276155471801758,
    "latitude": 6.7283549308776855,
    "education_level": "Unknown",
    "country_iso3_code": "LBR",
    "giga_id_school": "2bb9d5bc-a29c-30dd-b907-52394d5ae6d2",
    "school_data_source": null
  },
  {
    "school_name": "Cammue Donkpoh",
    "longitude": -9.456560134887695,
    "latitude": 6.833889007568359,
    "education_level": "Unknown",
    "country_iso3_code": "LBR",
    "giga_id_school": "f7cf58f7-a70b-30a4-99c3-578f66d4d702",
    "school_data_source": null
  },
  {
    "school_name": "Ceewin Community School",
    "longitude": -9.423428535461426,
    "latitude": 6.600286960601807,
    "education_level": "Unknown",
    "country_iso3_code": "LBR",
    "giga_id_school": "f64a8178-1375-3840-98f7-3504c41667c7",
    "school_data_source": null
  },
  {
    "school_name": "Dean Town Public School",
    "longitude": -9.274270057678223,
    "latitude": 6.652247905731201,
    "education_level": "Unknown",
    "country_iso3_code": "LBR",
    "giga_id_school": "bd6785c8-9844-3dbd-a822-f5ce5b82df21",
    "school_data_source": null
  },
  {
    "school_name": "Dolo-bai",
    "longitude": -9.432579040527344,
    "latitude": 6.669511795043945,
    "education_level": "Unknown",
    "country_iso3_code": "LBR",
    "giga_id_school": "f733fbaa-ce12-373d-8ae5-c76766073fed",
    "school_data_source": null
  },
  {
    "school_name": "Dolomialehn",
    "longitude": -9.284703254699707,
    "latitude": 6.792704105377197,
    "education_level": "Unknown",
    "country_iso3_code": "LBR",
    "giga_id_school": "e20257ab-6965-352f-8dd2-430e18c605a0",
    "school_data_source": null
  },
  {
    "school_name": "Dolo's Town Public School",
    "longitude": -9.278580665588379,
    "latitude": 6.696854114532471,
    "education_level": "Unknown",
    "country_iso3_code": "LBR",
    "giga_id_school": "79bf5c85-eaa1-3476-b2a4-341d78b66120",
    "school_data_source": null
  },
  {
    "school_name": "Dr. Joseph G. Morris",
    "longitude": -9.40003776550293,
    "latitude": 6.811775207519531,
    "education_level": "Unknown",
    "country_iso3_code": "LBR",
    "giga_id_school": "4f3e0213-dc8f-3623-92fa-14eac8739717",
    "school_data_source": null
  },
  {
    "school_name": "Faeyawoi Public School",
    "longitude": -9.361242294311523,
    "latitude": 6.685667037963867,
    "education_level": "Unknown",
    "country_iso3_code": "LBR",
    "giga_id_school": "22e5881f-7599-3dfb-8d48-e61051f3b15c",
    "school_data_source": null
  },
  {
    "school_name": "Gbanyankollie Wolomeyan Elem. Pub. Sch.",
    "longitude": -9.483989715576172,
    "latitude": 6.876677989959717,
    "education_level": "Unknown",
    "country_iso3_code": "LBR",
    "giga_id_school": "32bd2ed9-8052-3f54-b636-337832d12e12",
    "school_data_source": null
  },
  {
    "school_name": "Gbarta Public",
    "longitude": -9.293099403381348,
    "latitude": 6.714000225067139,
    "education_level": "Unknown",
    "country_iso3_code": "LBR",
    "giga_id_school": "4676faa5-fceb-3056-b436-173b4add7470",
    "school_data_source": null
  },
  {
    "school_name": "Gbenequelleh Public",
    "longitude": -9.460952758789062,
    "latitude": 6.741371154785156,
    "education_level": "Unknown",
    "country_iso3_code": "LBR",
    "giga_id_school": "a8b66d97-743d-3f8b-883f-a18ee676852a",
    "school_data_source": null
  },
  {
    "school_name": "Gbenyanyea Public",
    "longitude": -9.444233894348145,
    "latitude": 6.804399013519287,
    "education_level": "Unknown",
    "country_iso3_code": "LBR",
    "giga_id_school": "8768441d-fce1-3552-a898-d830f1d65e88",
    "school_data_source": null
  },
  {
    "school_name": "Ghenwein Mission School",
    "longitude": -9.399386405944824,
    "latitude": 6.626698970794678,
    "education_level": "Unknown",
    "country_iso3_code": "LBR",
    "giga_id_school": "a7d99dba-c766-31bd-9094-7a295dcc9ea5",
    "school_data_source": null
  },
  {
    "school_name": "Hope Baptist Elem",
    "longitude": -9.443368911743164,
    "latitude": 6.78074312210083,
    "education_level": "Unknown",
    "country_iso3_code": "LBR",
    "giga_id_school": "1a342cef-5386-3172-b335-27415df32f99",
    "school_data_source": null
  },
  {
    "school_name": "Janquayata Community",
    "longitude": -9.330153465270996,
    "latitude": 6.722506046295166,
    "education_level": "Unknown",
    "country_iso3_code": "LBR",
    "giga_id_school": "ea771cb6-1473-392e-a513-f6356345492d",
    "school_data_source": null
  },
  {
    "school_name": "Karkamue Elementary",
    "longitude": -9.415371894836426,
    "latitude": 6.665702819824219,
    "education_level": "Unknown",
    "country_iso3_code": "LBR",
    "giga_id_school": "075fa783-bf7a-33dd-9836-7f2cad01fd30",
    "school_data_source": null
  },
  {
    "school_name": "Kilikpahn",
    "longitude": -9.332258224487305,
    "latitude": 6.87251091003418,
    "education_level": "Unknown",
    "country_iso3_code": "LBR",
    "giga_id_school": "ae9400aa-fceb-3c71-8155-37382e35af06",
    "school_data_source": null
  },
  {
    "school_name": "Kili-Tourmaa Public",
    "longitude": -9.471635818481445,
    "latitude": 6.75932502746582,
    "education_level": "Unknown",
    "country_iso3_code": "LBR",
    "giga_id_school": "daecbc5a-f07b-3a0e-8f8b-ba4ab213751c",
    "school_data_source": null
  },
  {
    "school_name": "Kokoyah",
    "longitude": -9.50888729095459,
    "latitude": 6.509137153625488,
    "education_level": "Unknown",
    "country_iso3_code": "LBR",
    "giga_id_school": "d07c9c79-15e4-394d-a126-38bf57e9208a",
    "school_data_source": null
  },
  {
    "school_name": "Kolleh Wrolupue Public",
    "longitude": -9.379721641540527,
    "latitude": 6.886530876159668,
    "education_level": "Unknown",
    "country_iso3_code": "LBR",
    "giga_id_school": "6f076e58-eafe-37a9-a00c-f923b03e3a96",
    "school_data_source": null
  },
  {
    "school_name": "Komata Public School",
    "longitude": -9.367109298706055,
    "latitude": 6.818802833557129,
    "education_level": "Unknown",
    "country_iso3_code": "LBR",
    "giga_id_school": "4afcbbbb-3ad1-3524-80b2-f49762534cad",
    "school_data_source": null
  },
  {
    "school_name": "Kpolokpalai Public",
    "longitude": -9.375663757324219,
    "latitude": 6.934782981872559,
    "education_level": "Unknown",
    "country_iso3_code": "LBR",
    "giga_id_school": "964dd8c6-05f5-309d-9441-e1a8698d4d5a",
    "school_data_source": null
  },
  {
    "school_name": "Kponyea Public",
    "longitude": -9.504406929016113,
    "latitude": 6.712500095367432,
    "education_level": "Unknown",
    "country_iso3_code": "LBR",
    "giga_id_school": "23b6bc1a-97e2-3e1b-b61a-a94e2ac75cab",
    "school_data_source": null
  },
  {
    "school_name": "Kpotolon Elementary",
    "longitude": -9.528324127197266,
    "latitude": 6.702915191650391,
    "education_level": "Unknown",
    "country_iso3_code": "LBR",
    "giga_id_school": "93e67606-0601-341e-978e-1ce0ac0009d2",
    "school_data_source": null
  },
  {
    "school_name": "Malonkai Elementary",
    "longitude": -9.398457527160645,
    "latitude": 6.7069878578186035,
    "education_level": "Unknown",
    "country_iso3_code": "LBR",
    "giga_id_school": "4070271a-6157-3ea8-bd90-16c58328100a",
    "school_data_source": null
  },
  {
    "school_name": "Manakpoloi Public",
    "longitude": -9.245458602905273,
    "latitude": 6.766121864318848,
    "education_level": "Unknown",
    "country_iso3_code": "LBR",
    "giga_id_school": "0fcef22b-2d26-36af-ab23-9ad634157946",
    "school_data_source": null
  },
  {
    "school_name": "Morris Town Community School",
    "longitude": -9.52685832977295,
    "latitude": 6.76997709274292,
    "education_level": "Unknown",
    "country_iso3_code": "LBR",
    "giga_id_school": "81221b9e-1911-31c9-a26e-59da64431c4c",
    "school_data_source": null
  },
  {
    "school_name": "New-Town Public School",
    "longitude": -9.250267028808594,
    "latitude": 6.731033802032471,
    "education_level": "Unknown",
    "country_iso3_code": "LBR",
    "giga_id_school": "04a7bec7-4108-330c-b121-3505c87059fa",
    "school_data_source": null
  },
  {
    "school_name": "Quayarkulah Public School",
    "longitude": -9.482206344604492,
    "latitude": 6.701165199279785,
    "education_level": "Unknown",
    "country_iso3_code": "LBR",
    "giga_id_school": "84eb41fc-6ac6-3d57-9aac-61c86a57b50b",
    "school_data_source": null
  },
  {
    "school_name": "Queh Garyeazon Public School",
    "longitude": -9.249332427978516,
    "latitude": 6.634243965148926,
    "education_level": "Unknown",
    "country_iso3_code": "LBR",
    "giga_id_school": "14a0f29f-989b-37c6-88db-6dcdddeac14d",
    "school_data_source": null
  },
  {
    "school_name": "Quoikapor Public",
    "longitude": -9.173588752746582,
    "latitude": 6.744643211364746,
    "education_level": "Unknown",
    "country_iso3_code": "LBR",
    "giga_id_school": "2b1066a2-43f3-3b7b-94b2-fc7914c28657",
    "school_data_source": null
  },
  {
    "school_name": "Samuel Sie Collins",
    "longitude": -9.443713188171387,
    "latitude": 6.784371852874756,
    "education_level": "Unknown",
    "country_iso3_code": "LBR",
    "giga_id_school": "d5aa6340-238f-30fe-a8b0-5c063f72cacf",
    "school_data_source": null
  },
  {
    "school_name": "Sayewheh Public School",
    "longitude": -9.281265258789062,
    "latitude": 6.624779224395752,
    "education_level": "Unknown",
    "country_iso3_code": "LBR",
    "giga_id_school": "ecdc837f-e133-3b90-848f-88ace8fec6ce",
    "school_data_source": null
  },
  {
    "school_name": "Sheansue Public School",
    "longitude": -9.328396797180176,
    "latitude": 6.82708215713501,
    "education_level": "Unknown",
    "country_iso3_code": "LBR",
    "giga_id_school": "ea905a3e-a4a3-3b84-9767-3d064696eb9b",
    "school_data_source": null
  },
  {
    "school_name": "Soul Winning Baptist School",
    "longitude": -9.274596214294434,
    "latitude": 6.650699138641357,
    "education_level": "Unknown",
    "country_iso3_code": "LBR",
    "giga_id_school": "2a6ceb26-f067-3da5-826a-02c0d27ec2a4",
    "school_data_source": null
  },
  {
    "school_name": "Tamayta Public School",
    "longitude": -9.465145111083984,
    "latitude": 6.8050217628479,
    "education_level": "Unknown",
    "country_iso3_code": "LBR",
    "giga_id_school": "262ae5c7-2277-3816-b716-531ba80f7b94",
    "school_data_source": null
  },
  {
    "school_name": "Taryah Gortota Community",
    "longitude": -9.352156639099121,
    "latitude": 6.839598178863525,
    "education_level": "Unknown",
    "country_iso3_code": "LBR",
    "giga_id_school": "1659f499-352c-3199-a7bc-c54746368aa1",
    "school_data_source": null
  },
  {
    "school_name": "Tuankan Town Community",
    "longitude": -9.444330215454102,
    "latitude": 6.705514907836914,
    "education_level": "Unknown",
    "country_iso3_code": "LBR",
    "giga_id_school": "4086d879-c771-3d57-9735-8828ca39c6d5",
    "school_data_source": null
  },
  {
    "school_name": "Tukpahblee",
    "longitude": -9.430421829223633,
    "latitude": 6.59069299697876,
    "education_level": "Unknown",
    "country_iso3_code": "LBR",
    "giga_id_school": "2382ebba-0ca0-3aab-af2f-cf9617c8760a",
    "school_data_source": null
  },
  {
    "school_name": "U- Lah Public School",
    "longitude": -9.234731674194336,
    "latitude": 6.745756149291992,
    "education_level": "Unknown",
    "country_iso3_code": "LBR",
    "giga_id_school": "67ab1c7a-0eef-3603-a23c-9ab19a3cf2c1",
    "school_data_source": null
  },
  {
    "school_name": "Weleta Public School",
    "longitude": -9.423478126525879,
    "latitude": 6.652583122253418,
    "education_level": "Unknown",
    "country_iso3_code": "LBR",
    "giga_id_school": "baa60c54-caf0-3efb-bd77-3b87c4a5e58f",
    "school_data_source": null
  },
  {
    "school_name": "Wesseh Gardea Public",
    "longitude": -9.376161575317383,
    "latitude": 6.654819965362549,
    "education_level": "Unknown",
    "country_iso3_code": "LBR",
    "giga_id_school": "dad3fd73-bd75-30ec-8206-13a7745bf5b2",
    "school_data_source": null
  },
  {
    "school_name": "Wulapor Wula Public School",
    "longitude": -9.20459270477295,
    "latitude": 6.738231182098389,
    "education_level": "Unknown",
    "country_iso3_code": "LBR",
    "giga_id_school": "0d347be2-315a-3d1c-a93c-ff6a265b24e0",
    "school_data_source": null
  },
  {
    "school_name": "Yeakai Community Sch.",
    "longitude": -9.458808898925781,
    "latitude": 6.684435844421387,
    "education_level": "Unknown",
    "country_iso3_code": "LBR",
    "giga_id_school": "bbcc2867-7b03-3c02-908e-6b4492231f32",
    "school_data_source": null
  },
  {
    "school_name": "Yolo Public School",
    "longitude": -9.190648078918457,
    "latitude": 6.6745100021362305,
    "education_level": "Unknown",
    "country_iso3_code": "LBR",
    "giga_id_school": "cb8617ed-2ffc-32e2-9608-e31f59f29e74",
    "school_data_source": null
  },
  {
    "school_name": "Zeo Community School",
    "longitude": -9.356816291809082,
    "latitude": 6.621579170227051,
    "education_level": "Unknown",
    "country_iso3_code": "LBR",
    "giga_id_school": "a163a03c-484f-3775-baaa-5093b3af6519",
    "school_data_source": null
  },
  {
    "school_name": "Baylen-Koe Public School",
    "longitude": -9.114409446716309,
    "latitude": 7.196610927581787,
    "education_level": "Unknown",
    "country_iso3_code": "LBR",
    "giga_id_school": "40b86844-cf84-3e60-b7d2-a5e83555973f",
    "school_data_source": null
  },
  {
    "school_name": "Belleganla Public School",
    "longitude": -9.179269790649414,
    "latitude": 6.894285202026367,
    "education_level": "Unknown",
    "country_iso3_code": "LBR",
    "giga_id_school": "30fdab56-4c5c-30c5-a1d3-87f4eb3e9d69",
    "school_data_source": null
  },
  {
    "school_name": "Charlie K. Too",
    "longitude": -9.241573333740234,
    "latitude": 6.852130889892578,
    "education_level": "Unknown",
    "country_iso3_code": "LBR",
    "giga_id_school": "85620414-56fd-350a-806e-cb5d87663af1",
    "school_data_source": null
  },
  {
    "school_name": "Christine T. Norman Public",
    "longitude": -10.360832214355469,
    "latitude": 6.815000057220459,
    "education_level": "Unknown",
    "country_iso3_code": "LBR",
    "giga_id_school": "255bc533-69cc-3081-97aa-37a32cce766d",
    "school_data_source": null
  },
  {
    "school_name": "Cooper G. Wannah",
    "longitude": -9.162357330322266,
    "latitude": 6.928709030151367,
    "education_level": "Unknown",
    "country_iso3_code": "LBR",
    "giga_id_school": "5241af17-2f81-3e4a-9502-6892027b64ae",
    "school_data_source": null
  },
  {
    "school_name": "Corporal G.Woah",
    "longitude": -9.205192565917969,
    "latitude": 7.19451904296875,
    "education_level": "Unknown",
    "country_iso3_code": "LBR",
    "giga_id_school": "92e94fe2-75a3-3134-9a7f-6cf2f47ab17a",
    "school_data_source": null
  },
  {
    "school_name": "David F. Bee",
    "longitude": -9.221025466918945,
    "latitude": 7.088953018188477,
    "education_level": "Unknown",
    "country_iso3_code": "LBR",
    "giga_id_school": "73cee11d-206a-380b-9d0f-23e27c51ecce",
    "school_data_source": null
  },
  {
    "school_name": "Dolobia Nyanor",
    "longitude": -9.156279563903809,
    "latitude": 6.775887966156006,
    "education_level": "Unknown",
    "country_iso3_code": "LBR",
    "giga_id_school": "2c39001c-1876-3190-8142-628a9be41b75",
    "school_data_source": null
  },
  {
    "school_name": "Dolokelen Paye",
    "longitude": -9.225728034973145,
    "latitude": 7.126955032348633,
    "education_level": "Unknown",
    "country_iso3_code": "LBR",
    "giga_id_school": "40e799b8-2b21-35b7-af6b-6bc57ccf3297",
    "school_data_source": null
  },
  {
    "school_name": "Duanah Public",
    "longitude": -9.22254467010498,
    "latitude": 6.775566101074219,
    "education_level": "Unknown",
    "country_iso3_code": "LBR",
    "giga_id_school": "94887659-628e-3d86-a743-335651c37f24",
    "school_data_source": null
  },
  {
    "school_name": "Fantee Public",
    "longitude": -9.234861373901367,
    "latitude": 6.803302764892578,
    "education_level": "Unknown",
    "country_iso3_code": "LBR",
    "giga_id_school": "7f8a4ac6-ff0e-3f67-83a4-c30b7253a9ab",
    "school_data_source": null
  },
  {
    "school_name": "Garmu Public",
    "longitude": -9.167713165283203,
    "latitude": 7.233488082885742,
    "education_level": "Unknown",
    "country_iso3_code": "LBR",
    "giga_id_school": "a777a985-d84d-3819-ae0c-313804fb88f4",
    "school_data_source": null
  },
  {
    "school_name": "Gaytayeah Public",
    "longitude": -9.30168342590332,
    "latitude": 6.894430160522461,
    "education_level": "Unknown",
    "country_iso3_code": "LBR",
    "giga_id_school": "51b21bbf-c032-3f81-b702-2f8211310dc1",
    "school_data_source": null
  },
  {
    "school_name": "Gbaowuta Public",
    "longitude": -9.185829162597656,
    "latitude": 7.28002405166626,
    "education_level": "Unknown",
    "country_iso3_code": "LBR",
    "giga_id_school": "03560ae9-aa7e-3199-9700-3349d6394c73",
    "school_data_source": null
  },
  {
    "school_name": "Gearyepalah Elem School",
    "longitude": -9.26759147644043,
    "latitude": 6.850359916687012,
    "education_level": "Unknown",
    "country_iso3_code": "LBR",
    "giga_id_school": "22099959-bce1-3eb1-8638-c007ff017e66",
    "school_data_source": null
  },
  {
    "school_name": "Gonkorjuah Public",
    "longitude": -9.229914665222168,
    "latitude": 6.976062774658203,
    "education_level": "Unknown",
    "country_iso3_code": "LBR",
    "giga_id_school": "27155985-3af7-3ed6-8496-e41900eecd3e",
    "school_data_source": null
  },
  {
    "school_name": "Gormah Memorial",
    "longitude": -9.20920181274414,
    "latitude": 6.846697807312012,
    "education_level": "Unknown",
    "country_iso3_code": "LBR",
    "giga_id_school": "719d2b1f-50d2-3fe4-aef9-9810305d4f81",
    "school_data_source": null
  },