[
  {
    "school_name": "مدرسة متوسطة",
    "longitude": 7.757384777069092,
    "latitude": 36.92724609375,
    "education_level": "Unknown",
    "country_iso3_code": "DZA",
    "giga_id_school": "b6643915-bfed-4d52-8732-f45f68258c31",
    "school_data_source": null
  },
  {
    "school_name": "Lycée Okba Annexe",
    "longitude": 3.0573339462280273,
    "latitude": 36.78963088989258,
    "education_level": "Unknown",
    "country_iso3_code": "DZA",
    "giga_id_school": "9f202753-e81c-4072-b67b-b43841010494",
    "school_data_source": null
  },
  {
    "school_name": "Ecole Ben Badis 2",
    "longitude": 3.1937780380249023,
    "latitude": 36.74518585205078,
    "education_level": "Unknown",
    "country_iso3_code": "DZA",
    "giga_id_school": "f2457678-ae62-4a7c-a1da-ce95dea140fe",
    "school_data_source": null
  },
  {
    "school_name": "Ecole Ben Badis 1",
    "longitude": 3.1936750411987305,
    "latitude": 36.74568557739258,
    "education_level": "Unknown",
    "country_iso3_code": "DZA",
    "giga_id_school": "675cab89-fada-428d-8581-a51b4c87c5e6",
    "school_data_source": null
  },
  {
    "school_name": "Ecole Ahmed Yacoub",
    "longitude": 3.194061279296875,
    "latitude": 36.746917724609375,
    "education_level": "Unknown",
    "country_iso3_code": "DZA",
    "giga_id_school": "d234c035-0c09-4a44-a567-3900d48fbb98",
    "school_data_source": null
  },
  {
    "school_name": "ثانوية طاطا أحمد .بوروبة",
    "longitude": 3.1267783641815186,
    "latitude": 36.72240447998047,
    "education_level": "Unknown",
    "country_iso3_code": "DZA",
    "giga_id_school": "da339b0e-5107-487f-bcdd-81d145b9b6b2",
    "school_data_source": null
  },
  {
    "school_name": "CEM Mohamed Laadour",
    "longitude": 3.1259255409240723,
    "latitude": 36.72935485839844,
    "education_level": "Unknown",
    "country_iso3_code": "DZA",
    "giga_id_school": "827ad0fb-1c57-4f31-b5b3-7fd935ad0754",
    "school_data_source": null
  },
  {
    "school_name": "CEM Lalla Khedidja",
    "longitude": 3.0409798622131348,
    "latitude": 36.800148010253906,
    "education_level": "Unknown",
    "country_iso3_code": "DZA",
    "giga_id_school": "01661f58-7d73-497f-aad8-d281912e008a",
    "school_data_source": null
  },
  {
    "school_name": "CEM Ibn Khaldoun",
    "longitude": 3.0412909984588623,
    "latitude": 36.79961395263672,
    "education_level": "Unknown",
    "country_iso3_code": "DZA",
    "giga_id_school": "8a838030-79f2-49d1-b014-9bfbe4b34d05",
    "school_data_source": null
  },
  {
    "school_name": "Ecole Fodhil El Ouartilani ابتدائية الفضيل الورثيلاني",
    "longitude": 3.0460546016693115,
    "latitude": 36.7971076965332,
    "education_level": "Unknown",
    "country_iso3_code": "DZA",
    "giga_id_school": "b9052c9e-9956-4baa-968d-f1df5f67a0ff",
    "school_data_source": null
  },
  {
    "school_name": "Ecole Coranique",
    "longitude": 2.9963631629943848,
    "latitude": 36.81499099731445,
    "education_level": "Unknown",
    "country_iso3_code": "DZA",
    "giga_id_school": "8653401d-3a42-4d5c-ae81-2ea47a3e102b",
    "school_data_source": null
  },
  {
    "school_name": "مدرسة محمد العيد الخليفة",
    "longitude": 3.0138742923736572,
    "latitude": 36.81658172607422,
    "education_level": "Unknown",
    "country_iso3_code": "DZA",
    "giga_id_school": "797993d3-78d1-432f-baa7-ed304b072a01",
    "school_data_source": null
  },
  {
    "school_name": "Ecole Sidi El Kebir",
    "longitude": 3.0112242698669434,
    "latitude": 36.813323974609375,
    "education_level": "Unknown",
    "country_iso3_code": "DZA",
    "giga_id_school": "f24668f7-e7f7-411d-8937-195fbcf877cf",
    "school_data_source": null
  },
  {
    "school_name": "École",
    "longitude": 2.9751577377319336,
    "latitude": 36.81257247924805,
    "education_level": "Unknown",
    "country_iso3_code": "DZA",
    "giga_id_school": "917759bc-caba-4f76-8c5b-8b6187dc9e81",
    "school_data_source": null
  },
  {
    "school_name": "CEM M'Barek El Mili",
    "longitude": 2.9697275161743164,
    "latitude": 36.809322357177734,
    "education_level": "Unknown",
    "country_iso3_code": "DZA",
    "giga_id_school": "45fb3472-2916-4d65-9007-d1ee5a78d473",
    "school_data_source": null
  },
  {
    "school_name": "Ecole Coranique",
    "longitude": 2.974850654602051,
    "latitude": 36.777244567871094,
    "education_level": "Unknown",
    "country_iso3_code": "DZA",
    "giga_id_school": "b974dc12-d315-4137-9878-cd95bb2dd3cc",
    "school_data_source": null
  },
  {
    "school_name": "Ecole Abass Laghrour",
    "longitude": 2.9763741493225098,
    "latitude": 36.77284622192383,
    "education_level": "Unknown",
    "country_iso3_code": "DZA",
    "giga_id_school": "a53a48d1-a61c-45de-ae47-26eaf5ff4ebf",
    "school_data_source": null
  },
  {
    "school_name": "Ecole Aïssat Idir",
    "longitude": 2.976320505142212,
    "latitude": 36.78117370605469,
    "education_level": "Unknown",
    "country_iso3_code": "DZA",
    "giga_id_school": "039a53c3-61aa-4d78-8160-fd948610ea66",
    "school_data_source": null
  },
  {
    "school_name": "Ecole 1er novembre 1954",
    "longitude": 2.976395606994629,
    "latitude": 36.77898406982422,
    "education_level": "Unknown",
    "country_iso3_code": "DZA",
    "giga_id_school": "a9e93d04-ca8c-474e-b392-fd7ba443121b",
    "school_data_source": null
  },
  {
    "school_name": "Ecole Larbi Ben M'Hidi",
    "longitude": 2.9741103649139404,
    "latitude": 36.78089141845703,
    "education_level": "Unknown",
    "country_iso3_code": "DZA",
    "giga_id_school": "b7ccc619-b2db-4a31-8974-2d82722cb894",
    "school_data_source": null
  },
  {
    "school_name": "Ecole Djaouher El Thamina",
    "longitude": 2.9676055908203125,
    "latitude": 36.78762435913086,
    "education_level": "Unknown",
    "country_iso3_code": "DZA",
    "giga_id_school": "61409737-9ba2-4df7-80a5-81e9eaa29596",
    "school_data_source": null
  },
  {
    "school_name": "Ecole Aznata",
    "longitude": 2.9687857627868652,
    "latitude": 36.781002044677734,
    "education_level": "Unknown",
    "country_iso3_code": "DZA",
    "giga_id_school": "ecc66237-50d1-4cb4-b6b9-0c490d37e929",
    "school_data_source": null
  },
  {
    "school_name": "Lycée Abdelkrim Souissi",
    "longitude": 2.9677772521972656,
    "latitude": 36.78665542602539,
    "education_level": "Unknown",
    "country_iso3_code": "DZA",
    "giga_id_school": "e7371c74-ce8d-4dd6-938e-b258ba0d64fe",
    "school_data_source": null
  },
  {
    "school_name": "Ecole Mohamed Boudiaf",
    "longitude": 2.7342143058776855,
    "latitude": 36.448516845703125,
    "education_level": "Unknown",
    "country_iso3_code": "DZA",
    "giga_id_school": "0a108fe4-41c4-43ec-ae41-b3ab4d385f6e",
    "school_data_source": null
  },
  {
    "school_name": "Lycée Sidi Madani 1",
    "longitude": 2.7339353561401367,
    "latitude": 36.44805145263672,
    "education_level": "Unknown",
    "country_iso3_code": "DZA",
    "giga_id_school": "c28b9c2a-799b-4e17-ae21-1cec583dc01e",
    "school_data_source": null
  },
  {
    "school_name": "Ecole",
    "longitude": 2.9864792823791504,
    "latitude": 36.79533767700195,
    "education_level": "Unknown",
    "country_iso3_code": "DZA",
    "giga_id_school": "3b61d7d7-22af-483d-8a96-54969e734d7d",
    "school_data_source": null
  },
  {
    "school_name": "Ecole Addalou",
    "longitude": 4.452302932739258,
    "latitude": 36.39731216430664,
    "education_level": "Unknown",
    "country_iso3_code": "DZA",
    "giga_id_school": "57ee0ffb-babe-46ad-94ce-6cb753525d1e",
    "school_data_source": null
  },
  {
    "school_name": "Ecole Cheikh Bouamama",
    "longitude": 3.1086947917938232,
    "latitude": 36.710140228271484,
    "education_level": "Unknown",
    "country_iso3_code": "DZA",
    "giga_id_school": "4e85031a-a232-477a-a021-8840f53c888e",
    "school_data_source": null
  },
  {
    "school_name": "Lycée",
    "longitude": 4.900444507598877,
    "latitude": 36.4112548828125,
    "education_level": "Unknown",
    "country_iso3_code": "DZA",
    "giga_id_school": "fe93b356-acf1-41dd-9e2b-e456dd1c0420",
    "school_data_source": null
  },
  {
    "school_name": "École primaire",
    "longitude": 4.893041133880615,
    "latitude": 36.407047271728516,
    "education_level": "Primary",
    "country_iso3_code": "DZA",
    "giga_id_school": "92164076-4713-4ded-8103-57eb93a4764a",
    "school_data_source": null
  },
  {
    "school_name": "CEM",
    "longitude": 4.888512134552002,
    "latitude": 36.40782165527344,
    "education_level": "Unknown",
    "country_iso3_code": "DZA",
    "giga_id_school": "2057f71e-ea36-4e39-ac8a-8ac2f203c571",
    "school_data_source": null
  },
  {
    "school_name": "Nouveau CEM",
    "longitude": 4.892521381378174,
    "latitude": 36.41618728637695,
    "education_level": "Unknown",
    "country_iso3_code": "DZA",
    "giga_id_school": "dd34a0db-3285-493a-a395-91f8eb1459d4",
    "school_data_source": null
  },
  {
    "school_name": "Sidi-Yahia",
    "longitude": -1.7494169473648071,
    "latitude": 35.01188278198242,
    "education_level": "Unknown",
    "country_iso3_code": "DZA",
    "giga_id_school": "bf94b3a6-03da-4595-9864-343b4e43cde2",
    "school_data_source": null
  },
  {
    "school_name": "Adou-Rabeh",
    "longitude": -1.7453693151474,
    "latitude": 35.01193618774414,
    "education_level": "Unknown",
    "country_iso3_code": "DZA",
    "giga_id_school": "daacba83-345a-4ffd-9559-dffaba0fa9e1",
    "school_data_source": null
  },
  {
    "school_name": "المدرسة الابتدائية درمل علي",
    "longitude": -1.7891947031021118,
    "latitude": 35.042930603027344,
    "education_level": "Unknown",
    "country_iso3_code": "DZA",
    "giga_id_school": "db8ee087-b654-478d-a9c6-19c5f1680340",
    "school_data_source": null
  },
  {
    "school_name": "Akid Abbes",
    "longitude": -1.7452646493911743,
    "latitude": 35.0097770690918,
    "education_level": "Unknown",
    "country_iso3_code": "DZA",
    "giga_id_school": "76c6fa65-86fc-4176-afec-dd069f26191b",
    "school_data_source": null
  },
  {
    "school_name": "CEM",
    "longitude": 4.837063789367676,
    "latitude": 36.39514923095703,
    "education_level": "Unknown",
    "country_iso3_code": "DZA",
    "giga_id_school": "c0304c90-af3d-48a7-8359-aa894120354d",
    "school_data_source": null
  },
  {
    "school_name": "CEM -Med Sahraoui Ben Ali-",
    "longitude": 3.426997184753418,
    "latitude": 36.7153434753418,
    "education_level": "Unknown",
    "country_iso3_code": "DZA",
    "giga_id_school": "87704ae4-46e0-4bf3-90bc-a4de8f3a841d",
    "school_data_source": null
  },
  {
    "school_name": "Ecole Ben Zarro",
    "longitude": -1.3105275630950928,
    "latitude": 34.88043975830078,
    "education_level": "Unknown",
    "country_iso3_code": "DZA",
    "giga_id_school": "bfaf3b38-fefb-401f-baf5-6903334ec052",
    "school_data_source": null
  },
  {
    "school_name": "Ecole Rebbouh Bekhadda",
    "longitude": -0.316131591796875,
    "latitude": 35.8598518371582,
    "education_level": "Unknown",
    "country_iso3_code": "DZA",
    "giga_id_school": "01534273-a2ba-4e1b-b615-1dce3f032943",
    "school_data_source": null
  },
  {
    "school_name": "CEM",
    "longitude": -0.31679680943489075,
    "latitude": 35.85984420776367,
    "education_level": "Unknown",
    "country_iso3_code": "DZA",
    "giga_id_school": "96d8f2db-edcc-4e73-a414-cc1b4dbfbab1",
    "school_data_source": null
  },
  {
    "school_name": "Lycée privé AGORA",
    "longitude": 2.950582981109619,
    "latitude": 36.73986053466797,
    "education_level": "Unknown",
    "country_iso3_code": "DZA",
    "giga_id_school": "8d12ee2c-1020-456a-b67a-eaef6d41c7c3",
    "school_data_source": null
  },
  {
    "school_name": "متوسطة كباب الحسين",
    "longitude": 5.104254722595215,
    "latitude": 35.81398010253906,
    "education_level": "Unknown",
    "country_iso3_code": "DZA",
    "giga_id_school": "e2326723-57b4-41b8-9bc5-09061dcfb4e2",
    "school_data_source": null
  },
  {
    "school_name": "C.E.M. BABA ALI",
    "longitude": 3.0455498695373535,
    "latitude": 36.646976470947266,
    "education_level": "Unknown",
    "country_iso3_code": "DZA",
    "giga_id_school": "ff920db0-fc9e-4ede-870b-e8a087a57626",
    "school_data_source": null
  },
  {
    "school_name": "LSA LANGSOLS Algeria Language School",
    "longitude": 2.9744081497192383,
    "latitude": 36.75556182861328,
    "education_level": "Unknown",
    "country_iso3_code": "DZA",
    "giga_id_school": "6322ff40-ae76-4fd4-b51f-6ddcae3c5887",
    "school_data_source": null
  },
  {
    "school_name": "Santouhi Rabah",
    "longitude": 3.281034231185913,
    "latitude": 36.7425422668457,
    "education_level": "Unknown",
    "country_iso3_code": "DZA",
    "giga_id_school": "e4cc43a8-7a01-4e04-9ac6-623176fd3da5",
    "school_data_source": null
  },
  {
    "school_name": "ecole",
    "longitude": 3.0211856365203857,
    "latitude": 36.674285888671875,
    "education_level": "Unknown",
    "country_iso3_code": "DZA",
    "giga_id_school": "f1fe4d75-dca6-4a1e-8c50-a5abab334924",
    "school_data_source": null
  },
  {
    "school_name": "Lycée",
    "longitude": 5.86876916885376,
    "latitude": 36.508056640625,
    "education_level": "Unknown",
    "country_iso3_code": "DZA",
    "giga_id_school": "b546e050-bc35-4729-b9cc-68c855789d0b",
    "school_data_source": null
  },
  {
    "school_name": "CEM Mouloud Kacem Nait Belkacem",
    "longitude": 4.7431721687316895,
    "latitude": 36.0662956237793,
    "education_level": "Unknown",
    "country_iso3_code": "DZA",
    "giga_id_school": "4745bd06-b398-4f29-a0f8-9a4f2f4ef647",
    "school_data_source": null
  },
  {
    "school_name": "Ecole",
    "longitude": 4.272684097290039,
    "latitude": 36.5001106262207,
    "education_level": "Unknown",
    "country_iso3_code": "DZA",
    "giga_id_school": "b6d6abd0-5f2a-4850-8553-79afa4769f03",
    "school_data_source": null
  },
  {
    "school_name": "CEM El Khaouarizmi",
    "longitude": 6.9081830978393555,
    "latitude": 36.88093566894531,
    "education_level": "Unknown",
    "country_iso3_code": "DZA",
    "giga_id_school": "e8ead728-7998-4774-9ba9-94df0f91bf65",
    "school_data_source": null
  },
  {
    "school_name": "Lycée Larbi Tebessi",
    "longitude": 6.9108381271362305,
    "latitude": 36.88053894042969,
    "education_level": "Unknown",
    "country_iso3_code": "DZA",
    "giga_id_school": "d3e025b1-0e8b-422a-9c4b-fd8803d70180",
    "school_data_source": null
  },
  {
    "school_name": "Lycée Ennahda",
    "longitude": 6.90571928024292,
    "latitude": 36.87962341308594,
    "education_level": "Unknown",
    "country_iso3_code": "DZA",
    "giga_id_school": "3efbe21e-7bd4-4102-bedf-8538b8c904bd",
    "school_data_source": null
  },
  {
    "school_name": "Ecole Primaire Baabouch Rachid",
    "longitude": 6.908307075500488,
    "latitude": 36.88123321533203,
    "education_level": "Primary",
    "country_iso3_code": "DZA",
    "giga_id_school": "1a8b51da-c3e4-494c-ab16-7831411dd3cd",
    "school_data_source": null
  },
  {
    "school_name": "CEM Ibn Khaldoun",
    "longitude": 6.8965630531311035,
    "latitude": 36.880550384521484,
    "education_level": "Unknown",
    "country_iso3_code": "DZA",
    "giga_id_school": "ae5f84ac-b937-46d7-a36f-915fc318a46e",
    "school_data_source": null
  },
  {
    "school_name": "CEM Sidi Ahmed (Base 5)",
    "longitude": 5.059309482574463,
    "latitude": 36.76464080810547,
    "education_level": "Unknown",
    "country_iso3_code": "DZA",
    "giga_id_school": "8be0fd30-e337-4433-86e1-b675d90597d7",
    "school_data_source": null
  },
  {
    "school_name": "Lycée Ibn Sina",
    "longitude": 5.083049297332764,
    "latitude": 36.75324249267578,
    "education_level": "Unknown",
    "country_iso3_code": "DZA",
    "giga_id_school": "9969eda8-1a6f-4c8a-a144-a6bbaf259222",
    "school_data_source": null
  },
  {
    "school_name": "Chaifa Abdelkader",
    "longitude": 2.8596227169036865,
    "latitude": 33.796142578125,
    "education_level": "Unknown",
    "country_iso3_code": "DZA",
    "giga_id_school": "b8a1fe6f-5583-432b-af54-2ffe5337d413",
    "school_data_source": null
  },
  {
    "school_name": "مدرسة ابتدائية",
    "longitude": 4.528014659881592,
    "latitude": 36.45048522949219,
    "education_level": "Unknown",
    "country_iso3_code": "DZA",
    "giga_id_school": "55dab5d2-e1c7-4046-9d9d-37970ee14e49",
    "school_data_source": null
  },
  {
    "school_name": "École primaire Laimeche Ali",
    "longitude": 4.050987243652344,
    "latitude": 36.71513366699219,
    "education_level": "Primary",
    "country_iso3_code": "DZA",
    "giga_id_school": "46d7c411-1d17-4bbc-b97b-53cbcabb49ea",
    "school_data_source": null
  },
  {
    "school_name": "Ecole primaire Maamar Amar",
    "longitude": 4.039612293243408,
    "latitude": 36.715362548828125,
    "education_level": "Primary",
    "country_iso3_code": "DZA",
    "giga_id_school": "8ae7628f-2c23-4ed5-9fea-1ddc86709b7a",
    "school_data_source": null
  },
  {
    "school_name": "Ecole primaire",
    "longitude": -1.4077682495117188,
    "latitude": 34.85237121582031,
    "education_level": "Primary",
    "country_iso3_code": "DZA",
    "giga_id_school": "e8f3a61c-b723-4588-98a8-c752c80a406b",
    "school_data_source": null
  },
  {
    "school_name": "ابتدائية عبد الرحمان بن الطاهر",
    "longitude": 3.525627374649048,
    "latitude": 34.16212463378906,
    "education_level": "Unknown",
    "country_iso3_code": "DZA",
    "giga_id_school": "264a5b2e-8c1e-4ae5-b0c6-233209461a22",
    "school_data_source": null
  },
  {
    "school_name": "أبتدائية مصطفاوي فرحات",
    "longitude": 3.5306055545806885,
    "latitude": 34.162410736083984,
    "education_level": "Unknown",
    "country_iso3_code": "DZA",
    "giga_id_school": "2b623a13-6b50-487e-98af-9466cd7bc310",
    "school_data_source": null
  },
  {
    "school_name": "متوسطة لهزيل المسعود بدمد",
    "longitude": 3.5226824283599854,
    "latitude": 34.16123580932617,
    "education_level": "Unknown",
    "country_iso3_code": "DZA",
    "giga_id_school": "00ae7e0e-0052-4e83-8747-0100d4433d07",
    "school_data_source": null
  },
  {
    "school_name": "ثانوية دمد الجديدة",
    "longitude": 3.522017240524292,
    "latitude": 34.16019821166992,
    "education_level": "Unknown",
    "country_iso3_code": "DZA",
    "giga_id_school": "13ace853-add4-4430-bfd7-2a5cba6f8e29",
    "school_data_source": null
  },
  {
    "school_name": "ابتدائتة سعيفي",
    "longitude": 3.520799398422241,
    "latitude": 34.1595458984375,
    "education_level": "Unknown",
    "country_iso3_code": "DZA",
    "giga_id_school": "63abea77-cc34-4952-982f-ff6d312363ad",
    "school_data_source": null
  },
  {
    "school_name": "اكمالية سعيفي",
    "longitude": 3.518557071685791,
    "latitude": 34.158992767333984,
    "education_level": "Unknown",
    "country_iso3_code": "DZA",
    "giga_id_school": "7405dde4-f45f-41b7-aa36-508e93931d25",
    "school_data_source": null
  },
  {
    "school_name": "متوسطة الشايب تجاني",
    "longitude": 3.511443853378296,
    "latitude": 34.158451080322266,
    "education_level": "Unknown",
    "country_iso3_code": "DZA",
    "giga_id_school": "f3c54be2-1f02-4fc0-a96f-6bfe02cb2ca7",
    "school_data_source": null
  },
  {
    "school_name": "ابتدائية عبد القادر بن براهيم",
    "longitude": 3.499799966812134,
    "latitude": 34.152950286865234,
    "education_level": "Unknown",
    "country_iso3_code": "DZA",
    "giga_id_school": "64c8c364-8734-4716-87f5-3eaf5b2c9b4e",
    "school_data_source": null
  },
  {
    "school_name": "ابتدائية",
    "longitude": 3.4996604919433594,
    "latitude": 34.15324401855469,
    "education_level": "Unknown",
    "country_iso3_code": "DZA",
    "giga_id_school": "3e3e275d-914d-4d28-8fd3-235e86627905",
    "school_data_source": null
  },
  {
    "school_name": "ابتدائية دمد",
    "longitude": 3.5244812965393066,
    "latitude": 34.16048812866211,
    "education_level": "Unknown",
    "country_iso3_code": "DZA",
    "giga_id_school": "a8249483-58cf-45b7-99c6-8a3c275aff63",
    "school_data_source": null
  },
  {
    "school_name": "متوسطة",
    "longitude": 3.4994277954101562,
    "latitude": 34.17605972290039,
    "education_level": "Unknown",
    "country_iso3_code": "DZA",
    "giga_id_school": "1df1501f-f088-4a7d-9e45-4a2b80c455a5",
    "school_data_source": null
  },
  {
    "school_name": "ثانوية الشهيد حسوني رمضان",
    "longitude": 3.505521297454834,
    "latitude": 34.1475715637207,
    "education_level": "Unknown",
    "country_iso3_code": "DZA",
    "giga_id_school": "568d21a6-621d-4add-a44d-4abe694084ef",
    "school_data_source": null
  },
  {
    "school_name": "متوسطة",
    "longitude": 3.504470109939575,
    "latitude": 34.147972106933594,
    "education_level": "Unknown",
    "country_iso3_code": "DZA",
    "giga_id_school": "9e20411c-b761-4f52-b9a7-2d7119dbb096",
    "school_data_source": null
  },
  {
    "school_name": "مدرسة ابتدائية",
    "longitude": 3.5044023990631104,
    "latitude": 34.15087127685547,
    "education_level": "Unknown",
    "country_iso3_code": "DZA",
    "giga_id_school": "a8ffd09b-5a37-47e5-b02b-26c2280cf2be",
    "school_data_source": null
  },
  {
    "school_name": "اكمالية هاني بالهادي",
    "longitude": 3.5008490085601807,
    "latitude": 34.15553283691406,
    "education_level": "Unknown",
    "country_iso3_code": "DZA",
    "giga_id_school": "ab878190-5ebe-4076-a779-8bd871045092",
    "school_data_source": null
  },
  {
    "school_name": "اكمالية عمر بن الخطاب",
    "longitude": 3.4929633140563965,
    "latitude": 34.156410217285156,
    "education_level": "Unknown",
    "country_iso3_code": "DZA",
    "giga_id_school": "2afd31f2-0353-4f38-ae54-5fd5ccc1bf74",
    "school_data_source": null
  },
  {
    "school_name": "مدرسة",
    "longitude": 3.497335195541382,
    "latitude": 34.155216217041016,
    "education_level": "Unknown",
    "country_iso3_code": "DZA",
    "giga_id_school": "6416c15c-1caa-4c0f-b35e-694faa6455a5",
    "school_data_source": null
  },
  {
    "school_name": "المعهد الوطني للتكوين المهني",
    "longitude": 3.479637384414673,
    "latitude": 34.15400695800781,
    "education_level": "Unknown",
    "country_iso3_code": "DZA",
    "giga_id_school": "8827e875-f098-42a5-98df-66992bd8bdf1",
    "school_data_source": null
  },
  {
    "school_name": "ثانوية",
    "longitude": 3.518754720687866,
    "latitude": 34.162811279296875,
    "education_level": "Unknown",
    "country_iso3_code": "DZA",
    "giga_id_school": "3b0a5403-ffe6-48e3-ad1f-7d27ef6eb481",
    "school_data_source": null
  },
  {
    "school_name": "مدرسة ابتدائية",
    "longitude": 3.5198490619659424,
    "latitude": 34.165348052978516,
    "education_level": "Unknown",
    "country_iso3_code": "DZA",
    "giga_id_school": "3bb405af-3566-4c6b-9c59-7a117259b6ea",
    "school_data_source": null
  },
  {
    "school_name": "Lycée Illilten (Yahoui Amara & Freres)",
    "longitude": 4.395017147064209,
    "latitude": 36.5155143737793,
    "education_level": "Unknown",
    "country_iso3_code": "DZA",
    "giga_id_school": "17384b52-ae6b-4f26-add8-8946580dc061",
    "school_data_source": null
  },
  {
    "school_name": "C.E.M Souk El Had Illilten",
    "longitude": 4.394877910614014,
    "latitude": 36.51601028442383,
    "education_level": "Unknown",
    "country_iso3_code": "DZA",
    "giga_id_school": "1d7d5ecb-5c49-4924-96f0-79722f271a08",
    "school_data_source": null
  },
  {
    "school_name": "Ecole Primaire Taourirt Amrous",
    "longitude": 4.412209987640381,
    "latitude": 36.514522552490234,
    "education_level": "Primary",
    "country_iso3_code": "DZA",
    "giga_id_school": "81cd991b-c264-4f3c-aad7-9c09d2481f87",
    "school_data_source": null
  },
  {
    "school_name": "Ecole",
    "longitude": 3.937427282333374,
    "latitude": 36.7144660949707,
    "education_level": "Unknown",
    "country_iso3_code": "DZA",
    "giga_id_school": "1d4873f7-2170-4f30-8edc-9e4965bbc5d8",
    "school_data_source": null
  },
  {
    "school_name": "Ecole",
    "longitude": 3.9259767532348633,
    "latitude": 36.70101547241211,
    "education_level": "Unknown",
    "country_iso3_code": "DZA",
    "giga_id_school": "e8514d13-e10d-4398-a78c-eed6988af36e",
    "school_data_source": null
  },
  {
    "school_name": "Ecole Primaire Romane",
    "longitude": 3.9542782306671143,
    "latitude": 36.735774993896484,
    "education_level": "Primary",
    "country_iso3_code": "DZA",
    "giga_id_school": "b88a471a-7a35-4266-940c-e066539f3b4a",
    "school_data_source": null
  },
  {
    "school_name": "C.E.M Rayah",
    "longitude": 3.955291986465454,
    "latitude": 36.73504638671875,
    "education_level": "Unknown",
    "country_iso3_code": "DZA",
    "giga_id_school": "706c681f-dc5a-4eb0-a52e-e949d6bdfef6",
    "school_data_source": null
  },
  {
    "school_name": "CEM BOUNDJAR",
    "longitude": 4.401037693023682,
    "latitude": 36.385066986083984,
    "education_level": "Unknown",
    "country_iso3_code": "DZA",
    "giga_id_school": "ee6f7ba7-2562-4f22-a66a-151bf2e657b8",
    "school_data_source": null
  },
  {
    "school_name": "Ecole Primaire ex \"Madrasa\"",
    "longitude": 4.400198459625244,
    "latitude": 36.38529586791992,
    "education_level": "Primary",
    "country_iso3_code": "DZA",
    "giga_id_school": "c7af4002-f02d-49fa-8e48-1e52ddeaf5b8",
    "school_data_source": null
  },
  {
    "school_name": "École 1er Novembre",
    "longitude": 2.963973045349121,
    "latitude": 36.81264114379883,
    "education_level": "Unknown",
    "country_iso3_code": "DZA",
    "giga_id_school": "5975b5b2-bf37-4d77-b7d1-894813df7c29",
    "school_data_source": null
  },
  {
    "school_name": "École primaire premier Novembre",
    "longitude": 4.161153316497803,
    "latitude": 36.89706039428711,
    "education_level": "Primary",
    "country_iso3_code": "DZA",
    "giga_id_school": "184f23a1-dff5-4159-80f5-8d5fad4ab949",
    "school_data_source": null
  },
  {
    "school_name": "مدرسة ميمون عبد القادر",
    "longitude": -0.6256036758422852,
    "latitude": 35.194358825683594,
    "education_level": "Unknown",
    "country_iso3_code": "DZA",
    "giga_id_school": "7003cea0-d95e-40ae-a2e3-c8f1caac3234",
    "school_data_source": null
  },
  {
    "school_name": "متوسطة بودومة عبد القادر",
    "longitude": -0.626282274723053,
    "latitude": 35.19429016113281,
    "education_level": "Unknown",
    "country_iso3_code": "DZA",
    "giga_id_school": "19e31438-b979-4124-8b8f-2f30f904123a",
    "school_data_source": null
  },
  {
    "school_name": "Groupe khalef",
    "longitude": -0.6083194017410278,
    "latitude": 35.70934295654297,
    "education_level": "Unknown",
    "country_iso3_code": "DZA",
    "giga_id_school": "ba4f38cc-057b-4416-a9b4-169829c9a8bd",
    "school_data_source": null
  },
  {
    "school_name": "Ait Ali Khaled",
    "longitude": 2.906233310699463,
    "latitude": 36.56529998779297,
    "education_level": "Unknown",
    "country_iso3_code": "DZA",
    "giga_id_school": "47ef1ce1-62a6-44cb-a8e0-c3459a353255",
    "school_data_source": null
  },
  {
    "school_name": "Ecole primaire tigounatine",
    "longitude": 4.461147308349609,
    "latitude": 36.80825424194336,
    "education_level": "Primary",
    "country_iso3_code": "DZA",
    "giga_id_school": "e52f2f0b-90a8-40d1-b133-e887872065c3",
    "school_data_source": null
  },
  {
    "school_name": "Ecole Ibn Khaldoun",
    "longitude": -0.6313048005104065,
    "latitude": 35.19503402709961,
    "education_level": "Unknown",
    "country_iso3_code": "DZA",
    "giga_id_school": "08158f4d-0ded-43c4-9941-017d307b200f",
    "school_data_source": null
  },
  {
    "school_name": "CEM NACHEF",
    "longitude": 4.421563625335693,
    "latitude": 36.79698944091797,
    "education_level": "Unknown",
    "country_iso3_code": "DZA",
    "giga_id_school": "f072113e-2b9e-40a7-8140-525da7aaa0d2",
    "school_data_source": null
  },
  {
    "school_name": "Nouveau Lycée",
    "longitude": 3.8919267654418945,
    "latitude": 36.91728210449219,
    "education_level": "Unknown",
    "country_iso3_code": "DZA",
    "giga_id_school": "af271019-d217-439f-a583-79fe08d04805",
    "school_data_source": null
  },
  {
    "school_name": "CEM nouveau",
    "longitude": 3.9050467014312744,
    "latitude": 36.91581344604492,
    "education_level": "Unknown",
    "country_iso3_code": "DZA",
    "giga_id_school": "778f40ef-6c57-473a-a79c-65d209b1bb1f",
    "school_data_source": null
  },
  {
    "school_name": "CEM Toubal",
    "longitude": 3.903233528137207,
    "latitude": 36.917457580566406,
    "education_level": "Unknown",
    "country_iso3_code": "DZA",
    "giga_id_school": "6fb25132-109d-429a-b8c3-419d54e6fed6",
    "school_data_source": null
  },
  {
    "school_name": "Ecole Primaire",
    "longitude": 4.4211344718933105,
    "latitude": 36.79793167114258,
    "education_level": "Primary",
    "country_iso3_code": "DZA",
    "giga_id_school": "f2e017b6-e253-41ee-8342-aa418d10513a",
    "school_data_source": null
  },
  {
    "school_name": "العسولي عبد القادر",
    "longitude": -0.6226599812507629,
    "latitude": 35.22024917602539,
    "education_level": "Unknown",
    "country_iso3_code": "DZA",
    "giga_id_school": "96b5feae-065d-4cbb-b522-042b02aa5a67",
    "school_data_source": null
  },
  {
    "school_name": "Ecole privée la Colombe Blanche",
    "longitude": 4.036656379699707,
    "latitude": 36.710716247558594,
    "education_level": "Unknown",
    "country_iso3_code": "DZA",
    "giga_id_school": "ce34f567-573a-4645-968c-d4db4f9abd88",
    "school_data_source": null
  },
  {
    "school_name": "Lycée d'Assi Youcef",
    "longitude": 4.013850212097168,
    "latitude": 36.52146530151367,
    "education_level": "Unknown",
    "country_iso3_code": "DZA",
    "giga_id_school": "a891dfc5-dbdf-4fe2-9f23-a74f1ecc648c",
    "school_data_source": null
  },
  {
    "school_name": "Ecole Kimouche Ahmed",
    "longitude": 5.745842933654785,
    "latitude": 36.80687713623047,
    "education_level": "Unknown",
    "country_iso3_code": "DZA",
    "giga_id_school": "e05e8697-1170-44e4-8cdc-0709e8c7f223",
    "school_data_source": null
  },
  {
    "school_name": "Ecole Kemiha Abdallah",
    "longitude": 5.745829105377197,
    "latitude": 36.80152893066406,
    "education_level": "Unknown",
    "country_iso3_code": "DZA",
    "giga_id_school": "59915ec6-9aea-48fc-ac71-e93255f57801",
    "school_data_source": null
  },
  {
    "school_name": "CEM Abadou Abdelkamel",
    "longitude": 5.746610641479492,
    "latitude": 36.80146026611328,
    "education_level": "Unknown",
    "country_iso3_code": "DZA",
    "giga_id_school": "558aea91-8d4b-4806-80af-35088854ee4d",
    "school_data_source": null
  },
  {
    "school_name": "Ecole des sourds et muets",
    "longitude": 5.74465799331665,
    "latitude": 36.80170440673828,
    "education_level": "Unknown",
    "country_iso3_code": "DZA",
    "giga_id_school": "95aeead0-e8ba-4bd6-8bf3-dd42aa5999e1",
    "school_data_source": null
  },
  {
    "school_name": "CEM Bouzekria Boudjemaa",
    "longitude": 5.746664524078369,
    "latitude": 36.807918548583984,
    "education_level": "Unknown",
    "country_iso3_code": "DZA",
    "giga_id_school": "0a793930-d098-4b2e-bf0b-49f4fca0e2ec",
    "school_data_source": null
  },
  {
    "school_name": "Ecole Belhimer Messaoud",
    "longitude": 5.749692440032959,
    "latitude": 36.799964904785156,
    "education_level": "Unknown",
    "country_iso3_code": "DZA",
    "giga_id_school": "c3332e0a-45ae-4e72-a066-0015d948a66b",
    "school_data_source": null
  },
  {
    "school_name": "Ecole Jaber Ammar",
    "longitude": 5.746654510498047,
    "latitude": 36.79773712158203,
    "education_level": "Unknown",
    "country_iso3_code": "DZA",
    "giga_id_school": "83b8036f-fa46-496b-8557-50d14833f250",
    "school_data_source": null
  },
  {
    "school_name": "Ecole",
    "longitude": 5.757219314575195,
    "latitude": 36.80705261230469,
    "education_level": "Unknown",
    "country_iso3_code": "DZA",
    "giga_id_school": "3f9d002f-bae7-47f9-9e07-33909926ccaf",
    "school_data_source": null
  },
  {
    "school_name": "Ecole",
    "longitude": 5.758523464202881,
    "latitude": 36.80529022216797,
    "education_level": "Unknown",
    "country_iso3_code": "DZA",
    "giga_id_school": "28866846-2ed1-4f02-bbbe-92afb5a41c46",
    "school_data_source": null
  },
  {
    "school_name": "Ecole",
    "longitude": 5.7515482902526855,
    "latitude": 36.80644607543945,
    "education_level": "Unknown",
    "country_iso3_code": "DZA",
    "giga_id_school": "71d49497-dc2d-4914-acb0-f959ab758d62",
    "school_data_source": null
  },
  {
    "school_name": "Ecole Assila Abderezak",
    "longitude": 5.753730297088623,
    "latitude": 36.82090759277344,
    "education_level": "Unknown",
    "country_iso3_code": "DZA",
    "giga_id_school": "64b7d08f-4580-446b-a508-a3a1f176b177",
    "school_data_source": null
  },
  {
    "school_name": "Ecole Primaire Frères BAKIRI",
    "longitude": 4.0147480964660645,
    "latitude": 36.49760437011719,
    "education_level": "Primary",
    "country_iso3_code": "DZA",
    "giga_id_school": "14caf89d-d204-494f-b09e-f87442e200c5",
    "school_data_source": null
  },
  {
    "school_name": "المعهد الوطني التكنلوجي الفلاحي المتخصص",
    "longitude": 3.255711793899536,
    "latitude": 34.6474494934082,
    "education_level": "Unknown",
    "country_iso3_code": "DZA",
    "giga_id_school": "237781ce-02a3-41f3-9435-9da104b065dc",
    "school_data_source": null
  },
  {
    "school_name": "اكمالية الحاج أحمد بن دحمان",
    "longitude": 3.495971202850342,
    "latitude": 34.15729522705078,
    "education_level": "Unknown",
    "country_iso3_code": "DZA",
    "giga_id_school": "4b358156-204a-4056-95c7-83bc8656fecc",
    "school_data_source": null
  },
  {
    "school_name": "ابتدائية أول نوفمبر",
    "longitude": 3.492281913757324,
    "latitude": 34.15314865112305,
    "education_level": "Unknown",
    "country_iso3_code": "DZA",
    "giga_id_school": "f98829a4-c577-42dd-8cc0-ef1589ef7781",
    "school_data_source": null
  },
  {
    "school_name": "Lycée Fougeroux",
    "longitude": 3.0054709911346436,
    "latitude": 36.77302169799805,
    "education_level": "Unknown",
    "country_iso3_code": "DZA",
    "giga_id_school": "75f0ea2f-c9b6-41ad-aa1a-e1c1eebaff0f",
    "school_data_source": null
  },
  {
    "school_name": "ابتدائية لقرادة بلقاسم",
    "longitude": 3.252074956893921,
    "latitude": 34.66042709350586,
    "education_level": "Unknown",
    "country_iso3_code": "DZA",
    "giga_id_school": "e74d3a99-6a46-49da-be33-f73a0aaedf62",
    "school_data_source": null
  },
  {
    "school_name": "Lycée",
    "longitude": 3.137561559677124,
    "latitude": 36.16058349609375,
    "education_level": "Unknown",
    "country_iso3_code": "DZA",
    "giga_id_school": "bf02476c-7ddc-4f33-997b-d712cb6b3839",
    "school_data_source": null
  },
  {
    "school_name": "C.E.M Mesbah",
    "longitude": 6.708366394042969,
    "latitude": 36.5328369140625,
    "education_level": "Unknown",
    "country_iso3_code": "DZA",
    "giga_id_school": "1a7a0f43-fece-49a4-9a93-b4b4bb052ef6",
    "school_data_source": null
  },
  {
    "school_name": "C.E.M",
    "longitude": 6.700140953063965,
    "latitude": 36.53258514404297,
    "education_level": "Unknown",
    "country_iso3_code": "DZA",
    "giga_id_school": "acd99d44-f61b-4abb-97a1-b4c06d412fc8",
    "school_data_source": null
  },
  {
    "school_name": "centre de formation professionnelle",
    "longitude": 6.7049560546875,
    "latitude": 36.52960968017578,
    "education_level": "Unknown",
    "country_iso3_code": "DZA",
    "giga_id_school": "9782669e-a703-4b47-ba8f-2528730aa15a",
    "school_data_source": null
  },
  {
    "school_name": "Primaire Amir Abd El Kader",
    "longitude": 6.707912921905518,
    "latitude": 36.53288269042969,
    "education_level": "Primary",
    "country_iso3_code": "DZA",
    "giga_id_school": "d9e79886-1309-45f6-8fc7-18b52f1b5f42",
    "school_data_source": null
  },
  {
    "school_name": "Ecole primaire Mekkideche Mahmoud",
    "longitude": 5.767355918884277,
    "latitude": 36.81929016113281,
    "education_level": "Primary",
    "country_iso3_code": "DZA",
    "giga_id_school": "129dbfdc-4167-472e-84e3-2dfd8646651c",
    "school_data_source": null
  },
  {
    "school_name": "Lycéé 8 Mai",
    "longitude": 5.769314765930176,
    "latitude": 36.809844970703125,
    "education_level": "Unknown",
    "country_iso3_code": "DZA",
    "giga_id_school": "51f57020-dcff-4a2c-9773-e6660263a549",
    "school_data_source": null
  },
  {
    "school_name": "CEM Ibn Rabie",
    "longitude": 3.2873520851135254,
    "latitude": 36.739356994628906,
    "education_level": "Unknown",
    "country_iso3_code": "DZA",
    "giga_id_school": "f19d3de6-5163-4d3c-995d-bfffdf70d1ab",
    "school_data_source": null
  },
  {
    "school_name": "Sidi Maamar",
    "longitude": 1.8518158197402954,
    "latitude": 36.56598663330078,
    "education_level": "Unknown",
    "country_iso3_code": "DZA",
    "giga_id_school": "9690ed50-e094-4900-9b8b-64575be8038a",
    "school_data_source": null
  },
  {
    "school_name": "Izirine",
    "longitude": 1.867828607559204,
    "latitude": 36.56764602661133,
    "education_level": "Unknown",
    "country_iso3_code": "DZA",
    "giga_id_school": "9d8e21e0-03ba-4f5e-8847-70b678e1d025",
    "school_data_source": null
  },
  {
    "school_name": "CEM 17 Octobre",
    "longitude": 3.1265807151794434,
    "latitude": 36.72463607788086,
    "education_level": "Unknown",
    "country_iso3_code": "DZA",
    "giga_id_school": "c5d5bda7-5393-4ac4-82db-b884c3768475",
    "school_data_source": null
  },
  {
    "school_name": "Djemaa Lahcene",
    "longitude": 3.1265199184417725,
    "latitude": 36.725379943847656,
    "education_level": "Unknown",
    "country_iso3_code": "DZA",
    "giga_id_school": "820b4ccb-ed1b-4703-94ac-5bb4e4423ebd",
    "school_data_source": null
  },
  {
    "school_name": "Ecole Cheriet Abdelkrim",
    "longitude": 5.748613357543945,
    "latitude": 36.8206901550293,
    "education_level": "Unknown",
    "country_iso3_code": "DZA",
    "giga_id_school": "71ce22d8-cded-44fd-843a-b48b16691901",
    "school_data_source": null
  },
  {
    "school_name": "Ecole",
    "longitude": 5.757332801818848,
    "latitude": 36.82258987426758,
    "education_level": "Unknown",
    "country_iso3_code": "DZA",
    "giga_id_school": "d1f0fe32-9577-4cd0-a74d-d29f5a606561",
    "school_data_source": null
  },
  {
    "school_name": "saad etabbani",
    "longitude": 5.1016154289245605,
    "latitude": 35.81256866455078,
    "education_level": "Unknown",
    "country_iso3_code": "DZA",
    "giga_id_school": "a72cbc0e-a006-4ecf-ae74-e719a366b118",
    "school_data_source": null
  },
  {
    "school_name": "ابتدائية هوشات خليفة",
    "longitude": 5.102264404296875,
    "latitude": 35.8122444152832,
    "education_level": "Unknown",
    "country_iso3_code": "DZA",
    "giga_id_school": "eba50b5f-9ac9-46c7-814e-c600adbc9594",
    "school_data_source": null
  },
  {
    "school_name": "ملحقة ابتدائية",
    "longitude": 5.102715015411377,
    "latitude": 35.81380844116211,
    "education_level": "Unknown",
    "country_iso3_code": "DZA",
    "giga_id_school": "25fe6f3c-70f9-43c4-b345-91aad7541463",
    "school_data_source": null
  },
  {
    "school_name": "CEM متوسطة",
    "longitude": 2.620124340057373,
    "latitude": 34.6478385925293,
    "education_level": "Unknown",
    "country_iso3_code": "DZA",
    "giga_id_school": "561651f1-956f-4e72-b181-45fe59df6c38",
    "school_data_source": null
  },
  {
    "school_name": "Ecole des sourds et muets",
    "longitude": 5.76612663269043,
    "latitude": 36.8247184753418,
    "education_level": "Unknown",
    "country_iso3_code": "DZA",
    "giga_id_school": "dd4686be-54f4-4597-81b5-f716dba30436",
    "school_data_source": null
  },
  {
    "school_name": "Ecole Ben Chouaib Rachid",
    "longitude": 5.772482395172119,
    "latitude": 36.812007904052734,
    "education_level": "Unknown",
    "country_iso3_code": "DZA",
    "giga_id_school": "b3e0260a-ce9d-4cc6-b667-fcdd6da0316e",
    "school_data_source": null
  },
  {
    "school_name": "Ecole Neghiz Sebti",
    "longitude": 5.75213098526001,
    "latitude": 36.8095588684082,
    "education_level": "Unknown",
    "country_iso3_code": "DZA",
    "giga_id_school": "a7f9aaaa-8e97-46dd-a34f-102641af871d",
    "school_data_source": null
  },
  {
    "school_name": "École Krimat Messaoud",
    "longitude": 5.755569934844971,
    "latitude": 36.80685043334961,
    "education_level": "Unknown",
    "country_iso3_code": "DZA",
    "giga_id_school": "cd44ed2b-02da-48bf-8138-5ef37a98032a",
    "school_data_source": null
  },
  {
    "school_name": "Ecole Mhamdi Messaoud",
    "longitude": 5.76244592666626,
    "latitude": 36.80915832519531,
    "education_level": "Unknown",
    "country_iso3_code": "DZA",
    "giga_id_school": "fed1cd5e-dfbd-4afe-81a0-ba09621b08fd",
    "school_data_source": null
  },
  {
    "school_name": "Ecole",
    "longitude": 4.8320207595825195,
    "latitude": 36.43027877807617,
    "education_level": "Unknown",
    "country_iso3_code": "DZA",
    "giga_id_school": "3302e753-343e-4fa1-a4b3-8dff71545515",
    "school_data_source": null
  },
  {
    "school_name": "CEM Les freres Khebbaza",
    "longitude": 6.384590148925781,
    "latitude": 36.10944747924805,
    "education_level": "Unknown",
    "country_iso3_code": "DZA",
    "giga_id_school": "bd51e1aa-7f52-40f5-9afb-5d82d86d89d8",
    "school_data_source": null
  },
  {
    "school_name": "primaire smaili miloud",
    "longitude": 6.392735481262207,
    "latitude": 36.10886764526367,
    "education_level": "Primary",
    "country_iso3_code": "DZA",
    "giga_id_school": "1611e406-f57d-4d67-8d54-d88e5e62488f",
    "school_data_source": null
  },
  {
    "school_name": "Primaire 1500 lgts",
    "longitude": 3.3743674755096436,
    "latitude": 36.69065475463867,
    "education_level": "Primary",
    "country_iso3_code": "DZA",
    "giga_id_school": "93f6d186-9ca0-440c-b7b7-38e4927ab65c",
    "school_data_source": null
  },
  {
    "school_name": "Ecole primaire",
    "longitude": 3.4013357162475586,
    "latitude": 36.734737396240234,
    "education_level": "Primary",
    "country_iso3_code": "DZA",
    "giga_id_school": "5398c672-eb7e-40d4-99f7-21b7a6a1be1a",
    "school_data_source": null
  },
  {
    "school_name": "École primaire",
    "longitude": 3.4054512977600098,
    "latitude": 36.77033615112305,
    "education_level": "Primary",
    "country_iso3_code": "DZA",
    "giga_id_school": "4985fcfa-279a-4b57-9aba-506a55c3e091",
    "school_data_source": null
  },
  {
    "school_name": "Ecole Primaire",
    "longitude": 3.4434173107147217,
    "latitude": 36.75522994995117,
    "education_level": "Primary",
    "country_iso3_code": "DZA",
    "giga_id_school": "d65e6e58-5b60-44ba-a858-948e698de3df",
    "school_data_source": null
  },
  {
    "school_name": "École primaire",
    "longitude": 3.4055540561676025,
    "latitude": 36.769813537597656,
    "education_level": "Primary",
    "country_iso3_code": "DZA",
    "giga_id_school": "a739436c-26fc-403d-a639-7d38d8247d85",
    "school_data_source": null
  },
  {
    "school_name": "CEM Dergana",
    "longitude": 3.262815237045288,
    "latitude": 36.76728820800781,
    "education_level": "Unknown",
    "country_iso3_code": "DZA",
    "giga_id_school": "28ff6a77-fc00-4ae3-8b2c-956a030aeb24",
    "school_data_source": null
  },
  {
    "school_name": "Ecole primaire",
    "longitude": 3.25752854347229,
    "latitude": 36.646339416503906,
    "education_level": "Primary",
    "country_iso3_code": "DZA",
    "giga_id_school": "39b8a120-e941-45bc-955e-0a5284540652",
    "school_data_source": null
  },
  {
    "school_name": "Ecole Premaire",
    "longitude": 2.8888895511627197,
    "latitude": 36.75376892089844,
    "education_level": "Unknown",
    "country_iso3_code": "DZA",
    "giga_id_school": "174fd247-aaf7-4c2c-8983-e520e02b0d5c",
    "school_data_source": null
  },
  {
    "school_name": "Tahar Bellakhdar",
    "longitude": 2.885477066040039,
    "latitude": 36.74970626831055,
    "education_level": "Unknown",
    "country_iso3_code": "DZA",
    "giga_id_school": "b48a55bb-390d-41b9-815d-0be4b59d1d4d",
    "school_data_source": null
  },
  {
    "school_name": "CEM Boussalem",
    "longitude": 2.8896665573120117,
    "latitude": 36.74825668334961,
    "education_level": "Unknown",
    "country_iso3_code": "DZA",
    "giga_id_school": "69d9e67b-d06d-449b-a4e3-69bb0105adfa",
    "school_data_source": null
  },
  {
    "school_name": "SBL School",
    "longitude": 3.2899885177612305,
    "latitude": 36.740543365478516,
    "education_level": "Unknown",
    "country_iso3_code": "DZA",
    "giga_id_school": "216fbf84-d4a3-424a-be90-dd7e6b965e98",
    "school_data_source": null
  },
  {
    "school_name": "Ecole Ayad Mouloud",
    "longitude": 5.775681972503662,
    "latitude": 36.801918029785156,
    "education_level": "Unknown",
    "country_iso3_code": "DZA",
    "giga_id_school": "42214eb9-e0f5-4c1a-9a1b-056598aa780b",
    "school_data_source": null
  },
  {
    "school_name": "إكمالية خلف الله عمار",
    "longitude": 5.768081188201904,
    "latitude": 36.81911849975586,
    "education_level": "Unknown",
    "country_iso3_code": "DZA",
    "giga_id_school": "9d7d90b2-d273-40c8-ab6b-4a576349b922",
    "school_data_source": null
  },
  {
    "school_name": "École primaire Boumaza Mohammed",
    "longitude": 5.764163017272949,
    "latitude": 36.820899963378906,
    "education_level": "Primary",
    "country_iso3_code": "DZA",
    "giga_id_school": "49432a33-713e-42dd-8287-8329f3fd016d",
    "school_data_source": null
  },
  {
    "school_name": "Centre pédagogique des handicapés moteurs",
    "longitude": 5.74537467956543,
    "latitude": 36.80046081542969,
    "education_level": "Unknown",
    "country_iso3_code": "DZA",
    "giga_id_school": "666b66d9-e52a-4b40-a7cb-388a7160e854",
    "school_data_source": null
  },
  {
    "school_name": "Ecole",
    "longitude": 5.740461349487305,
    "latitude": 36.812530517578125,
    "education_level": "Unknown",
    "country_iso3_code": "DZA",
    "giga_id_school": "e6eaab8e-2fd0-4ffa-8fd7-f09028f1f841",
    "school_data_source": null
  },
  {
    "school_name": "CEM Boubezari Mekki",
    "longitude": 5.76495885848999,
    "latitude": 36.81771469116211,
    "education_level": "Unknown",
    "country_iso3_code": "DZA",
    "giga_id_school": "6cb6e6bb-7601-47fb-8782-38de3018b6d9",
    "school_data_source": null
  },
  {
    "school_name": "Ecole Mohamed Boukhlout",
    "longitude": 5.897010326385498,
    "latitude": 36.71804428100586,
    "education_level": "Unknown",
    "country_iso3_code": "DZA",
    "giga_id_school": "f20b2525-487d-467f-ac71-42e190996fca",
    "school_data_source": null
  },
  {
    "school_name": "متوسطة",
    "longitude": 5.900782585144043,
    "latitude": 36.71926498413086,
    "education_level": "Unknown",
    "country_iso3_code": "DZA",
    "giga_id_school": "4fea83b7-d655-4c95-b5b7-d97c58bbe753",
    "school_data_source": null
  },
  {
    "school_name": "Lycée",
    "longitude": 6.631130218505859,
    "latitude": 36.443477630615234,
    "education_level": "Unknown",
    "country_iso3_code": "DZA",
    "giga_id_school": "e76194a7-bbbd-4f16-8ee4-9a9ad21d46db",
    "school_data_source": null
  },
  {
    "school_name": "MOULOUD BEL ABED",
    "longitude": 6.635128021240234,
    "latitude": 36.45343780517578,
    "education_level": "Unknown",
    "country_iso3_code": "DZA",
    "giga_id_school": "db9a30ea-e760-4c9b-912d-0442f2f64f35",
    "school_data_source": null
  },
  {
    "school_name": "الإبتدائية الجديدة",
    "longitude": 4.224926948547363,
    "latitude": 32.39729309082031,
    "education_level": "Unknown",
    "country_iso3_code": "DZA",
    "giga_id_school": "cec9cf68-2547-4547-b493-296e6a6f7d6b",
    "school_data_source": null
  },
  {
    "school_name": "Moussab Bnou Oumair",
    "longitude": -1.7554514408111572,
    "latitude": 35.014312744140625,
    "education_level": "Unknown",
    "country_iso3_code": "DZA",
    "giga_id_school": "661cca73-55fc-43fe-8307-bdb3a8db2883",
    "school_data_source": null
  },
  {
    "school_name": "CEM Kouriba Djadida",
    "longitude": -1.7709101438522339,
    "latitude": 35.031856536865234,
    "education_level": "Unknown",
    "country_iso3_code": "DZA",
    "giga_id_school": "9a94b101-bfb0-42db-adba-bc6baa15af8b",
    "school_data_source": null
  },
  {
    "school_name": "Ecole d handicapés",
    "longitude": -1.7713775634765625,
    "latitude": 35.0322380065918,
    "education_level": "Unknown",
    "country_iso3_code": "DZA",
    "giga_id_school": "d92905b7-b113-4b82-8301-0bf6a6083b44",
    "school_data_source": null
  },
  {
    "school_name": "Ecole primaire Saadat",
    "longitude": 3.256760358810425,
    "latitude": 34.671199798583984,
    "education_level": "Primary",
    "country_iso3_code": "DZA",
    "giga_id_school": "c69fd82d-cbb9-41fd-86fa-898097ee7b62",
    "school_data_source": null
  },
  {
    "school_name": "ecole primaire",
    "longitude": 3.264983892440796,
    "latitude": 34.65416717529297,
    "education_level": "Primary",
    "country_iso3_code": "DZA",
    "giga_id_school": "2e802d59-452d-4d53-9a14-9d734a606450",
    "school_data_source": null
  },
  {
    "school_name": "EJAS Djelfa",
    "longitude": 3.2473556995391846,
    "latitude": 34.6673698425293,
    "education_level": "Unknown",
    "country_iso3_code": "DZA",
    "giga_id_school": "298b53e9-716f-4a29-bd4a-d23727280c1c",
    "school_data_source": null
  },
  {
    "school_name": "متوسطة فضيلي عبد القادر",
    "longitude": 3.2549712657928467,
    "latitude": 34.678932189941406,
    "education_level": "Unknown",
    "country_iso3_code": "DZA",
    "giga_id_school": "dd72e12a-546f-43e9-a228-005f047821c1",
    "school_data_source": null
  },
  {
    "school_name": "Collège d'enseignement moyen Si El Haouès",
    "longitude": 2.9046273231506348,
    "latitude": 35.44805145263672,
    "education_level": "Unknown",
    "country_iso3_code": "DZA",
    "giga_id_school": "a1357a1e-2602-40cc-a2af-77ab48e59810",
    "school_data_source": null
  },
  {
    "school_name": "ابتدائية أول نوفمبر",
    "longitude": 3.276405096054077,
    "latitude": 34.660640716552734,
    "education_level": "Unknown",
    "country_iso3_code": "DZA",
    "giga_id_school": "0bfc8bf5-8e67-40d7-9950-3095df2f4596",
    "school_data_source": null
  },
  {
    "school_name": "متوسطة خذيري",
    "longitude": 3.27811861038208,
    "latitude": 34.66273498535156,
    "education_level": "Unknown",
    "country_iso3_code": "DZA",
    "giga_id_school": "0966fddf-c9e2-4645-9287-8d47090c54fb",
    "school_data_source": null
  },
  {
    "school_name": "اكمالية بن بوزيد عمار",
    "longitude": 2.5285720825195312,
    "latitude": 34.44405746459961,
    "education_level": "Unknown",
    "country_iso3_code": "DZA",
    "giga_id_school": "07b3d265-13e2-408c-8b35-551a786d47d3",
    "school_data_source": null
  },
  {
    "school_name": "École de langues",
    "longitude": 3.8882663249969482,
    "latitude": 36.372093200683594,
    "education_level": "Unknown",
    "country_iso3_code": "DZA",
    "giga_id_school": "0a1b0c02-9a98-46ce-983c-0ea67b146bce",
    "school_data_source": null
  },
  {
    "school_name": "Cem Behaïri Slimane مدرسة سيدي أحمد قاعدة 7 بحايري سليمان المتوسطة",
    "longitude": 5.068006992340088,
    "latitude": 36.75973892211914,
    "education_level": "Unknown",
    "country_iso3_code": "DZA",
    "giga_id_school": "960ccf4f-874b-4a50-84f3-ae130276ef42",
    "school_data_source": null
  },
  {
    "school_name": "Ecole primaire Sabri",
    "longitude": 2.992846727371216,
    "latitude": 36.73287582397461,
    "education_level": "Primary",
    "country_iso3_code": "DZA",
    "giga_id_school": "ed0608ce-cbf2-4d76-b90d-290a027208bf",
    "school_data_source": null
  },
  {
    "school_name": "École primaire Cousins Bouhabila",
    "longitude": 6.591789722442627,
    "latitude": 36.34025955200195,
    "education_level": "Primary",
    "country_iso3_code": "DZA",
    "giga_id_school": "0e17b152-14ef-4554-b085-c1ac32621d97",
    "school_data_source": null
  },
  {
    "school_name": "RED IT - shop",
    "longitude": 3.028057098388672,
    "latitude": 36.77039337158203,
    "education_level": "Unknown",
    "country_iso3_code": "DZA",
    "giga_id_school": "0da6e3cc-4149-4206-9e25-adc88de21ebe",
    "school_data_source": null
  },
  {
    "school_name": "CEM privé El Afak",
    "longitude": 5.746456146240234,
    "latitude": 36.81639099121094,
    "education_level": "Unknown",
    "country_iso3_code": "DZA",
    "giga_id_school": "a8845ba5-1af9-4e86-93f3-afc4e63606fe",
    "school_data_source": null
  },
  {
    "school_name": "Ecole Fellaoucene 2",
    "longitude": -0.601931095123291,
    "latitude": 35.686946868896484,
    "education_level": "Unknown",
    "country_iso3_code": "DZA",
    "giga_id_school": "54564934-a9bd-44be-9fd4-e7d8de00049f",
    "school_data_source": null
  },
  {
    "school_name": "École de formation omega",
    "longitude": 3.0784482955932617,
    "latitude": 36.72627639770508,
    "education_level": "Unknown",
    "country_iso3_code": "DZA",
    "giga_id_school": "cec7ab0b-2a1f-47df-a5a8-66def80e5e0c",
    "school_data_source": null
  },
  {
    "school_name": "Ecole Abdelkader Harath",
    "longitude": 2.8775105476379395,
    "latitude": 33.79812240600586,
    "education_level": "Unknown",
    "country_iso3_code": "DZA",
    "giga_id_school": "0657a179-7d74-482c-8274-550ba53c1e3b",
    "school_data_source": null
  },
  {
    "school_name": "Lycée Chaabani Mohammed",
    "longitude": 2.876997709274292,
    "latitude": 33.79536437988281,
    "education_level": "Unknown",
    "country_iso3_code": "DZA",
    "giga_id_school": "824313e5-3e4a-427b-bee3-5292a0523920",
    "school_data_source": null
  },
  {
    "school_name": "Ecole les Tamaris",
    "longitude": 3.0891077518463135,
    "latitude": 36.725032806396484,
    "education_level": "Unknown",
    "country_iso3_code": "DZA",
    "giga_id_school": "b2355307-19f5-43fe-90b0-b6b39032eb6c",
    "school_data_source": null
  },
  {
    "school_name": "Ecole la Marjolaine",
    "longitude": 3.09061598777771,
    "latitude": 36.725379943847656,
    "education_level": "Unknown",
    "country_iso3_code": "DZA",
    "giga_id_school": "58369721-25ce-4ec6-99ee-46ceb1f1e1bd",
    "school_data_source": null
  },
  {
    "school_name": "Ecole Primaire",
    "longitude": 2.861156940460205,
    "latitude": 36.52184295654297,
    "education_level": "Primary",
    "country_iso3_code": "DZA",
    "giga_id_school": "97bf9dce-33cd-4774-ae5e-da7f33c4ca40",
    "school_data_source": null
  },
  {
    "school_name": "British Language Centre",
    "longitude": -0.5667132139205933,
    "latitude": 35.750099182128906,
    "education_level": "Unknown",
    "country_iso3_code": "DZA",
    "giga_id_school": "a4f2d78a-8b43-48d6-8722-873629e1fa9e",
    "school_data_source": null
  },
  {
    "school_name": "ابتدائية عبد الحميد بن باديس",
    "longitude": 3.548893690109253,
    "latitude": 33.417152404785156,
    "education_level": "Unknown",
    "country_iso3_code": "DZA",
    "giga_id_school": "c76f48c0-a2f3-4d00-9217-291f6afe7f21",
    "school_data_source": null
  },
  {
    "school_name": "ECOLE ELIMANE MUSTAPHA",
    "longitude": -0.6175702214241028,
    "latitude": 35.68084716796875,
    "education_level": "Unknown",
    "country_iso3_code": "DZA",
    "giga_id_school": "2662b134-b50e-4bdd-be31-c31df664a47e",
    "school_data_source": null
  },
  {
    "school_name": "CEM Amir Khaled",
    "longitude": 7.72754430770874,
    "latitude": 36.82553482055664,
    "education_level": "Unknown",
    "country_iso3_code": "DZA",
    "giga_id_school": "1f4f6d00-b86f-44ee-97ba-31dee04342df",
    "school_data_source": null
  },
  {
    "school_name": "متوسطة ابن باديس",
    "longitude": 5.52506160736084,
    "latitude": 22.792091369628906,
    "education_level": "Unknown",
    "country_iso3_code": "DZA",
    "giga_id_school": "314bb6d2-f262-4628-98bb-2db881ee006c",
    "school_data_source": null
  },
  {
    "school_name": "Ecole coranique, Nadi Fath El kouloub",
    "longitude": 3.079488754272461,
    "latitude": 36.7479133605957,
    "education_level": "Unknown",
    "country_iso3_code": "DZA",
    "giga_id_school": "2751a321-1d2a-4827-9fca-42bf3cfe83f4",
    "school_data_source": null
  },
  {
    "school_name": "Ecole primaire si lahlou",
    "longitude": 3.9033987522125244,
    "latitude": 36.37944030761719,
    "education_level": "Primary",
    "country_iso3_code": "DZA",
    "giga_id_school": "568a30cf-e9d6-4f85-b9ab-02853f64526d",
    "school_data_source": null
  },
  {
    "school_name": "École Primaire Hadjabi Ibrahim",
    "longitude": 3.9021220207214355,
    "latitude": 36.3839111328125,
    "education_level": "Primary",
    "country_iso3_code": "DZA",
    "giga_id_school": "fd6a6cff-be40-41c4-bf1a-ddfb111a131f",
    "school_data_source": null
  },
  {
    "school_name": "Institut de Langues EncycloSchool",
    "longitude": 3.880002498626709,
    "latitude": 36.37422561645508,
    "education_level": "Unknown",
    "country_iso3_code": "DZA",
    "giga_id_school": "51697229-9256-4924-81da-e6616ee18224",
    "school_data_source": null
  },
  {
    "school_name": "Primaire de Mimosa",
    "longitude": 2.881000518798828,
    "latitude": 36.743099212646484,
    "education_level": "Primary",
    "country_iso3_code": "DZA",
    "giga_id_school": "33eb749a-87bb-4a7d-95fb-9e5b33ae5d18",
    "school_data_source": null
  },
  {
    "school_name": "Ecole Primaire Ourida Meddad",
    "longitude": 2.921729803085327,
    "latitude": 36.80418014526367,
    "education_level": "Primary",
    "country_iso3_code": "DZA",
    "giga_id_school": "0f8f2910-00b6-4d2b-a358-b061d829b5e4",
    "school_data_source": null
  },
  {
    "school_name": "Ecole primaire",
    "longitude": 2.9221267700195312,
    "latitude": 36.803871154785156,
    "education_level": "Primary",
    "country_iso3_code": "DZA",
    "giga_id_school": "79d0098c-e11c-46b1-a6d1-d82fa7668018",
    "school_data_source": null
  },
  {
    "school_name": "Al-Kindi",
    "longitude": 3.051839828491211,
    "latitude": 36.79008483886719,
    "education_level": "Unknown",
    "country_iso3_code": "DZA",
    "giga_id_school": "6978dee4-5b22-40c5-8827-93517db7e3b5",
    "school_data_source": null
  },
  {
    "school_name": "Benhamouche Md Ouamar",
    "longitude": 4.471344947814941,
    "latitude": 36.41012954711914,
    "education_level": "Unknown",
    "country_iso3_code": "DZA",
    "giga_id_school": "af29c556-7e12-48d1-b080-67ed39e2bc7f",
    "school_data_source": null
  },
  {
    "school_name": "Massinissa",
    "longitude": 3.0539662837982178,
    "latitude": 36.789913177490234,
    "education_level": "Unknown",
    "country_iso3_code": "DZA",
    "giga_id_school": "b80699e5-fdb7-4d42-9d0a-8e8a7985d0d3",
    "school_data_source": null
  },
  {
    "school_name": "Lycée Elarbi Etbassi",
    "longitude": 6.169045448303223,
    "latitude": 35.54271697998047,
    "education_level": "Unknown",
    "country_iso3_code": "DZA",
    "giga_id_school": "7fcbecad-5280-4ee9-95a1-d2eb12436bac",
    "school_data_source": null
  },
  {
    "school_name": "Riquet 2",
    "longitude": 4.4750447273254395,
    "latitude": 36.42105484008789,
    "education_level": "Unknown",
    "country_iso3_code": "DZA",
    "giga_id_school": "5ac20bb3-edd6-478f-81fa-3f495fad428a",
    "school_data_source": null
  },
  {
    "school_name": "مدرسة حسيبة الابتدائية",
    "longitude": 5.529350280761719,
    "latitude": 22.785865783691406,
    "education_level": "Unknown",
    "country_iso3_code": "DZA",
    "giga_id_school": "6000e417-d7c7-418a-8fec-82d12e631ea5",
    "school_data_source": null
  },
  {
    "school_name": "جوادي مقران",
    "longitude": 2.930053949356079,
    "latitude": 36.703216552734375,
    "education_level": "Unknown",
    "country_iso3_code": "DZA",
    "giga_id_school": "13e95dd1-fde4-4547-a4a0-6106fb791be2",
    "school_data_source": null
  },
  {
    "school_name": "امير عبد القادر",
    "longitude": 3.1705574989318848,
    "latitude": 36.67401123046875,
    "education_level": "Unknown",
    "country_iso3_code": "DZA",
    "giga_id_school": "a1f65a27-c9d3-408d-bab5-dfb263ca0ee0",
    "school_data_source": null
  },
  {
    "school_name": "École EPSIMA",
    "longitude": 6.180239200592041,
    "latitude": 35.558868408203125,
    "education_level": "Unknown",
    "country_iso3_code": "DZA",
    "giga_id_school": "13012d2d-9229-49c0-b826-69171bad7711",
    "school_data_source": null
  },
  {
    "school_name": "Ecole LAKHDARI",
    "longitude": 6.177466869354248,
    "latitude": 35.55521774291992,
    "education_level": "Unknown",
    "country_iso3_code": "DZA",
    "giga_id_school": "d9e38156-00a7-4cea-befb-e13d591a3b15",
    "school_data_source": null
  },
  {
    "school_name": "CEM Tabouda",
    "longitude": 4.436687469482422,
    "latitude": 36.58458709716797,
    "education_level": "Unknown",
    "country_iso3_code": "DZA",
    "giga_id_school": "e7cf9af4-f0c3-42a8-951f-2dc0d88089d1",
    "school_data_source": null
  },
  {
    "school_name": "Lycée Tabouda",
    "longitude": 4.435539245605469,
    "latitude": 36.58580017089844,
    "education_level": "Unknown",
    "country_iso3_code": "DZA",
    "giga_id_school": "cc54fb24-efa2-49ff-ab5d-38cccb7cdc1a",
    "school_data_source": null
  },
  {
    "school_name": "ُÉcole primaire Tabouda",
    "longitude": 4.443827152252197,
    "latitude": 36.58048629760742,
    "education_level": "Primary",
    "country_iso3_code": "DZA",
    "giga_id_school": "00b04051-470d-475a-b771-5c25b27b2b69",
    "school_data_source": null
  },
  {
    "school_name": "مدرسة متوسطة",
    "longitude": 9.421595573425293,
    "latitude": 29.96827507019043,
    "education_level": "Unknown",
    "country_iso3_code": "DZA",
    "giga_id_school": "74f9ee85-c156-4692-9405-e1b8c5ef3f9f",
    "school_data_source": null
  },
  {
    "school_name": "ISTAM",
    "longitude": 3.033045768737793,
    "latitude": 36.736167907714844,
    "education_level": "Unknown",
    "country_iso3_code": "DZA",
    "giga_id_school": "d4435846-8e43-446c-a674-fc7ca3641379",
    "school_data_source": null
  },
  {
    "school_name": "Ecole primaire privée El Afak",
    "longitude": 5.752772331237793,
    "latitude": 36.81389236450195,
    "education_level": "Primary",
    "country_iso3_code": "DZA",
    "giga_id_school": "f1a624e9-7c62-43c5-be4a-51f65da54c1e",
    "school_data_source": null
  },
  {
    "school_name": "École Nekkachi Mohammed Essalah",
    "longitude": 5.762187480926514,
    "latitude": 36.80187225341797,
    "education_level": "Unknown",
    "country_iso3_code": "DZA",
    "giga_id_school": "828513e0-8e68-4fae-b3a5-0b07f4af3983",
    "school_data_source": null
  },
  {
    "school_name": "École Djemaa Mohammed",
    "longitude": 5.76302433013916,
    "latitude": 36.82423400878906,
    "education_level": "Unknown",
    "country_iso3_code": "DZA",
    "giga_id_school": "04595368-8282-431f-8005-6252d624478c",
    "school_data_source": null
  },
  {
    "school_name": "CEM Boudjarda Abdelmadjid",
    "longitude": 5.749156475067139,
    "latitude": 36.82542419433594,
    "education_level": "Unknown",
    "country_iso3_code": "DZA",
    "giga_id_school": "43e2ba88-3076-4b96-b44b-d81006be5c4c",
    "school_data_source": null
  },
  {
    "school_name": "Ecole primaire",
    "longitude": 1.9671132564544678,
    "latitude": 35.67429733276367,
    "education_level": "Primary",
    "country_iso3_code": "DZA",
    "giga_id_school": "bde19cfb-14ee-47e6-98b1-91c3b5247749",
    "school_data_source": null
  },
  {
    "school_name": "متوسطة بكر بن حماد",
    "longitude": 1.3205779790878296,
    "latitude": 35.3658561706543,
    "education_level": "Unknown",
    "country_iso3_code": "DZA",
    "giga_id_school": "01556708-b9aa-47ae-85db-5eff6c111cc8",
    "school_data_source": null
  },
  {
    "school_name": "École primaire Benhassine Houcine",
    "longitude": -1.5031659603118896,
    "latitude": 35.23289489746094,
    "education_level": "Primary",
    "country_iso3_code": "DZA",
    "giga_id_school": "092accba-a23b-4c0e-92ce-bcf3bcf4ef53",
    "school_data_source": null
  },
  {
    "school_name": "CEM Bouhmidi",
    "longitude": -1.50301194190979,
    "latitude": 35.233272552490234,
    "education_level": "Unknown",
    "country_iso3_code": "DZA",
    "giga_id_school": "e46103f3-a520-45b1-b7ff-dae05d1cf40f",
    "school_data_source": null
  },
  {
    "school_name": "متوسطة البشير الابراهيمي",
    "longitude": 1.3114796876907349,
    "latitude": 35.3820915222168,
    "education_level": "Unknown",
    "country_iso3_code": "DZA",
    "giga_id_school": "9571d30a-2d93-4ca3-8aa5-d35247c37dc0",
    "school_data_source": null
  },
  {
    "school_name": "Lycée Houichiti Mohamed",
    "longitude": 3.6040406227111816,
    "latitude": 32.53556442260742,
    "education_level": "Unknown",
    "country_iso3_code": "DZA",
    "giga_id_school": "874003dd-27dd-4537-92dd-ca3b90494d9e",
    "school_data_source": null
  },
  {
    "school_name": "ecole primaire",
    "longitude": 6.627236843109131,
    "latitude": 36.797264099121094,
    "education_level": "Primary",
    "country_iso3_code": "DZA",
    "giga_id_school": "4306c555-d97c-48f1-b897-1032be09c262",
    "school_data_source": null
  },
  {
    "school_name": "École moyen boublouta omar",
    "longitude": 6.613807201385498,
    "latitude": 36.808937072753906,
    "education_level": "Unknown",
    "country_iso3_code": "DZA",
    "giga_id_school": "5fe8a342-21ec-41f7-88f2-d1daef1cca6c",
    "school_data_source": null
  },
  {
    "school_name": "جامعة التكوين المتواصل",
    "longitude": 8.483603477478027,
    "latitude": 26.505447387695312,
    "education_level": "Unknown",
    "country_iso3_code": "DZA",
    "giga_id_school": "14f2f89e-864c-4d9b-996d-4462397821dc",
    "school_data_source": null
  },
  {
    "school_name": "مدرسة خمايا",
    "longitude": 8.47520637512207,
    "latitude": 26.506717681884766,
    "education_level": "Unknown",
    "country_iso3_code": "DZA",
    "giga_id_school": "c03e7d14-f3c9-4cdf-a442-77f70647e834",
    "school_data_source": null
  },
  {
    "school_name": "Lycée Mbarek El Mili",
    "longitude": 8.484123229980469,
    "latitude": 26.51567840576172,
    "education_level": "Unknown",
    "country_iso3_code": "DZA",
    "giga_id_school": "157dece6-fea5-4f42-9a31-63f82c215721",
    "school_data_source": null
  },
  {
    "school_name": "Ecole Coranique El Bachir El Ibrahimi",
    "longitude": 8.48160171508789,
    "latitude": 26.51555061340332,
    "education_level": "Unknown",
    "country_iso3_code": "DZA",
    "giga_id_school": "830a6f7d-2022-467f-861a-0905f31525e2",
    "school_data_source": null
  },
  {
    "school_name": "Ecole Mohamed Farhi",
    "longitude": 8.482354164123535,
    "latitude": 26.515872955322266,
    "education_level": "Unknown",
    "country_iso3_code": "DZA",
    "giga_id_school": "718414df-3f84-4db2-9f5c-689cd55c3dda",
    "school_data_source": null
  },
  {
    "school_name": "EQUIPEMENTS EDUCATIFS",
    "longitude": 8.475273132324219,
    "latitude": 26.5097599029541,
    "education_level": "Unknown",
    "country_iso3_code": "DZA",
    "giga_id_school": "b0e5a987-0905-41ae-a142-8495cdac1d77",
    "school_data_source": null
  },
  {
    "school_name": "مدرسة بلبشير",
    "longitude": 8.481254577636719,
    "latitude": 26.472623825073242,
    "education_level": "Unknown",
    "country_iso3_code": "DZA",
    "giga_id_school": "3b4ca296-8546-4394-a94e-e6f32437eb94",
    "school_data_source": null
  },
  {
    "school_name": "مدرسة سيدي بوصلح",
    "longitude": 8.464249610900879,
    "latitude": 26.488710403442383,
    "education_level": "Unknown",
    "country_iso3_code": "DZA",
    "giga_id_school": "0e553f05-7775-46fb-9981-4a8a9559d8d1",
    "school_data_source": null
  },
  {
    "school_name": "مدرسة تين عمري",
    "longitude": 8.444412231445312,
    "latitude": 26.486713409423828,
    "education_level": "Unknown",
    "country_iso3_code": "DZA",
    "giga_id_school": "07d13417-b5ad-47b4-9e5f-41e62aa74871",
    "school_data_source": null
  },
  {
    "school_name": "ECOLE PRIMAIRE",
    "longitude": 8.403386116027832,
    "latitude": 25.394630432128906,
    "education_level": "Primary",
    "country_iso3_code": "DZA",
    "giga_id_school": "26b62554-2468-4027-8195-0aeac62ab477",
    "school_data_source": null
  },
  {
    "school_name": "ECOLE PRIMAIRE",
    "longitude": 8.40734577178955,
    "latitude": 25.405689239501953,
    "education_level": "Primary",
    "country_iso3_code": "DZA",
    "giga_id_school": "ebb7f22b-69ba-4008-bf5a-4b747e022aa6",
    "school_data_source": null
  },
  {
    "school_name": "Boukhech Ammar",
    "longitude": 6.597682476043701,
    "latitude": 36.41837692260742,
    "education_level": "Unknown",
    "country_iso3_code": "DZA",
    "giga_id_school": "13b14e31-f2d9-4d48-a60e-7b175e2d31bd",
    "school_data_source": null
  },
  {
    "school_name": "Universal School",
    "longitude": 3.05657696723938,
    "latitude": 36.762474060058594,
    "education_level": "Unknown",
    "country_iso3_code": "DZA",
    "giga_id_school": "77f5199a-619b-487b-9c5b-a6a055463b01",
    "school_data_source": null
  },
  {
    "school_name": "Ecole Maali",
    "longitude": 3.189605712890625,
    "latitude": 36.72177505493164,
    "education_level": "Unknown",
    "country_iso3_code": "DZA",
    "giga_id_school": "bffbfb43-a3db-4ade-beab-b7070fe69006",
    "school_data_source": null
  },
  {
    "school_name": "Ecole",
    "longitude": 7.349058151245117,
    "latitude": 35.29529571533203,
    "education_level": "Unknown",
    "country_iso3_code": "DZA",
    "giga_id_school": "1d1d9417-20f2-4e04-b252-6b9b8be48303",
    "school_data_source": null
  },
  {
    "school_name": "CEM Si Yahia",
    "longitude": 4.087204456329346,
    "latitude": 36.556396484375,
    "education_level": "Unknown",
    "country_iso3_code": "DZA",
    "giga_id_school": "c89ac039-bf9f-4d11-8738-abda9e12cc6e",
    "school_data_source": null
  },
  {
    "school_name": "مدرسة بوشارب عمار",
    "longitude": 7.35778284072876,
    "latitude": 35.29297637939453,
    "education_level": "Unknown",
    "country_iso3_code": "DZA",
    "giga_id_school": "15479a81-871d-40ad-8ab6-dd11cb4ec2b1",
    "school_data_source": null
  },
  {
    "school_name": "مدرسة بسالم أحمد",
    "longitude": 7.358249664306641,
    "latitude": 35.29277420043945,
    "education_level": "Unknown",
    "country_iso3_code": "DZA",
    "giga_id_school": "e0415f01-69df-4f55-9b10-645000f6a2a3",
    "school_data_source": null
  },
  {
    "school_name": "Ecole d'aviation",
    "longitude": 6.845536708831787,
    "latitude": 33.388492584228516,
    "education_level": "Unknown",
    "country_iso3_code": "DZA",
    "giga_id_school": "7d22757f-f00c-44a7-93a6-195bbd4b11a5",
    "school_data_source": null
  },
  {
    "school_name": "CEM",
    "longitude": 4.597646713256836,
    "latitude": 36.52213668823242,
    "education_level": "Unknown",
    "country_iso3_code": "DZA",
    "giga_id_school": "afcf2883-c1e4-4f73-8f15-87f607795024",
    "school_data_source": null
  },
  {
    "school_name": "École primaire Touahri Arezki",
    "longitude": 4.612697601318359,
    "latitude": 36.54182052612305,
    "education_level": "Primary",
    "country_iso3_code": "DZA",
    "giga_id_school": "b6ffc492-2f24-4376-9b30-d274a5d65005",
    "school_data_source": null
  },
  {
    "school_name": "Ecole Primaire de Mahvouva",
    "longitude": 4.222379207611084,
    "latitude": 36.776580810546875,
    "education_level": "Primary",
    "country_iso3_code": "DZA",
    "giga_id_school": "14fa04f6-c6de-44a0-b706-4c5fb4da69dd",
    "school_data_source": null
  },
  {
    "school_name": "متوسطة قوني الطيب",
    "longitude": 6.004301071166992,
    "latitude": 33.019866943359375,
    "education_level": "Unknown",
    "country_iso3_code": "DZA",
    "giga_id_school": "262f8efd-f2ba-44ff-a997-3be336256430",
    "school_data_source": null
  },
  {
    "school_name": "مفدي زكرياء",
    "longitude": 6.008855819702148,
    "latitude": 33.01424026489258,
    "education_level": "Unknown",
    "country_iso3_code": "DZA",
    "giga_id_school": "e0a66873-915b-44a6-9c08-b15b5ce8cdd5",
    "school_data_source": null
  },
  {
    "school_name": "متوسطة الإخوة بولعينين",
    "longitude": 6.565873622894287,
    "latitude": 36.807861328125,
    "education_level": "Unknown",
    "country_iso3_code": "DZA",
    "giga_id_school": "d14ad794-8a37-4912-b2e1-edcb03c1bba4",
    "school_data_source": null
  },
  {
    "school_name": "متوسطة بوجنيبة",
    "longitude": 6.565688610076904,
    "latitude": 36.8057975769043,
    "education_level": "Unknown",
    "country_iso3_code": "DZA",
    "giga_id_school": "c06f8148-262f-4dcf-bdac-9075660d7e07",
    "school_data_source": null
  },
  {
    "school_name": "أبتدائية الشهيد بن عطية الميلود",
    "longitude": 3.503842830657959,
    "latitude": 34.177467346191406,
    "education_level": "Unknown",
    "country_iso3_code": "DZA",
    "giga_id_school": "a49d52e1-6f4e-4b0d-a870-7c9825e7a109",
    "school_data_source": null
  },
  {
    "school_name": "Auto-Ecole de Boudchicha",
    "longitude": 6.859104633331299,
    "latitude": 36.707618713378906,
    "education_level": "Unknown",
    "country_iso3_code": "DZA",
    "giga_id_school": "024273bd-88d2-4204-a2b2-d26e718d27b5",
    "school_data_source": null
  },
  {
    "school_name": "Lycée Malek Ben Nabi",
    "longitude": -1.1338751316070557,
    "latitude": 35.06160354614258,
    "education_level": "Unknown",
    "country_iso3_code": "DZA",
    "giga_id_school": "bbfcafad-5d1c-47e4-99fb-938247e18135",
    "school_data_source": null
  },
  {
    "school_name": "متوسطة الشيخ بوعمامة",
    "longitude": 0.7191513180732727,
    "latitude": 29.705657958984375,
    "education_level": "Unknown",
    "country_iso3_code": "DZA",
    "giga_id_school": "528f2f27-8b30-467d-8c19-d16d06f55514",
    "school_data_source": null
  },
  {
    "school_name": "ابتدائية بللعما عبد القادر",
    "longitude": 0.7132039070129395,
    "latitude": 29.702651977539062,
    "education_level": "Unknown",
    "country_iso3_code": "DZA",
    "giga_id_school": "ab2e0dd4-fc66-4c93-a6de-a696951e2edd",
    "school_data_source": null
  },
  {
    "school_name": "ابتدائية عيشاوي قادة",
    "longitude": 0.7094923853874207,
    "latitude": 29.711782455444336,
    "education_level": "Unknown",
    "country_iso3_code": "DZA",
    "giga_id_school": "e3148686-fbc9-426a-a5c0-70f0fb14d5e5",
    "school_data_source": null
  },
  {
    "school_name": "متوسطة الهاشمي",
    "longitude": 0.7062578797340393,
    "latitude": 29.702253341674805,
    "education_level": "Unknown",
    "country_iso3_code": "DZA",
    "giga_id_school": "b4e628a9-5cc1-4218-96ce-f2ff30423490",
    "school_data_source": null
  },
  {
    "school_name": "متوسطة عين حمو",
    "longitude": 0.667940616607666,
    "latitude": 29.764972686767578,
    "education_level": "Unknown",
    "country_iso3_code": "DZA",
    "giga_id_school": "f9084de2-7db3-44ed-90a3-4036aaa48e0e",
    "school_data_source": null
  },
  {
    "school_name": "Ecole de langues - Harrar",
    "longitude": 5.728855133056641,
    "latitude": 34.85185623168945,
    "education_level": "Unknown",
    "country_iso3_code": "DZA",
    "giga_id_school": "077a527e-a843-4101-ade2-6545a9298e82",
    "school_data_source": null
  },
  {
    "school_name": "Ecole Primaire Aissaoui",
    "longitude": 5.06340217590332,
    "latitude": 36.76150131225586,
    "education_level": "Primary",
    "country_iso3_code": "DZA",
    "giga_id_school": "9ceabb79-b182-41a7-9c2c-9ab7ad02f278",
    "school_data_source": null
  },
  {
    "school_name": "Aɣerbaz amezwaru",
    "longitude": 4.583606719970703,
    "latitude": 36.51439666748047,
    "education_level": "Unknown",
    "country_iso3_code": "DZA",
    "giga_id_school": "f36ca13b-8659-404d-a60e-7d98560a1beb",
    "school_data_source": null
  },
  {
    "school_name": "Ecole",
    "longitude": 4.589249134063721,
    "latitude": 36.51711654663086,
    "education_level": "Unknown",
    "country_iso3_code": "DZA",
    "giga_id_school": "1795287d-0990-4467-84c1-9869ae315b57",
    "school_data_source": null
  },
  {
    "school_name": "مدرسة ابتدائية يوغرطة 1",
    "longitude": 3.054767370223999,
    "latitude": 36.77326583862305,
    "education_level": "Unknown",
    "country_iso3_code": "DZA",
    "giga_id_school": "e47611bf-11ed-484e-b1f2-1f6ceec39978",
    "school_data_source": null
  },
  {
    "school_name": "auto ecole",
    "longitude": 2.7531940937042236,
    "latitude": 36.264190673828125,
    "education_level": "Unknown",
    "country_iso3_code": "DZA",
    "giga_id_school": "2ee39a68-0698-4645-ba9a-b034a17e0309",
    "school_data_source": null
  },
  {
    "school_name": "ابتدائية",
    "longitude": 3.502163887023926,
    "latitude": 34.15829849243164,
    "education_level": "Unknown",
    "country_iso3_code": "DZA",
    "giga_id_school": "a962f860-48bb-47a8-8f5a-2048f4904186",
    "school_data_source": null
  },
  {
    "school_name": "المدرسة الابتدائية قصر بوعمور",
    "longitude": -0.2829611897468567,
    "latitude": 27.496137619018555,
    "education_level": "Unknown",
    "country_iso3_code": "DZA",
    "giga_id_school": "cc2133c0-9bcc-418b-9fb1-a01ff4be5a23",
    "school_data_source": null
  },
  {
    "school_name": "ابتدائية فنارو",
    "longitude": 5.617397785186768,
    "latitude": 35.571868896484375,
    "education_level": "Unknown",
    "country_iso3_code": "DZA",
    "giga_id_school": "60eb93e0-891a-42ac-82f8-c77646d2625c",
    "school_data_source": null
  },
  {
    "school_name": "المتوسطة المختلطة",
    "longitude": 5.6300225257873535,
    "latitude": 35.5485954284668,
    "education_level": "Unknown",
    "country_iso3_code": "DZA",
    "giga_id_school": "3cb27037-ef99-4d05-be29-870b2fc90360",
    "school_data_source": null
  },
  {
    "school_name": "École Amoura Tahar et fils",
    "longitude": 4.364560127258301,
    "latitude": 36.515872955322266,
    "education_level": "Unknown",
    "country_iso3_code": "DZA",
    "giga_id_school": "c9f82c96-acd4-4aae-8530-5aa85628d72f",
    "school_data_source": null
  },
  {
    "school_name": "Ecole Privée THALA",
    "longitude": 4.040446758270264,
    "latitude": 36.70293045043945,
    "education_level": "Unknown",
    "country_iso3_code": "DZA",
    "giga_id_school": "637c1ada-8474-4be3-9eab-b61f312bd97a",
    "school_data_source": null
  },
  {
    "school_name": "École primaire",
    "longitude": 4.368210792541504,
    "latitude": 36.533565521240234,
    "education_level": "Primary",
    "country_iso3_code": "DZA",
    "giga_id_school": "8117d83e-686c-4d31-bc7f-a8d355e9d011",
    "school_data_source": null
  },
  {
    "school_name": "مدرسة خاصة للدعم",
    "longitude": 3.4935426712036133,
    "latitude": 34.153751373291016,
    "education_level": "Unknown",
    "country_iso3_code": "DZA",
    "giga_id_school": "95dca1e6-90f4-434f-b98b-c9844963b815",
    "school_data_source": null
  },
  {
    "school_name": "Ecole primaire de Tiwal",
    "longitude": 4.769736289978027,
    "latitude": 36.485679626464844,
    "education_level": "Primary",
    "country_iso3_code": "DZA",
    "giga_id_school": "2b319ff5-96d4-49a2-ad54-098324331999",
    "school_data_source": null
  },
  {
    "school_name": "ابتدائية يوسف نوري",
    "longitude": 6.147655963897705,
    "latitude": 35.57039260864258,
    "education_level": "Unknown",
    "country_iso3_code": "DZA",
    "giga_id_school": "dae38dd5-afa1-4f37-aab3-7d74e461a371",
    "school_data_source": null
  },
  {
    "school_name": "Ecole Ali Boumandjel",
    "longitude": 3.0532145500183105,
    "latitude": 36.769630432128906,
    "education_level": "Unknown",
    "country_iso3_code": "DZA",
    "giga_id_school": "cf8535c1-14c1-4a04-9a63-ec2636838ae8",
    "school_data_source": null
  },
  {
    "school_name": "مدرسة ماري كوري",
    "longitude": -1.141377568244934,
    "latitude": 35.290042877197266,
    "education_level": "Unknown",
    "country_iso3_code": "DZA",
    "giga_id_school": "eae736f7-731e-4af6-8018-75d0b73ce1bf",
    "school_data_source": null
  },
  {
    "school_name": "Ecole Nasser Edine Dinet",
    "longitude": -1.1365985870361328,
    "latitude": 35.28779602050781,
    "education_level": "Unknown",
    "country_iso3_code": "DZA",
    "giga_id_school": "13d9bc5c-ab85-4bef-83b5-f3d3ebfd2055",
    "school_data_source": null
  },
  {
    "school_name": "Ecole Soufi Mezouare",
    "longitude": -1.1371055841445923,
    "latitude": 35.287750244140625,
    "education_level": "Unknown",
    "country_iso3_code": "DZA",
    "giga_id_school": "3d19afdc-8447-401d-93f7-b7bab298d3e2",
    "school_data_source": null
  },
  {
    "school_name": "مدرسة فكار العربي",
    "longitude": -1.138068437576294,
    "latitude": 35.28793716430664,
    "education_level": "Unknown",
    "country_iso3_code": "DZA",
    "giga_id_school": "102b6eac-b2ec-4385-be9f-bd8c2c1472d6",
    "school_data_source": null
  },
  {
    "school_name": "Ecole Primaire Arres Sihemdi",
    "longitude": 5.039211273193359,
    "latitude": 35.94609451293945,
    "education_level": "Primary",
    "country_iso3_code": "DZA",
    "giga_id_school": "6d2c4fd8-7622-4454-8731-853d859fc8fb",
    "school_data_source": null
  },
  {
    "school_name": "ثانوية ناصري رمضان",
    "longitude": 5.90165901184082,
    "latitude": 36.75816345214844,
    "education_level": "Unknown",
    "country_iso3_code": "DZA",
    "giga_id_school": "b0153c09-66f7-429a-8748-a1ae24d594ef",
    "school_data_source": null
  },
  {
    "school_name": "CEM Bilel",
    "longitude": 5.890469551086426,
    "latitude": 36.7630500793457,
    "education_level": "Unknown",
    "country_iso3_code": "DZA",
    "giga_id_school": "e5c87a31-a525-4584-9b6c-7c7585b4c2c2",
    "school_data_source": null
  },
  {
    "school_name": "مدرسة الهدام الابتدائية",
    "longitude": -1.732578992843628,
    "latitude": 34.853878021240234,
    "education_level": "Unknown",
    "country_iso3_code": "DZA",
    "giga_id_school": "1edf81d6-c857-4e50-ac58-81eee0ebdd43",
    "school_data_source": null
  },
  {
    "school_name": "متوسطة داري الواسيني",
    "longitude": -1.7318347692489624,
    "latitude": 34.853477478027344,
    "education_level": "Unknown",
    "country_iso3_code": "DZA",
    "giga_id_school": "1e3431bd-781a-403b-bba0-90b6a5927d3c",
    "school_data_source": null
  },
  {
    "school_name": "CEG",
    "longitude": -1.7338385581970215,
    "latitude": 34.85099411010742,
    "education_level": "Unknown",
    "country_iso3_code": "DZA",
    "giga_id_school": "1e4647b7-7e17-4aa4-8e80-31f0cf762bd7",
    "school_data_source": null
  },
  {
    "school_name": "École primaire",
    "longitude": 2.782759666442871,
    "latitude": 36.622825622558594,
    "education_level": "Primary",
    "country_iso3_code": "DZA",
    "giga_id_school": "5ca426d2-0a20-479a-b2c4-cfaede928a30",
    "school_data_source": null
  },
  {
    "school_name": "Ecole primaire Abdealah Abdiche",
    "longitude": 2.3519508838653564,
    "latitude": 36.52277374267578,
    "education_level": "Primary",
    "country_iso3_code": "DZA",
    "giga_id_school": "99f925e9-b257-49e4-b080-ef2d6b78d7e5",
    "school_data_source": null
  },
  {
    "school_name": "CEM",
    "longitude": 3.9122400283813477,
    "latitude": 36.91423416137695,
    "education_level": "Unknown",
    "country_iso3_code": "DZA",
    "giga_id_school": "cea649f2-3d89-4d13-907e-5dcb45b18df6",
    "school_data_source": null
  },
  {
    "school_name": "École Mouloud Feraoun",
    "longitude": -1.1399049758911133,
    "latitude": 35.29487991333008,
    "education_level": "Unknown",
    "country_iso3_code": "DZA",
    "giga_id_school": "9d8495e2-0f32-4740-a8a1-2068ef051003",
    "school_data_source": null
  },
  {
    "school_name": "Ecole El Ghazali",
    "longitude": -1.139765977859497,
    "latitude": 35.29566192626953,
    "education_level": "Unknown",
    "country_iso3_code": "DZA",
    "giga_id_school": "40e732ae-5575-4494-983b-ae69bb341e4e",
    "school_data_source": null
  },
  {
    "school_name": "ابتدائية حنوفة السبتي",
    "longitude": 5.911255359649658,
    "latitude": 36.39548873901367,
    "education_level": "Unknown",
    "country_iso3_code": "DZA",
    "giga_id_school": "2d3222f8-b15f-4719-8928-0217505a8746",
    "school_data_source": null
  },
  {
    "school_name": "CEM TIKODANE BACHIR",
    "longitude": 5.895107269287109,
    "latitude": 36.39313888549805,
    "education_level": "Unknown",
    "country_iso3_code": "DZA",
    "giga_id_school": "b9ece744-8e03-4fe4-b042-70254624ae0c",
    "school_data_source": null
  },
  {
    "school_name": "École BRIKA saadi",
    "longitude": 5.894411563873291,
    "latitude": 36.39366912841797,
    "education_level": "Unknown",
    "country_iso3_code": "DZA",
    "giga_id_school": "9f96caca-305d-40db-9e89-424a762dcf91",
    "school_data_source": null
  },
  {
    "school_name": "Lycée 2",
    "longitude": -1.7301840782165527,
    "latitude": 34.841468811035156,
    "education_level": "Unknown",
    "country_iso3_code": "DZA",
    "giga_id_school": "0b115fd3-14a6-4940-8c5d-24faad7792c0",
    "school_data_source": null
  },
  {
    "school_name": "Lycée 1",
    "longitude": -1.7326635122299194,
    "latitude": 34.84095001220703,
    "education_level": "Unknown",
    "country_iso3_code": "DZA",
    "giga_id_school": "fc52e33c-9b8a-4df0-9d6b-867d8362da45",
    "school_data_source": null
  },
  {
    "school_name": "Ecole primaire 08 mai 1945",
    "longitude": 5.326321601867676,
    "latitude": 36.62601852416992,
    "education_level": "Primary",
    "country_iso3_code": "DZA",
    "giga_id_school": "e153d6de-9934-4b8a-9481-74376762a2c2",
    "school_data_source": null
  },
  {
    "school_name": "متوسطة المجاهد سلطاني حواس",
    "longitude": 3.2400550842285156,
    "latitude": 36.80685806274414,
    "education_level": "Unknown",
    "country_iso3_code": "DZA",
    "giga_id_school": "34b498b0-b435-4741-a195-23a7ff78f0e8",
    "school_data_source": null
  },
  {
    "school_name": "Ecole Primaire Colonel Ferradj",
    "longitude": -0.6319925785064697,
    "latitude": 35.70545196533203,
    "education_level": "Primary",
    "country_iso3_code": "DZA",
    "giga_id_school": "28b8a5fe-8f2f-42ca-b1ce-6ea79d1d340e",
    "school_data_source": null
  },
  {
    "school_name": "Mohammed Khmisti",
    "longitude": -1.7498668432235718,
    "latitude": 34.846046447753906,
    "education_level": "Unknown",
    "country_iso3_code": "DZA",
    "giga_id_school": "da8e970f-d5c1-4d4a-aa98-b5baab5f5de1",
    "school_data_source": null
  },
  {
    "school_name": "lycée",
    "longitude": 3.3969860076904297,
    "latitude": 36.716163635253906,
    "education_level": "Unknown",
    "country_iso3_code": "DZA",
    "giga_id_school": "7209fdd4-21bc-405c-a2f3-b53b6a17c45b",
    "school_data_source": null
  },
  {
    "school_name": "متوسطة ميمون",
    "longitude": -0.3507508933544159,
    "latitude": 27.879779815673828,
    "education_level": "Unknown",
    "country_iso3_code": "DZA",
    "giga_id_school": "50afc151-b208-4392-a955-057531040c6c",
    "school_data_source": null
  },
  {
    "school_name": "متوسطة المنصور",
    "longitude": -0.4207457900047302,
    "latitude": 27.956262588500977,
    "education_level": "Unknown",
    "country_iso3_code": "DZA",
    "giga_id_school": "eb66485e-6b1d-41c7-9d41-1fa828553cc5",
    "school_data_source": null
  },
  {
    "school_name": "ابتدائية بودة المنصور",
    "longitude": -0.4331001043319702,
    "latitude": 27.95845603942871,
    "education_level": "Unknown",
    "country_iso3_code": "DZA",
    "giga_id_school": "c0f74a1b-2cf2-4cee-b420-19de24de5d09",
    "school_data_source": null
  },
  {
    "school_name": "Lycée 11 décembre 1960",
    "longitude": -0.3269057869911194,
    "latitude": 35.85996627807617,
    "education_level": "Unknown",
    "country_iso3_code": "DZA",
    "giga_id_school": "796d85f1-3857-4c34-ac49-46631e4bd6dc",
    "school_data_source": null
  },
  {
    "school_name": "Ecole Archimed",
    "longitude": 2.996072292327881,
    "latitude": 36.712127685546875,
    "education_level": "Unknown",
    "country_iso3_code": "DZA",
    "giga_id_school": "b4c8cc13-cfdc-4497-b078-2cd8ab6a93b7",
    "school_data_source": null
  },
  {
    "school_name": "Ecole Privée l'écureuil",
    "longitude": 2.8327345848083496,
    "latitude": 36.48497009277344,
    "education_level": "Unknown",
    "country_iso3_code": "DZA",
    "giga_id_school": "4554a3ce-b78b-4111-85b3-4b684e979c7b",
    "school_data_source": null
  },
  {
    "school_name": "CEM 2",
    "longitude": 3.3635942935943604,
    "latitude": 36.63600158691406,
    "education_level": "Unknown",
    "country_iso3_code": "DZA",
    "giga_id_school": "d9730d6c-ffb5-4210-8e94-adec0c7beb62",
    "school_data_source": null
  },
  {
    "school_name": "CE..M Rabah Chekkat",
    "longitude": 6.894886016845703,
    "latitude": 36.755897521972656,
    "education_level": "Unknown",
    "country_iso3_code": "DZA",
    "giga_id_school": "6629902f-7d65-4810-af4a-8f2acec866d9",
    "school_data_source": null
  },
  {
    "school_name": "C.E.M Echiheb",
    "longitude": 6.897512912750244,
    "latitude": 36.755027770996094,
    "education_level": "Unknown",
    "country_iso3_code": "DZA",
    "giga_id_school": "85003622-3bf3-4f0b-9343-aae4d423f753",
    "school_data_source": null
  },
  {
    "school_name": "École Benchogra Ahmed",
    "longitude": -1.7467423677444458,
    "latitude": 34.85127258300781,
    "education_level": "Unknown",
    "country_iso3_code": "DZA",
    "giga_id_school": "26fafadb-c43f-4c1c-a14b-d1a5f5492c4e",
    "school_data_source": null
  },
  {
    "school_name": "Ecole primaire Aïssa El Bey Khaled",
    "longitude": 2.816607713699341,
    "latitude": 36.466835021972656,
    "education_level": "Primary",
    "country_iso3_code": "DZA",
    "giga_id_school": "4d11fd07-1122-4f26-9fb6-e8ba957f71c9",
    "school_data_source": null
  },
  {
    "school_name": "ثانوية صادقي أحمد",
    "longitude": 2.8628857135772705,
    "latitude": 34.849082946777344,
    "education_level": "Unknown",
    "country_iso3_code": "DZA",
    "giga_id_school": "93d990cc-609b-4405-bd7c-8c7e2c7a936f",
    "school_data_source": null
  },
  {
    "school_name": "متوسطة عمر بن عبد العزيز",
    "longitude": 2.8592236042022705,
    "latitude": 34.84977722167969,
    "education_level": "Unknown",
    "country_iso3_code": "DZA",
    "giga_id_school": "10ae61e5-5f2e-4330-8e05-f27f94e63848",
    "school_data_source": null
  },
  {
    "school_name": "Lycée polyvalent Ramdane Djamel",
    "longitude": 6.892277717590332,
    "latitude": 36.761356353759766,
    "education_level": "Unknown",
    "country_iso3_code": "DZA",
    "giga_id_school": "a14b4cd1-3aba-4dd0-a1ad-597ac81eeaec",
    "school_data_source": null
  },
  {
    "school_name": "Ecole primaire Abou El Kacem Kouadri",
    "longitude": 3.1216304302215576,
    "latitude": 36.714481353759766,
    "education_level": "Primary",
    "country_iso3_code": "DZA",
    "giga_id_school": "d8720642-fba0-4eb1-af3b-27d5014f5998",
    "school_data_source": null
  },
  {
    "school_name": "Ecole frères Karabadji",
    "longitude": 3.9578166007995605,
    "latitude": 36.675445556640625,
    "education_level": "Unknown",
    "country_iso3_code": "DZA",
    "giga_id_school": "ed9931e8-27ff-4f26-82c8-575e3c010e52",
    "school_data_source": null
  },
  {
    "school_name": "Ecole",
    "longitude": 3.963862180709839,
    "latitude": 36.66815948486328,
    "education_level": "Unknown",
    "country_iso3_code": "DZA",
    "giga_id_school": "cd45386b-dc85-4b8e-aa39-f396268859d9",
    "school_data_source": null
  },
  {
    "school_name": "CEM",
    "longitude": 3.9693071842193604,
    "latitude": 36.65276336669922,
    "education_level": "Unknown",
    "country_iso3_code": "DZA",
    "giga_id_school": "fe8d1216-634b-4933-843e-604f28cb5ca4",
    "school_data_source": null
  },
  {
    "school_name": "Primaire",
    "longitude": 3.969587802886963,
    "latitude": 36.656044006347656,
    "education_level": "Primary",
    "country_iso3_code": "DZA",
    "giga_id_school": "a892c563-7d19-41a4-91c6-f3cc0a2ee9b0",
    "school_data_source": null
  },
  {
    "school_name": "CEM Houari Boumediane",
    "longitude": 1.7081542015075684,
    "latitude": 36.55056381225586,
    "education_level": "Unknown",
    "country_iso3_code": "DZA",
    "giga_id_school": "05ee6004-bfa8-47b0-9403-197840e7ee1c",
    "school_data_source": null
  },
  {
    "school_name": "l'école primaire Sakina Bent El Houssin",
    "longitude": 6.1734819412231445,
    "latitude": 35.55646514892578,
    "education_level": "Primary",
    "country_iso3_code": "DZA",
    "giga_id_school": "1dd89270-221a-4566-8ce7-671aeabf40a1",
    "school_data_source": null
  },
  {
    "school_name": "Ecole Barrichi Arbi",
    "longitude": 0.2081906944513321,
    "latitude": 35.809967041015625,
    "education_level": "Unknown",
    "country_iso3_code": "DZA",
    "giga_id_school": "810af36a-069a-4537-a539-d56bbbf848ed",
    "school_data_source": null
  },
  {
    "school_name": "إبتدائية سعيدي علي",
    "longitude": 7.395552158355713,
    "latitude": 35.7974967956543,
    "education_level": "Unknown",
    "country_iso3_code": "DZA",
    "giga_id_school": "dd046914-4da1-445b-bb79-a67f766e3d23",
    "school_data_source": null
  },
  {
    "school_name": "École primaire CHALAL moh rabah",
    "longitude": 4.039855003356934,
    "latitude": 36.810211181640625,
    "education_level": "Primary",
    "country_iso3_code": "DZA",
    "giga_id_school": "cd0a3a04-ebd4-4d8e-8dff-c182f78e112b",
    "school_data_source": null
  },
  {
    "school_name": "colège chahid bouchham Messaoud",
    "longitude": 6.640439033508301,
    "latitude": 36.42868423461914,
    "education_level": "Unknown",
    "country_iso3_code": "DZA",
    "giga_id_school": "c37fdfdd-b5e6-4383-933c-050e34e539f5",
    "school_data_source": null
  },
  {
    "school_name": "École primaire Baba Moussa",
    "longitude": 2.823209762573242,
    "latitude": 36.45729064941406,
    "education_level": "Primary",
    "country_iso3_code": "DZA",
    "giga_id_school": "eff6df1b-1733-4a3e-be5e-c390ac4fc7fa",
    "school_data_source": null
  },
  {
    "school_name": "École primaire el hamadia",
    "longitude": 1.3101602792739868,
    "latitude": 36.15596008300781,
    "education_level": "Primary",
    "country_iso3_code": "DZA",
    "giga_id_school": "a7da08db-c9f4-4517-b1ae-15c75f4dccae",
    "school_data_source": null
  },
  {
    "school_name": "Ecole primaire CHAHID ELHAMEL DAHMENE",
    "longitude": 5.30485200881958,
    "latitude": 31.95507049560547,
    "education_level": "Primary",
    "country_iso3_code": "DZA",
    "giga_id_school": "776ae566-bf94-4df1-ae29-9706b908f74c",
    "school_data_source": null
  },
  {
    "school_name": "ECOLE PRIMAIRE ELMOUDJAHID TALEB BRAHIM MEDAKENE",
    "longitude": 5.308886528015137,
    "latitude": 31.9694766998291,
    "education_level": "Primary",
    "country_iso3_code": "DZA",
    "giga_id_school": "e938a23c-b8a6-412b-b298-de4b2c720652",
    "school_data_source": null
  },
  {
    "school_name": "إبتدائية الشيخ المقراني 2",
    "longitude": 5.398265361785889,
    "latitude": 31.959501266479492,
    "education_level": "Unknown",
    "country_iso3_code": "DZA",
    "giga_id_school": "38125a61-1541-449a-87ba-10b93a1c91dd",
    "school_data_source": null
  },
  {
    "school_name": "Ecole primaire Ait Daoud",
    "longitude": 4.276663303375244,
    "latitude": 36.51021957397461,
    "education_level": "Primary",
    "country_iso3_code": "DZA",
    "giga_id_school": "a0cdc351-f95a-4a0d-8299-ee447548ee03",
    "school_data_source": null
  },
  {
    "school_name": "ثانوية بلال بن رباح",
    "longitude": 7.008978843688965,
    "latitude": 35.03599548339844,
    "education_level": "Unknown",
    "country_iso3_code": "DZA",
    "giga_id_school": "f804e753-c71a-45aa-bc83-c3d51d276538",
    "school_data_source": null
  },
  {
    "school_name": "ابتدائية قاع الكاف اسماعيل",
    "longitude": 5.775718688964844,
    "latitude": 36.49107360839844,
    "education_level": "Unknown",
    "country_iso3_code": "DZA",
    "giga_id_school": "b9ed5d53-2640-4d70-bba2-bfc7a29920ca",
    "school_data_source": null
  },
  {
    "school_name": "École Ennassim",
    "longitude": 3.2353899478912354,
    "latitude": 36.73383712768555,
    "education_level": "Unknown",
    "country_iso3_code": "DZA",
    "giga_id_school": "4d11b441-0e05-463d-9162-e48b1bf70372",
    "school_data_source": null
  },
  {
    "school_name": "Ecole des Frères Mançour",
    "longitude": 5.431247711181641,
    "latitude": 36.206748962402344,
    "education_level": "Unknown",
    "country_iso3_code": "DZA",
    "giga_id_school": "f86853fd-ccbb-488b-934d-f5f09998b839",
    "school_data_source": null
  },
  {
    "school_name": "مدرسة الحياة",
    "longitude": 4.498862266540527,
    "latitude": 32.79222869873047,
    "education_level": "Unknown",
    "country_iso3_code": "DZA",
    "giga_id_school": "673e597b-a8f1-4f78-a1ed-401515df0826",
    "school_data_source": null
  },
  {
    "school_name": "Ecole privée SIM",
    "longitude": 2.826889991760254,
    "latitude": 36.48284912109375,
    "education_level": "Unknown",
    "country_iso3_code": "DZA",
    "giga_id_school": "76c33d65-a7e2-4c15-88a9-e92509afa9eb",
    "school_data_source": null
  },
  {
    "school_name": "Ecole M.B.I",
    "longitude": 5.4421772956848145,
    "latitude": 36.19112777709961,
    "education_level": "Unknown",
    "country_iso3_code": "DZA",
    "giga_id_school": "6003dcb1-0f45-433d-924c-0d919cfc0e1a",
    "school_data_source": null
  },
  {
    "school_name": "إبتدائية عبدالحميد بن باديس",
    "longitude": 3.647749662399292,
    "latitude": 36.236793518066406,
    "education_level": "Unknown",
    "country_iso3_code": "DZA",
    "giga_id_school": "4052cbb1-c200-4d39-828a-2df11f4fe0e4",
    "school_data_source": null
  },
  {
    "school_name": "École primaire Igharbienne",
    "longitude": 4.252580642700195,
    "latitude": 36.8231201171875,
    "education_level": "Primary",
    "country_iso3_code": "DZA",
    "giga_id_school": "00134493-247b-4fb9-9de0-4a2193fab9a1",
    "school_data_source": null
  },
  {
    "school_name": "ROYAL SCHOOL",
    "longitude": 5.338397979736328,
    "latitude": 31.95501708984375,
    "education_level": "Unknown",
    "country_iso3_code": "DZA",
    "giga_id_school": "ff0d9141-bfdb-480c-b9fb-260fef50270c",
    "school_data_source": null
  },
  {
    "school_name": "ابتدائية العربي التبسي",
    "longitude": 7.623928070068359,
    "latitude": 36.79241943359375,
    "education_level": "Unknown",
    "country_iso3_code": "DZA",
    "giga_id_school": "3060c1ac-c040-4e39-a2c6-41deb8dd4741",
    "school_data_source": null
  },
  {
    "school_name": "Lycée Belkine",
    "longitude": -0.28554001450538635,
    "latitude": 27.877626419067383,
    "education_level": "Unknown",
    "country_iso3_code": "DZA",
    "giga_id_school": "e841a83d-1ded-42b3-bd2c-d9e8dde4ab2c",
    "school_data_source": null
  },
  {
    "school_name": "مدرسة الإخوة فورار الابتدائية",
    "longitude": 5.899755477905273,
    "latitude": 35.37466049194336,
    "education_level": "Unknown",
    "country_iso3_code": "DZA",
    "giga_id_school": "75423bc3-9e00-4474-b377-22ce9fd5654a",
    "school_data_source": null
  },