[
  {
    "school_name": "JEP KATANGA",
    "longitude": 1.2949233055114746,
    "latitude": 6.150606632232666,
    "education_level": "Préscolaire",
    "country_iso3_code": "TGO",
    "giga_id_school": "916f2da5-c523-3eab-8bcf-532065dc4fde",
    "school_data_source": null
  },
  {
    "school_name": "JEPC ADAMAVO",
    "longitude": 1.3112916946411133,
    "latitude": 6.170888423919678,
    "education_level": "Préscolaire",
    "country_iso3_code": "TGO",
    "giga_id_school": "400a578b-5986-3416-a4f0-8228317dfc5a",
    "school_data_source": null
  },
  {
    "school_name": "JEPC AVEPOZO",
    "longitude": 1.3428699970245361,
    "latitude": 6.1703314781188965,
    "education_level": "Préscolaire",
    "country_iso3_code": "TGO",
    "giga_id_school": "825a0504-228e-34ec-b7e7-f6f9c859ac9b",
    "school_data_source": null
  },
  {
    "school_name": "JEPC ANFAME",
    "longitude": 1.3218066692352295,
    "latitude": 6.173580169677734,
    "education_level": "Préscolaire",
    "country_iso3_code": "TGO",
    "giga_id_school": "295ec5b7-400d-3776-9e31-ed3de2158583",
    "school_data_source": null
  },
  {
    "school_name": "JEPE ADVENTISTE D'ANFAME",
    "longitude": 1.3239033222198486,
    "latitude": 6.178371429443359,
    "education_level": "Préscolaire",
    "country_iso3_code": "TGO",
    "giga_id_school": "fdbf3508-45a0-37b2-93d3-7f59a1200d50",
    "school_data_source": null
  },
  {
    "school_name": "JEPE AVEPOZO",
    "longitude": 1.361276626586914,
    "latitude": 6.186568260192871,
    "education_level": "Préscolaire",
    "country_iso3_code": "TGO",
    "giga_id_school": "92bf9865-d691-3eaa-b507-5e677b81a266",
    "school_data_source": null
  },
  {
    "school_name": "JEP BAGUIDA PLANTATION",
    "longitude": 1.3631666898727417,
    "latitude": 6.179073333740234,
    "education_level": "Préscolaire",
    "country_iso3_code": "TGO",
    "giga_id_school": "97d62184-0b88-3713-8d22-a0f58217e53f",
    "school_data_source": null
  },
  {
    "school_name": "JEP KPOGAN LAMBOU",
    "longitude": 1.300843358039856,
    "latitude": 6.176926612854004,
    "education_level": "Préscolaire",
    "country_iso3_code": "TGO",
    "giga_id_school": "ecbd212e-4c52-3387-8f3f-fc807d315b59",
    "school_data_source": null
  },
  {
    "school_name": "JEPL SAINT ESPRIT AVEPOZO",
    "longitude": 1.2886433601379395,
    "latitude": 6.16400146484375,
    "education_level": "Préscolaire",
    "country_iso3_code": "TGO",
    "giga_id_school": "407a589c-20ec-3228-b748-0015b88eb9fa",
    "school_data_source": null
  },
  {
    "school_name": "JEP AVEPOZO PLAGE",
    "longitude": 1.31427001953125,
    "latitude": 6.176185131072998,
    "education_level": "Préscolaire",
    "country_iso3_code": "TGO",
    "giga_id_school": "ace9ccdd-d81a-3752-b028-f1882ffb2021",
    "school_data_source": null
  },
  {
    "school_name": "JEPE PENTECOTE BAGUIDA",
    "longitude": 1.2973833084106445,
    "latitude": 6.162779808044434,
    "education_level": "Préscolaire",
    "country_iso3_code": "TGO",
    "giga_id_school": "2ded9934-c9a3-3f50-8d40-db06e364f0ac",
    "school_data_source": null
  },
  {
    "school_name": "JEPE JOURDIN D'ADAMAVO",
    "longitude": 1.3484883308410645,
    "latitude": 6.1812615394592285,
    "education_level": "Préscolaire",
    "country_iso3_code": "TGO",
    "giga_id_school": "efa53de0-0663-370c-88b9-ed820f612c10",
    "school_data_source": null
  },
  {
    "school_name": "JEPL ACADEMIE ROI DES ROIS",
    "longitude": 1.3390417098999023,
    "latitude": 6.193526744842529,
    "education_level": "Préscolaire",
    "country_iso3_code": "TGO",
    "giga_id_school": "a649942f-809f-3b85-a2e1-41cf82f593ac",
    "school_data_source": null
  },
  {
    "school_name": "JEPL LA POUSSETTE",
    "longitude": 1.2954466342926025,
    "latitude": 6.172673225402832,
    "education_level": "Préscolaire",
    "country_iso3_code": "TGO",
    "giga_id_school": "d18c0c51-302c-37a3-ad43-6ab7896b4e0b",
    "school_data_source": null
  },
  {
    "school_name": "JEPL LAROUSSE",
    "longitude": 1.2181979417800903,
    "latitude": 6.232532024383545,
    "education_level": "Préscolaire",
    "country_iso3_code": "TGO",
    "giga_id_school": "50d11167-95a2-35ec-9b5e-5cf7d4e2151a",
    "school_data_source": null
  },
  {
    "school_name": "JEE A/D ATSANTI G/A",
    "longitude": 1.23540198802948,
    "latitude": 6.182648181915283,
    "education_level": "Préscolaire",
    "country_iso3_code": "TGO",
    "giga_id_school": "b408cfbe-2b58-31e1-b5e9-c2f79604b158",
    "school_data_source": null
  },
  {
    "school_name": "JEPL LEMIEUX",
    "longitude": 1.2546069622039795,
    "latitude": 6.193319797515869,
    "education_level": "Préscolaire",
    "country_iso3_code": "TGO",
    "giga_id_school": "cb8ceef5-a53a-3ea5-90d9-3cbe820df197",
    "school_data_source": null
  },
  {
    "school_name": "JEPL LES YOU'NS & LES YOU'NETTES",
    "longitude": 1.2573585510253906,
    "latitude": 6.18865442276001,
    "education_level": "Préscolaire",
    "country_iso3_code": "TGO",
    "giga_id_school": "47cc8c4f-ae75-3b3f-86df-e6ef9a483978",
    "school_data_source": null
  },
  {
    "school_name": "JEPL EDISON",
    "longitude": 1.2723920345306396,
    "latitude": 6.176877021789551,
    "education_level": "Préscolaire",
    "country_iso3_code": "TGO",
    "giga_id_school": "821af49e-86e1-3080-955f-dba1b588ab96",
    "school_data_source": null
  },
  {
    "school_name": "JEPL BON DESTIN",
    "longitude": 1.252929925918579,
    "latitude": 6.221741199493408,
    "education_level": "Préscolaire",
    "country_iso3_code": "TGO",
    "giga_id_school": "2ea0b277-f8be-33d8-9e12-0ffa07b77a1d",
    "school_data_source": null
  },
  {
    "school_name": "JEPL AIME CESAIRE",
    "longitude": 1.235281229019165,
    "latitude": 6.176977634429932,
    "education_level": "Préscolaire",
    "country_iso3_code": "TGO",
    "giga_id_school": "048826ac-2551-3e52-8706-7608399189fc",
    "school_data_source": null
  },
  {
    "school_name": "JEPL AHMADOU KOUROUMA",
    "longitude": 1.2531554698944092,
    "latitude": 6.2133097648620605,
    "education_level": "Préscolaire",
    "country_iso3_code": "TGO",
    "giga_id_school": "93824995-25cd-36b7-9497-4c0902e64f71",
    "school_data_source": null
  },
  {
    "school_name": "JEPL AFRIQUE MON AFRIQUE",
    "longitude": 1.2805827856063843,
    "latitude": 6.172236442565918,
    "education_level": "Préscolaire",
    "country_iso3_code": "TGO",
    "giga_id_school": "e5ed4079-cded-3af5-977c-eea45968e036",
    "school_data_source": null
  },
  {
    "school_name": "JEPL KOUVAHEY-SITO",
    "longitude": 1.2473965883255005,
    "latitude": 6.170565605163574,
    "education_level": "Préscolaire",
    "country_iso3_code": "TGO",
    "giga_id_school": "9d3bf714-0271-3708-af02-123d38e902cd",
    "school_data_source": null
  },
  {
    "school_name": "JEE EVANGELIQUE DE BE-KPOTA",
    "longitude": 1.260047435760498,
    "latitude": 6.168117046356201,
    "education_level": "Préscolaire",
    "country_iso3_code": "TGO",
    "giga_id_school": "6696e949-8477-36ee-895e-ec9e45bf9089",
    "school_data_source": null
  },
  {
    "school_name": "JEPL ECOLE INTERNATIONALE DOMINION",
    "longitude": 1.237388253211975,
    "latitude": 6.152877330780029,
    "education_level": "Préscolaire",
    "country_iso3_code": "TGO",
    "giga_id_school": "aeaa70d0-62d5-3e55-af32-ed6effb0ddb8",
    "school_data_source": null
  },
  {
    "school_name": "JEPL AGLA ETOILE DU MATIN",
    "longitude": 1.273182988166809,
    "latitude": 6.179003715515137,
    "education_level": "Préscolaire",
    "country_iso3_code": "TGO",
    "giga_id_school": "d63a732e-5128-3028-b97f-e3c6e4c8f1d9",
    "school_data_source": null
  },
  {
    "school_name": "JEPL EMMAUS",
    "longitude": 1.2548309564590454,
    "latitude": 6.18829870223999,
    "education_level": "Préscolaire",
    "country_iso3_code": "TGO",
    "giga_id_school": "41629a15-11f3-35bf-86c1-deee862da0af",
    "school_data_source": null
  },
  {
    "school_name": "JEPL ELIE",
    "longitude": 1.245161533355713,
    "latitude": 6.188640594482422,
    "education_level": "Préscolaire",
    "country_iso3_code": "TGO",
    "giga_id_school": "ff33ee74-93e7-3936-b958-73c7222c6657",
    "school_data_source": null
  },
  {
    "school_name": "JEPL EFFATA II",
    "longitude": 1.249258279800415,
    "latitude": 6.208128929138184,
    "education_level": "Préscolaire",
    "country_iso3_code": "TGO",
    "giga_id_school": "60f26769-c32d-348a-8807-6523ccc8c0ad",
    "school_data_source": null
  },
  {
    "school_name": "JEPL AMOU-FRED",
    "longitude": 1.2589282989501953,
    "latitude": 6.212315082550049,
    "education_level": "Préscolaire",
    "country_iso3_code": "TGO",
    "giga_id_school": "fcd44e02-5057-34cf-b004-8d4e5a33c509",
    "school_data_source": null
  },
  {
    "school_name": "JEPL LA BONNE SEMENCE DIVINE",
    "longitude": 1.2452157735824585,
    "latitude": 6.199485778808594,
    "education_level": "Préscolaire",
    "country_iso3_code": "TGO",
    "giga_id_school": "61ea0e73-9ae4-3951-b9df-f49dc9ea3318",
    "school_data_source": null
  },
  {
    "school_name": "JEPL LUMIERE DU MONDE",
    "longitude": 1.2487437725067139,
    "latitude": 6.210833549499512,
    "education_level": "Préscolaire",
    "country_iso3_code": "TGO",
    "giga_id_school": "4afce9a8-4c9a-3d14-9ffe-cb118e7c22ce",
    "school_data_source": null
  },
  {
    "school_name": "JEPL LE ROCHER",
    "longitude": 1.2377938032150269,
    "latitude": 6.158662796020508,
    "education_level": "Préscolaire",
    "country_iso3_code": "TGO",
    "giga_id_school": "0c414537-3d38-3eda-b8ca-a77a994ebc94",
    "school_data_source": null
  },
  {
    "school_name": "JEPL LES PEDAGOGUES",
    "longitude": 1.2398229837417603,
    "latitude": 6.157229423522949,
    "education_level": "Préscolaire",
    "country_iso3_code": "TGO",
    "giga_id_school": "87a2d3b6-9f95-372f-8592-250cd35f53c0",
    "school_data_source": null
  },
  {
    "school_name": "JEPL NOTRE BEAU METIER",
    "longitude": 1.240295648574829,
    "latitude": 6.154677867889404,
    "education_level": "Préscolaire",
    "country_iso3_code": "TGO",
    "giga_id_school": "46307dc5-5db3-309f-ae6a-b3656b7343b5",
    "school_data_source": null
  },
  {
    "school_name": "JEPL MATI",
    "longitude": 1.233214259147644,
    "latitude": 6.1520676612854,
    "education_level": "Préscolaire",
    "country_iso3_code": "TGO",
    "giga_id_school": "8e5df3e4-7918-36e3-894e-0480fbd0adc4",
    "school_data_source": null
  },
  {
    "school_name": "JEE A/D EBEN EZER",
    "longitude": 1.2443487644195557,
    "latitude": 6.167123794555664,
    "education_level": "Préscolaire",
    "country_iso3_code": "TGO",
    "giga_id_school": "18e8dddc-a9f1-3821-b038-d3c47a9f6a05",
    "school_data_source": null
  },
  {
    "school_name": "JEPL DINO GOLO",
    "longitude": 1.2436383962631226,
    "latitude": 6.206082820892334,
    "education_level": "Préscolaire",
    "country_iso3_code": "TGO",
    "giga_id_school": "49239701-c22b-3f99-b0f8-449485b425d2",
    "school_data_source": null
  },
  {
    "school_name": "JEPL LES FRERES EN CHRIST",
    "longitude": 1.2422508001327515,
    "latitude": 6.163915634155273,
    "education_level": "Préscolaire",
    "country_iso3_code": "TGO",
    "giga_id_school": "a6522451-3113-352c-9931-776289de7f5f",
    "school_data_source": null
  },
  {
    "school_name": "JEE METHODITES CITE DE GRACE DE KEGUE",
    "longitude": 1.2418056726455688,
    "latitude": 6.199947357177734,
    "education_level": "Préscolaire",
    "country_iso3_code": "TGO",
    "giga_id_school": "7bba95f3-9432-3355-8137-91672415c951",
    "school_data_source": null
  },
  {
    "school_name": "JEPI NAASR WA MARIAM",
    "longitude": 1.2497464418411255,
    "latitude": 6.215952396392822,
    "education_level": "Préscolaire",
    "country_iso3_code": "TGO",
    "giga_id_school": "dcf2f765-e963-36e6-88ca-c6b736267571",
    "school_data_source": null
  },
  {
    "school_name": "JEPL INTERNATIONALE LASSEY",
    "longitude": 1.2363821268081665,
    "latitude": 6.172764301300049,
    "education_level": "Préscolaire",
    "country_iso3_code": "TGO",
    "giga_id_school": "cea59036-e16c-3bda-9d68-2ac7d994f582",
    "school_data_source": null
  },
  {
    "school_name": "JEPL DINO GRACIAS",
    "longitude": 1.2360061407089233,
    "latitude": 6.166503429412842,
    "education_level": "Préscolaire",
    "country_iso3_code": "TGO",
    "giga_id_school": "d8c67bdd-57e4-3441-a59d-09a1ccbb3495",
    "school_data_source": null
  },
  {
    "school_name": "JEPL SCHEKINA",
    "longitude": 1.2763687372207642,
    "latitude": 6.180393218994141,
    "education_level": "Préscolaire",
    "country_iso3_code": "TGO",
    "giga_id_school": "00277104-bd5c-3d9a-b6b6-8d95614000b4",
    "school_data_source": null
  },
  {
    "school_name": "JEPL HAMSINI",
    "longitude": 1.2356493473052979,
    "latitude": 6.1616973876953125,
    "education_level": "Préscolaire",
    "country_iso3_code": "TGO",
    "giga_id_school": "fd204436-e8a8-30be-8b27-7a51382ae739",
    "school_data_source": null
  },
  {
    "school_name": "JEE LA MOISSON",
    "longitude": 1.2522284984588623,
    "latitude": 6.192510604858398,
    "education_level": "Préscolaire",
    "country_iso3_code": "TGO",
    "giga_id_school": "b714c4c3-523e-363e-86c3-808f1a4f72a7",
    "school_data_source": null
  },
  {
    "school_name": "JEE MA DESTINEE",
    "longitude": 1.2462519407272339,
    "latitude": 6.184030532836914,
    "education_level": "Préscolaire",
    "country_iso3_code": "TGO",
    "giga_id_school": "7426def0-1243-36ba-9666-5038a38da22b",
    "school_data_source": null
  },
  {
    "school_name": "JEPL NOUVELLE ELITE I",
    "longitude": 1.2444366216659546,
    "latitude": 6.206849575042725,
    "education_level": "Préscolaire",
    "country_iso3_code": "TGO",
    "giga_id_school": "e1e0415f-e687-3a18-af88-840e1ed927b1",
    "school_data_source": null
  },
  {
    "school_name": "JEPL KONOURA",
    "longitude": 1.238034963607788,
    "latitude": 6.174825191497803,
    "education_level": "Préscolaire",
    "country_iso3_code": "TGO",
    "giga_id_school": "c80899e0-a7ae-3a1a-8dde-f03136e9aca4",
    "school_data_source": null
  },
  {
    "school_name": "JEPL CLAVAL ANNEXE",
    "longitude": 1.261872410774231,
    "latitude": 6.202517986297607,
    "education_level": "Préscolaire",
    "country_iso3_code": "TGO",
    "giga_id_school": "0a0190ca-7320-36d0-92f8-1912e18cc139",
    "school_data_source": null
  },
  {
    "school_name": "JEPL NETHANIA",
    "longitude": 1.2447381019592285,
    "latitude": 6.167499542236328,
    "education_level": "Préscolaire",
    "country_iso3_code": "TGO",
    "giga_id_school": "c8d8e9d6-21df-31ee-a01d-297193d61520",
    "school_data_source": null
  },
  {
    "school_name": "JEP KODJOVIAKOPE",
    "longitude": 1.2025883197784424,
    "latitude": 6.117973327636719,
    "education_level": "Préscolaire",
    "country_iso3_code": "TGO",
    "giga_id_school": "456b2f83-9bc7-3e2e-b311-fb1150812aa6",
    "school_data_source": null
  },
  {
    "school_name": "JEP NYEKONAKPOE BODJOLE",
    "longitude": 1.2037750482559204,
    "latitude": 6.12539005279541,
    "education_level": "Préscolaire",
    "country_iso3_code": "TGO",
    "giga_id_school": "1e129756-6033-3a3e-a14d-8d7d3f642ad1",
    "school_data_source": null
  },
  {
    "school_name": "JEP AMOUTIEVE BOULEVARD DE LA PAIX",
    "longitude": 1.2387933731079102,
    "latitude": 6.1510467529296875,
    "education_level": "Préscolaire",
    "country_iso3_code": "TGO",
    "giga_id_school": "27203d6c-01f7-3f8f-92de-c70e7c815a29",
    "school_data_source": null
  },
  {
    "school_name": "JEP AMOUTIEVE CROIX ROUGE SIEGE",
    "longitude": 1.2290617227554321,
    "latitude": 6.138978481292725,
    "education_level": "Préscolaire",
    "country_iso3_code": "TGO",
    "giga_id_school": "27f1014e-8d6e-34b6-9a45-46e86ef4544b",
    "school_data_source": null
  },
  {
    "school_name": "JEP NYEKONAKPOE MAISON POUR TOUS",
    "longitude": 1.2157783508300781,
    "latitude": 6.131433486938477,
    "education_level": "Préscolaire",
    "country_iso3_code": "TGO",
    "giga_id_school": "7315035d-5e3e-35ff-83af-9ddc2807d9e2",
    "school_data_source": null
  },
  {
    "school_name": "JEP AMOUTIEVE-GENDARMERIE",
    "longitude": 1.2245500087738037,
    "latitude": 6.141109943389893,
    "education_level": "Préscolaire",
    "country_iso3_code": "TGO",
    "giga_id_school": "9fa2d7a3-a808-3ca9-8ed0-770c67251f00",
    "school_data_source": null
  },
  {
    "school_name": "JEP BE GBENYEDZIKOPE",
    "longitude": 1.2561066150665283,
    "latitude": 6.145751476287842,
    "education_level": "Préscolaire",
    "country_iso3_code": "TGO",
    "giga_id_school": "a6141eca-7221-3331-986d-36824b8759cf",
    "school_data_source": null
  },
  {
    "school_name": "JEP BE PA DE SOUZA",
    "longitude": 1.2467132806777954,
    "latitude": 6.141149997711182,
    "education_level": "Préscolaire",
    "country_iso3_code": "TGO",
    "giga_id_school": "ee04eed8-ba69-3001-a106-353164271aa0",
    "school_data_source": null
  },
  {
    "school_name": "JEP BENIGLATO",
    "longitude": 1.2345716953277588,
    "latitude": 6.130054950714111,
    "education_level": "Préscolaire",
    "country_iso3_code": "TGO",
    "giga_id_school": "34fc2cbc-dd85-38a9-82da-dd44971b78e4",
    "school_data_source": null
  },
  {
    "school_name": "JEP CROIX-ROUGE KPEHENOU",
    "longitude": 1.2360717058181763,
    "latitude": 6.1350531578063965,
    "education_level": "Préscolaire",
    "country_iso3_code": "TGO",
    "giga_id_school": "13b0ad73-efcf-3e40-aea1-3b0740513d63",
    "school_data_source": null
  },
  {
    "school_name": "JEP MARINA",
    "longitude": 1.2181016206741333,
    "latitude": 6.12314510345459,
    "education_level": "Préscolaire",
    "country_iso3_code": "TGO",
    "giga_id_school": "c27c4c43-467c-3332-a1ba-5e92f84c5c78",
    "school_data_source": null
  },
  {
    "school_name": "JEP PORT",
    "longitude": 1.2724733352661133,
    "latitude": 6.14123010635376,
    "education_level": "Préscolaire",
    "country_iso3_code": "TGO",
    "giga_id_school": "4d73ad94-41d5-3003-b504-ef4afc08d647",
    "school_data_source": null
  },
  {
    "school_name": "JEPI FRANCO-ARABE CGEC",
    "longitude": 1.2352216243743896,
    "latitude": 6.145331859588623,
    "education_level": "Préscolaire",
    "country_iso3_code": "TGO",
    "giga_id_school": "dac7a9ab-c2fc-3ac6-9a6f-327c5aeda5d8",
    "school_data_source": null
  },
  {
    "school_name": "JEPL ALFRED NOBEL",
    "longitude": 1.2349950075149536,
    "latitude": 6.138710021972656,
    "education_level": "Préscolaire",
    "country_iso3_code": "TGO",
    "giga_id_school": "20adcebf-f565-386a-a7ec-53f862c1371f",
    "school_data_source": null
  },
  {
    "school_name": "JEPL SENA G/A",
    "longitude": 1.2620749473571777,
    "latitude": 6.149604797363281,
    "education_level": "Préscolaire",
    "country_iso3_code": "TGO",
    "giga_id_school": "56514d26-dd63-38fa-80eb-411044897a6a",
    "school_data_source": null
  },
  {
    "school_name": "JEPL SENA G/B",
    "longitude": 1.2662583589553833,
    "latitude": 6.150326728820801,
    "education_level": "Préscolaire",
    "country_iso3_code": "TGO",
    "giga_id_school": "53178d95-6ee4-3dc2-a751-b09b0b326efb",
    "school_data_source": null
  },
  {
    "school_name": "JEPL LA PROVIDENCE",
    "longitude": 1.2233400344848633,
    "latitude": 6.132261753082275,
    "education_level": "Préscolaire",
    "country_iso3_code": "TGO",
    "giga_id_school": "c371fea2-68f7-370b-bde1-6dbb3737bd56",
    "school_data_source": null
  },
  {
    "school_name": "JEPL WILLIAM PONTY",
    "longitude": 1.233275055885315,
    "latitude": 6.139016628265381,
    "education_level": "Préscolaire",
    "country_iso3_code": "TGO",
    "giga_id_school": "e6a7d2a2-dc70-3d02-a23c-4260429dffd1",
    "school_data_source": null
  },
  {
    "school_name": "JEPL TIIOL",
    "longitude": 1.2066717147827148,
    "latitude": 6.120578289031982,
    "education_level": "Préscolaire",
    "country_iso3_code": "TGO",
    "giga_id_school": "e056ee88-ccae-3e29-8214-cd2d5e58def5",
    "school_data_source": null
  },
  {
    "school_name": "JEPL MARIE ANTOINETTE",
    "longitude": 1.2100616693496704,
    "latitude": 6.1293768882751465,
    "education_level": "Préscolaire",
    "country_iso3_code": "TGO",
    "giga_id_school": "e765f4af-9ea6-3b1e-80b2-65de0a25295c",
    "school_data_source": null
  },
  {
    "school_name": "JEPL HORIZON 2000",
    "longitude": 1.2020933628082275,
    "latitude": 6.127500057220459,
    "education_level": "Préscolaire",
    "country_iso3_code": "TGO",
    "giga_id_school": "030dc5ea-5d53-3042-a448-2a38408ab664",
    "school_data_source": null
  },
  {
    "school_name": "JEPL MAWUSSI",
    "longitude": 1.2397717237472534,
    "latitude": 6.142091751098633,
    "education_level": "Préscolaire",
    "country_iso3_code": "TGO",
    "giga_id_school": "2d157e37-dca4-3a1f-b04e-c0a6d51b4e18",
    "school_data_source": null
  },
  {
    "school_name": "JEPL AKOFA",
    "longitude": 1.2317683696746826,
    "latitude": 6.137373447418213,
    "education_level": "Préscolaire",
    "country_iso3_code": "TGO",
    "giga_id_school": "569bc78a-e2ee-3a56-abe0-d3139cf369ba",
    "school_data_source": null
  },
  {
    "school_name": "JEPL LE PETIT PRINCE",
    "longitude": 1.2480266094207764,
    "latitude": 6.149038314819336,
    "education_level": "Préscolaire",
    "country_iso3_code": "TGO",
    "giga_id_school": "98c8be83-08fc-31c4-bbe9-e0309b22eabf",
    "school_data_source": null
  },
  {
    "school_name": "JEPL LA RUCHE",
    "longitude": 1.2517516613006592,
    "latitude": 6.13463830947876,
    "education_level": "Préscolaire",
    "country_iso3_code": "TGO",
    "giga_id_school": "3234a66e-306a-3b5f-9da0-8e0586751c1c",
    "school_data_source": null
  },
  {
    "school_name": "JEPL AKUETE-AKUE",
    "longitude": 1.2105766534805298,
    "latitude": 6.121408462524414,
    "education_level": "Préscolaire",
    "country_iso3_code": "TGO",
    "giga_id_school": "c1e61a02-b48e-3f2b-b98d-d994c3f208c1",
    "school_data_source": null
  },
  {
    "school_name": "JEPL LA MEMOIRE",
    "longitude": 1.262565016746521,
    "latitude": 6.144411563873291,
    "education_level": "Préscolaire",
    "country_iso3_code": "TGO",
    "giga_id_school": "fde225e7-5027-3043-a927-eb322f1b12dd",
    "school_data_source": null
  },
  {
    "school_name": "JEPL ST PIERRE",
    "longitude": 1.2553566694259644,
    "latitude": 6.140785217285156,
    "education_level": "Préscolaire",
    "country_iso3_code": "TGO",
    "giga_id_school": "b0d8f001-9d92-3d50-bd46-968852b791da",
    "school_data_source": null
  },
  {
    "school_name": "JEPL MON BONHEUR",
    "longitude": 1.2199633121490479,
    "latitude": 6.137208461761475,
    "education_level": "Préscolaire",
    "country_iso3_code": "TGO",
    "giga_id_school": "208ddfad-bdb6-3de1-ae94-0c91c853285e",
    "school_data_source": null
  },
  {
    "school_name": "JEPL COMPLEXE SCOLAIRE AGATE",
    "longitude": 1.2649550437927246,
    "latitude": 6.151963233947754,
    "education_level": "Préscolaire",
    "country_iso3_code": "TGO",
    "giga_id_school": "a0a16d2e-e08d-31df-b139-1c5c3cb0f459",
    "school_data_source": null
  },
  {
    "school_name": "JE BON BERGER",
    "longitude": 1.2034850120544434,
    "latitude": 6.127806663513184,
    "education_level": "Préscolaire",
    "country_iso3_code": "TGO",
    "giga_id_school": "b2fa4ac7-3097-3184-82d2-55accbe952e0",
    "school_data_source": null
  },
  {
    "school_name": "JEPL JESUS LE MISERICORDIEUX",
    "longitude": 1.2006850242614746,
    "latitude": 6.124488353729248,
    "education_level": "Préscolaire",
    "country_iso3_code": "TGO",
    "giga_id_school": "9304d9d4-a3ce-36bc-a7e0-76dc0fe034ce",
    "school_data_source": null
  },
  {
    "school_name": "JEP BOHN",
    "longitude": 1.2218666076660156,
    "latitude": 6.132206439971924,
    "education_level": "Préscolaire",
    "country_iso3_code": "TGO",
    "giga_id_school": "45aef4d4-55b6-35b1-bdba-de0c1ef05454",
    "school_data_source": null
  },
  {
    "school_name": "JEC CHRIST-ROI KODJOVIAKOPE",
    "longitude": 1.2064249515533447,
    "latitude": 6.120126724243164,
    "education_level": "Préscolaire",
    "country_iso3_code": "TGO",
    "giga_id_school": "df4abad2-1558-30b1-ae13-ea44d10cd2ca",
    "school_data_source": null
  },
  {
    "school_name": "JEC MARIE-REINE DU MONDE DE BE I",
    "longitude": 1.2445850372314453,
    "latitude": 6.139506816864014,
    "education_level": "Préscolaire",
    "country_iso3_code": "TGO",
    "giga_id_school": "a4d56006-784f-3e3f-9691-b7b9b401a313",
    "school_data_source": null
  },
  {
    "school_name": "JEC NOTRE DAME DES APOTRES-BE",
    "longitude": 1.2469233274459839,
    "latitude": 6.135603427886963,
    "education_level": "Préscolaire",
    "country_iso3_code": "TGO",
    "giga_id_school": "e6f83b4b-bb0b-32bf-b325-8dc3dbab32cb",
    "school_data_source": null
  },
  {
    "school_name": "JEC NDA AMOUTIVE",
    "longitude": 1.2263983488082886,
    "latitude": 6.138171672821045,
    "education_level": "Préscolaire",
    "country_iso3_code": "TGO",
    "giga_id_school": "57610b69-7f4b-33e5-91da-d7a48a065305",
    "school_data_source": null
  },
  {
    "school_name": "JEC NDE-PLAGE",
    "longitude": 1.2294516563415527,
    "latitude": 6.127021789550781,
    "education_level": "Préscolaire",
    "country_iso3_code": "TGO",
    "giga_id_school": "cf5e9517-b102-36c7-b4f7-c887610ed288",
    "school_data_source": null
  },
  {
    "school_name": "JEC DE LA CATHEDRALE",
    "longitude": 1.2260032892227173,
    "latitude": 6.124539852142334,
    "education_level": "Préscolaire",
    "country_iso3_code": "TGO",
    "giga_id_school": "5c620722-47c7-3191-a1c2-c24268b7307e",
    "school_data_source": null
  },
  {
    "school_name": "JEC J.M. BE-LAGUNE",
    "longitude": 1.2448517084121704,
    "latitude": 6.1480183601379395,
    "education_level": "Préscolaire",
    "country_iso3_code": "TGO",
    "giga_id_school": "72c11d43-2f9a-306e-87c7-6e9ba475f7f8",
    "school_data_source": null
  },
  {
    "school_name": "JEC KOKETIME",
    "longitude": 1.2238833904266357,
    "latitude": 6.127861499786377,
    "education_level": "Préscolaire",
    "country_iso3_code": "TGO",
    "giga_id_school": "2a7bf82b-9c94-3c93-8c56-a4ea51de3b32",
    "school_data_source": null
  },
  {
    "school_name": "JEC BASSADJI",
    "longitude": 1.2353249788284302,
    "latitude": 6.142943382263184,
    "education_level": "Préscolaire",
    "country_iso3_code": "TGO",
    "giga_id_school": "efb6c304-1269-3f01-8a5a-f8c76858d53b",
    "school_data_source": null
  },
  {
    "school_name": "JEC LA PROVIDENCE",
    "longitude": 1.2068966627120972,
    "latitude": 6.12931489944458,
    "education_level": "Préscolaire",
    "country_iso3_code": "TGO",
    "giga_id_school": "082e41d3-71d2-3cef-8698-1d40bebb9eae",
    "school_data_source": null
  },
  {
    "school_name": "JEC HENRI KWAKUME",
    "longitude": 1.2316383123397827,
    "latitude": 6.1482768058776855,
    "education_level": "Préscolaire",
    "country_iso3_code": "TGO",
    "giga_id_school": "33e87b5e-f2fa-3cfa-8774-7383f1a68f14",
    "school_data_source": null
  },
  {
    "school_name": "JEPL MAGNIFICAT",
    "longitude": 1.226194977760315,
    "latitude": 6.133224964141846,
    "education_level": "Préscolaire",
    "country_iso3_code": "TGO",
    "giga_id_school": "338b52eb-f41b-3cbf-bb80-72944adf8e13",
    "school_data_source": null
  },
  {
    "school_name": "JEPL RUCHE DES ELITES",
    "longitude": 1.236366629600525,
    "latitude": 6.149631500244141,
    "education_level": "Préscolaire",
    "country_iso3_code": "TGO",
    "giga_id_school": "a69f49cb-a243-38f5-b8bb-f7a17b67b8e1",
    "school_data_source": null
  },
  {
    "school_name": "JEPL LA LUMINEUSE",
    "longitude": 1.2351816892623901,
    "latitude": 6.140976428985596,
    "education_level": "Préscolaire",
    "country_iso3_code": "TGO",
    "giga_id_school": "ed5fad03-981a-33ed-8968-f7c8961c3c42",
    "school_data_source": null
  },
  {
    "school_name": "JEE EVANGELIQUE HANOUKOPE",
    "longitude": 1.22128164768219,
    "latitude": 6.137163162231445,
    "education_level": "Préscolaire",
    "country_iso3_code": "TGO",
    "giga_id_school": "dfa562e3-cae4-3c26-90a4-ed64a81c6b72",
    "school_data_source": null
  },
  {
    "school_name": "JEE EVANGELIQUE BE DANGBUIPE",
    "longitude": 1.24038827419281,
    "latitude": 6.14670991897583,
    "education_level": "Préscolaire",
    "country_iso3_code": "TGO",
    "giga_id_school": "8d414c5d-f7d0-35c0-aabf-f119174689a6",
    "school_data_source": null
  },
  {
    "school_name": "JEE EVANGELIQUE BE PA DE SOUZA",
    "longitude": 1.2414933443069458,
    "latitude": 6.135498523712158,
    "education_level": "Préscolaire",
    "country_iso3_code": "TGO",
    "giga_id_school": "49160270-4085-3a46-b324-7f97cb234752",
    "school_data_source": null
  },
  {
    "school_name": "JEE EVANGELIQUE NYEKONAKPOE",
    "longitude": 1.2075183391571045,
    "latitude": 6.126461505889893,
    "education_level": "Préscolaire",
    "country_iso3_code": "TGO",
    "giga_id_school": "569ddf40-cc36-30dd-a55a-4988fd05d2c6",
    "school_data_source": null
  },
  {
    "school_name": "JEE BAPTISTE JESUS SAUVE",
    "longitude": 1.2525999546051025,
    "latitude": 6.1445417404174805,
    "education_level": "Préscolaire",
    "country_iso3_code": "TGO",
    "giga_id_school": "b5017b2e-4706-30ab-8205-0593709b6561",
    "school_data_source": null
  },
  {
    "school_name": "JEE EVANGELIQUE LOM-NAVA",
    "longitude": 1.2324600219726562,
    "latitude": 6.1400065422058105,
    "education_level": "Préscolaire",
    "country_iso3_code": "TGO",
    "giga_id_school": "c69229c8-fe09-32d5-9514-8626d6d4cee7",
    "school_data_source": null
  },
  {
    "school_name": "JEPL BOUBA",
    "longitude": 1.2460750341415405,
    "latitude": 6.132831573486328,
    "education_level": "Préscolaire",
    "country_iso3_code": "TGO",
    "giga_id_school": "3e18efd2-0395-3628-afed-ee9924106277",
    "school_data_source": null
  },
  {
    "school_name": "JEPL MONDE UNIVERSEL",
    "longitude": 1.2490350008010864,
    "latitude": 6.1381049156188965,
    "education_level": "Préscolaire",
    "country_iso3_code": "TGO",
    "giga_id_school": "dac96133-00f9-322a-8891-1f1e25494606",
    "school_data_source": null
  },
  {
    "school_name": "JEC IMMACULEE CONCEPTION NYEKONAKPOE",
    "longitude": 1.2062283754348755,
    "latitude": 6.130683422088623,
    "education_level": "Préscolaire",
    "country_iso3_code": "TGO",
    "giga_id_school": "d887aa47-fda3-3649-a65d-4a1f6c62ea5e",
    "school_data_source": null
  },
  {
    "school_name": "JEPL SOURCE DU SAVOIR",
    "longitude": 1.2085100412368774,
    "latitude": 6.122469902038574,
    "education_level": "Préscolaire",
    "country_iso3_code": "TGO",
    "giga_id_school": "e5ac6c0f-470a-383f-8a69-db8c49103086",
    "school_data_source": null
  },
  {
    "school_name": "JEPL ASSIOBO-TIPOH",
    "longitude": 1.2327866554260254,
    "latitude": 6.143968105316162,
    "education_level": "Préscolaire",
    "country_iso3_code": "TGO",
    "giga_id_school": "972b7f07-860c-3ba6-9709-b3251ab1812e",
    "school_data_source": null
  },
  {
    "school_name": "JEPL Y VEILLERA",
    "longitude": 1.2021716833114624,
    "latitude": 6.122598171234131,
    "education_level": "Préscolaire",
    "country_iso3_code": "TGO",
    "giga_id_school": "7d48a328-f4fd-3490-bb46-e4b0935cd52c",
    "school_data_source": null
  },
  {
    "school_name": "JEPL AVENIR DOGBE T. EFOE",
    "longitude": 1.2380499839782715,
    "latitude": 6.130418300628662,
    "education_level": "Préscolaire",
    "country_iso3_code": "TGO",
    "giga_id_school": "dacaf0f2-7dcb-3085-9f86-907a1de7c64f",
    "school_data_source": null
  },
  {
    "school_name": "JEPL VILLAGE PLANETAIRE",
    "longitude": 1.237534999847412,
    "latitude": 6.140574932098389,
    "education_level": "Préscolaire",
    "country_iso3_code": "TGO",
    "giga_id_school": "c77bdd80-905e-3f00-b72d-19877ba0bc69",
    "school_data_source": null
  },
  {
    "school_name": "JEC HANOUKOPE G/A",
    "longitude": 1.2160732746124268,
    "latitude": 6.136585235595703,
    "education_level": "Préscolaire",
    "country_iso3_code": "TGO",
    "giga_id_school": "e7e4bf63-9888-3ae4-8d0f-6b2a5da6f6b8",
    "school_data_source": null
  },
  {
    "school_name": "JEC SAINTE MONIQUE DE DOULASSAME",
    "longitude": 1.226623296737671,
    "latitude": 6.140985012054443,
    "education_level": "Préscolaire",
    "country_iso3_code": "TGO",
    "giga_id_school": "5973650f-483a-3839-ae54-5a6f20368318",
    "school_data_source": null
  },
  {
    "school_name": "JEC MARIE AUXILIATRICE D'ABLOGAME",
    "longitude": 1.2618000507354736,
    "latitude": 6.13834810256958,
    "education_level": "Préscolaire",
    "country_iso3_code": "TGO",
    "giga_id_school": "7e46190b-775e-3720-9e9b-dae09500f0e8",
    "school_data_source": null
  },
  {
    "school_name": "JEE ABLOGAME",
    "longitude": 1.2578150033950806,
    "latitude": 6.139093399047852,
    "education_level": "Préscolaire",
    "country_iso3_code": "TGO",
    "giga_id_school": "49a8798a-dfe5-39e8-9372-b72e726c216a",
    "school_data_source": null
  },
  {
    "school_name": "JEE CEMIRT",
    "longitude": 1.255571722984314,
    "latitude": 6.155320167541504,
    "education_level": "Préscolaire",
    "country_iso3_code": "TGO",
    "giga_id_school": "a8e37e90-e926-313d-b643-98b51d40e934",
    "school_data_source": null
  },
  {
    "school_name": "JEPL BG POUSSINETS",
    "longitude": 1.2554116249084473,
    "latitude": 6.147493362426758,
    "education_level": "Préscolaire",
    "country_iso3_code": "TGO",
    "giga_id_school": "79c95abf-c3e5-3ccb-8bf4-844a8bed2cbb",
    "school_data_source": null
  },
  {
    "school_name": "JEPL INSTITUT JOSEPHINE DONO BAKHITA",
    "longitude": 1.2074683904647827,
    "latitude": 6.134148120880127,
    "education_level": "Préscolaire",
    "country_iso3_code": "TGO",
    "giga_id_school": "5014f55c-30b5-3380-b1f1-48062e4af80c",
    "school_data_source": null
  },
  {
    "school_name": "JEPL ALLIANCE",
    "longitude": 1.2040916681289673,
    "latitude": 6.1236114501953125,
    "education_level": "Préscolaire",
    "country_iso3_code": "TGO",
    "giga_id_school": "1fd4b0e5-6875-3087-a4d0-83d41907cb83",
    "school_data_source": null
  },
  {
    "school_name": "JEPL LE ROIG G/A",
    "longitude": 1.2443116903305054,
    "latitude": 6.1380133628845215,
    "education_level": "Préscolaire",
    "country_iso3_code": "TGO",
    "giga_id_school": "76f378f7-a401-3e4d-9ff1-3f60c4f1e723",
    "school_data_source": null
  },
  {
    "school_name": "JEPL LE CICERON",
    "longitude": 1.2564632892608643,
    "latitude": 6.146336555480957,
    "education_level": "Préscolaire",
    "country_iso3_code": "TGO",
    "giga_id_school": "d192be0c-9c00-302f-b6fe-eee65502b4c8",
    "school_data_source": null
  },
  {
    "school_name": "JEPL SAINTE CAROLLE",
    "longitude": 1.2497283220291138,
    "latitude": 6.155438423156738,
    "education_level": "Préscolaire",
    "country_iso3_code": "TGO",
    "giga_id_school": "b36c3484-e998-39c2-9960-f41cc5405628",
    "school_data_source": null
  },
  {
    "school_name": "JEPL ITEM",
    "longitude": 1.252163290977478,
    "latitude": 6.148406505584717,
    "education_level": "Préscolaire",
    "country_iso3_code": "TGO",
    "giga_id_school": "621a404c-9079-3622-8e58-50cde9d7e965",
    "school_data_source": null
  },
  {
    "school_name": "JEC LA PROVIDENCE I",
    "longitude": 1.206946611404419,
    "latitude": 6.1292901039123535,
    "education_level": "Préscolaire",
    "country_iso3_code": "TGO",
    "giga_id_school": "314cc8a1-224a-3382-916d-24e096c7ed4f",
    "school_data_source": null
  },
  {
    "school_name": "JEPL LE LIAHONA",
    "longitude": 1.25211501121521,
    "latitude": 6.154286861419678,
    "education_level": "Préscolaire",
    "country_iso3_code": "TGO",
    "giga_id_school": "5f4c71d9-aab4-3ba4-91fc-ea8230711813",
    "school_data_source": null
  },
  {
    "school_name": "JEE MISSION EVANGELIQUE DE LA FOI",
    "longitude": 1.2591500282287598,
    "latitude": 6.153253555297852,
    "education_level": "Préscolaire",
    "country_iso3_code": "TGO",
    "giga_id_school": "01deec45-a7e3-38bf-b60b-be93db47499e",
    "school_data_source": null
  },
  {
    "school_name": "JEE METHODISTE BE PA DE SOUZA",
    "longitude": 1.2436699867248535,
    "latitude": 6.14050817489624,
    "education_level": "Préscolaire",
    "country_iso3_code": "TGO",
    "giga_id_school": "f7d75d04-a490-34f2-bb0f-047f7bedd0a0",
    "school_data_source": null
  },
  {
    "school_name": "JEC HANOUKOPE G/B",
    "longitude": 1.2167683839797974,
    "latitude": 6.1365065574646,
    "education_level": "Préscolaire",
    "country_iso3_code": "TGO",
    "giga_id_school": "cc00d9e2-c154-3a9f-973a-ea047181842e",
    "school_data_source": null
  },
  {
    "school_name": "JEC SAINT AUGUSTIN AMOUTIVE",
    "longitude": 1.2294416427612305,
    "latitude": 6.135073184967041,
    "education_level": "Préscolaire",
    "country_iso3_code": "TGO",
    "giga_id_school": "77b331fd-d7ef-3849-b3a6-8993a13850b9",
    "school_data_source": null
  },
  {
    "school_name": "JEPL ELEVE RACHETE DE DIEU",
    "longitude": 1.2250200510025024,
    "latitude": 6.142350196838379,
    "education_level": "Préscolaire",
    "country_iso3_code": "TGO",
    "giga_id_school": "8c0d8332-b75f-35eb-8bfe-27a6a4c74e2c",
    "school_data_source": null
  },
  {
    "school_name": "JEP ASSAHOUN G/A",
    "longitude": 0.9093329906463623,
    "latitude": 6.452308177947998,
    "education_level": "Préscolaire",
    "country_iso3_code": "TGO",
    "giga_id_school": "8b28e54f-17f1-348a-9e7f-9f0abf1fa1bd",
    "school_data_source": null
  },
  {
    "school_name": "JEP KEVE",
    "longitude": 0.9311990141868591,
    "latitude": 6.428740978240967,
    "education_level": "Préscolaire",
    "country_iso3_code": "TGO",
    "giga_id_school": "a75dba79-bc49-375c-a2bc-aea11e5228ad",
    "school_data_source": null
  },
  {
    "school_name": "JEP NOEPE",
    "longitude": 1.0410850048065186,
    "latitude": 6.255008220672607,
    "education_level": "Préscolaire",
    "country_iso3_code": "TGO",
    "giga_id_school": "d8862aac-57bc-3239-90fc-5957224f2f1a",
    "school_data_source": null
  },
  {
    "school_name": "JEC MARIE REINE ASSAHOUN",
    "longitude": 0.9147599935531616,
    "latitude": 6.455328941345215,
    "education_level": "Préscolaire",
    "country_iso3_code": "TGO",
    "giga_id_school": "8935ec43-653f-3c39-a163-eebfb915a203",
    "school_data_source": null
  },
  {
    "school_name": "JEC NDA ASSAHOUN",
    "longitude": 0.9120810031890869,
    "latitude": 6.453498840332031,
    "education_level": "Préscolaire",
    "country_iso3_code": "TGO",
    "giga_id_school": "17673b5c-a8c4-316b-aae9-1f62801654f2",
    "school_data_source": null
  },
  {
    "school_name": "JEC KEVE",
    "longitude": 0.9234709739685059,
    "latitude": 6.433880805969238,
    "education_level": "Préscolaire",
    "country_iso3_code": "TGO",
    "giga_id_school": "cafd3d7c-474e-3e25-b313-3a6a823fa694",
    "school_data_source": null
  },
  {
    "school_name": "JEC SAINT JOSEPH D'ANYRON",
    "longitude": 0.9825459122657776,
    "latitude": 6.514615535736084,
    "education_level": "Préscolaire",
    "country_iso3_code": "TGO",
    "giga_id_school": "b18553d7-8ff4-37f7-a08b-7e19043a954d",
    "school_data_source": null
  },
  {
    "school_name": "JEC AKEPE",
    "longitude": 1.0599470138549805,
    "latitude": 6.240899085998535,
    "education_level": "Préscolaire",
    "country_iso3_code": "TGO",
    "giga_id_school": "3b1df771-3fc3-3c12-8063-d79d0ea37062",
    "school_data_source": null
  },
  {
    "school_name": "JEE EVANGELIQUE ASSAHOUN",
    "longitude": 0.9091950058937073,
    "latitude": 6.45579719543457,
    "education_level": "Préscolaire",
    "country_iso3_code": "TGO",
    "giga_id_school": "43534061-b2cf-3573-8b1e-84e23c91f009",
    "school_data_source": null
  },
  {
    "school_name": "JEE NOEPE",
    "longitude": 1.0368939638137817,
    "latitude": 6.262010097503662,
    "education_level": "Préscolaire",
    "country_iso3_code": "TGO",
    "giga_id_school": "ee5aad84-d0b8-31bb-bfe1-d16724f18381",
    "school_data_source": null
  },
  {
    "school_name": "JEE DZOLO",
    "longitude": 0.8896070122718811,
    "latitude": 6.375226974487305,
    "education_level": "Préscolaire",
    "country_iso3_code": "TGO",
    "giga_id_school": "caa64e7b-8061-3468-9353-663bf00d3bc6",
    "school_data_source": null
  },
  {
    "school_name": "JEP YOMETCHIN",
    "longitude": 1.0086740255355835,
    "latitude": 6.481677055358887,
    "education_level": "Préscolaire",
    "country_iso3_code": "TGO",
    "giga_id_school": "e04a7648-de6c-35e2-bc75-a1e9b5106786",
    "school_data_source": null
  },
  {
    "school_name": "JEP AKEPE",
    "longitude": 1.0550520420074463,
    "latitude": 6.245512008666992,
    "education_level": "Préscolaire",
    "country_iso3_code": "TGO",
    "giga_id_school": "727f1b61-0519-36a4-81e6-3cb6c946b1c8",
    "school_data_source": null
  },
  {
    "school_name": "JEP TOVEGAN",
    "longitude": 0.8901659846305847,
    "latitude": 6.563531875610352,
    "education_level": "Préscolaire",
    "country_iso3_code": "TGO",
    "giga_id_school": "367139be-e744-340d-8d0a-07b6431dbe23",
    "school_data_source": null
  },
  {
    "school_name": "JEP ASSAHOUN G/B",
    "longitude": 0.9196069836616516,
    "latitude": 6.454730033874512,
    "education_level": "Préscolaire",
    "country_iso3_code": "TGO",
    "giga_id_school": "b6493705-3cd9-3d83-af0d-91b72a8f214e",
    "school_data_source": null
  },
  {
    "school_name": "JEP AGBESSIA",
    "longitude": 0.9172809720039368,
    "latitude": 6.570291996002197,
    "education_level": "Préscolaire",
    "country_iso3_code": "TGO",
    "giga_id_school": "eda338b3-8d94-3c14-976e-981a54a57803",
    "school_data_source": null
  },
  {
    "school_name": "JEP DZOLO G/A",
    "longitude": 0.8901360034942627,
    "latitude": 6.374421119689941,
    "education_level": "Préscolaire",
    "country_iso3_code": "TGO",
    "giga_id_school": "2862f14f-6a86-352c-af9c-b27d6fc68c7e",
    "school_data_source": null
  },
  {
    "school_name": "JEP APEYEME",
    "longitude": 0.9218990206718445,
    "latitude": 6.441082000732422,
    "education_level": "Préscolaire",
    "country_iso3_code": "TGO",
    "giga_id_school": "198c456b-3a36-3d35-91cc-983f18179864",
    "school_data_source": null
  },
  {
    "school_name": "JEP YOTO",
    "longitude": 0.8554638028144836,
    "latitude": 6.473659515380859,
    "education_level": "Préscolaire",
    "country_iso3_code": "TGO",
    "giga_id_school": "c8ea2ba8-4570-3166-9938-10e1a2e6ba8c",
    "school_data_source": null
  },
  {
    "school_name": "JEP ASSAHOUN G/C",
    "longitude": 0.9050631523132324,
    "latitude": 6.460097312927246,
    "education_level": "Préscolaire",
    "country_iso3_code": "TGO",
    "giga_id_school": "72c854df-a7f3-37f8-8977-140e0d52f783",
    "school_data_source": null
  },
  {
    "school_name": "JEP ATTIDJIN",
    "longitude": 1.1008189916610718,
    "latitude": 6.240384578704834,
    "education_level": "Préscolaire",
    "country_iso3_code": "TGO",
    "giga_id_school": "a9fa460a-8d22-39f4-aa37-a0ee02c90ed1",
    "school_data_source": null
  },
  {
    "school_name": "JEC SAINTS ANGES/IC NOEPE",
    "longitude": 1.0376919507980347,
    "latitude": 6.263506889343262,
    "education_level": "Préscolaire",
    "country_iso3_code": "TGO",
    "giga_id_school": "a27e4e80-12cc-3e77-a9be-560694f9da48",
    "school_data_source": null
  },
  {
    "school_name": "JEDIL DZOLO G/B",
    "longitude": 0.892575204372406,
    "latitude": 6.38062047958374,
    "education_level": "Préscolaire",
    "country_iso3_code": "TGO",
    "giga_id_school": "34cea242-8495-3262-847a-a77b9a2b3936",
    "school_data_source": null
  },
  {
    "school_name": "JEDIL ZOGBEPIME",
    "longitude": 0.9805693030357361,
    "latitude": 6.445727825164795,
    "education_level": "Préscolaire",
    "country_iso3_code": "TGO",
    "giga_id_school": "356e2ea3-0d83-3f6c-8107-43b35af84c53",
    "school_data_source": null
  },
  {
    "school_name": "JEDIL VODOME",
    "longitude": 0.9253538846969604,
    "latitude": 6.353404521942139,
    "education_level": "Préscolaire",
    "country_iso3_code": "TGO",
    "giga_id_school": "8b228988-6346-3590-be0e-f37b1025dfcc",
    "school_data_source": null
  },
  {
    "school_name": "JEDIL MAKUMAVO",
    "longitude": 0.9405692219734192,
    "latitude": 6.65590763092041,
    "education_level": "Préscolaire",
    "country_iso3_code": "TGO",
    "giga_id_school": "52563190-69cc-3de8-9938-d32f1573c549",
    "school_data_source": null
  },
  {
    "school_name": "JEDIL KOUDASSI-GARE",
    "longitude": 0.8679627180099487,
    "latitude": 6.622243881225586,
    "education_level": "Préscolaire",
    "country_iso3_code": "TGO",
    "giga_id_school": "2fc59c1a-1b74-3f76-8a49-cd353c3dfef1",
    "school_data_source": null
  },
  {
    "school_name": "JEDIL HEKPE",
    "longitude": 0.921515166759491,
    "latitude": 6.620372295379639,
    "education_level": "Préscolaire",
    "country_iso3_code": "TGO",
    "giga_id_school": "032ba7ad-cf65-3221-877e-da83963171e9",
    "school_data_source": null
  },
  {
    "school_name": "JEDIL DZEGBAKONDJI",
    "longitude": 0.8721048831939697,
    "latitude": 6.4702677726745605,
    "education_level": "Préscolaire",
    "country_iso3_code": "TGO",
    "giga_id_school": "aa0523d8-4621-3803-bc72-2cea4dd0d3b0",
    "school_data_source": null
  },
  {
    "school_name": "JEDIL BAGBE-ROUTE",
    "longitude": 0.9999061822891235,
    "latitude": 6.339414596557617,
    "education_level": "Préscolaire",
    "country_iso3_code": "TGO",
    "giga_id_school": "d74240ae-2ef2-3563-80a6-275dce50a847",
    "school_data_source": null
  },
  {
    "school_name": "JEDIL BAGBE-KPEDZI",
    "longitude": 1.0175257921218872,
    "latitude": 6.328573703765869,
    "education_level": "Préscolaire",
    "country_iso3_code": "TGO",
    "giga_id_school": "73f579ec-b371-3998-81c8-2df987d6c0b5",
    "school_data_source": null
  },
  {
    "school_name": "JEDIL BADJA",
    "longitude": 0.9878261089324951,
    "latitude": 6.377377033233643,
    "education_level": "Préscolaire",
    "country_iso3_code": "TGO",
    "giga_id_school": "e340d3ee-a371-3e47-aa14-362874477276",
    "school_data_source": null
  },
  {
    "school_name": "JEDIL ATTI-TOUWUI",
    "longitude": 0.8926644325256348,
    "latitude": 6.518345832824707,
    "education_level": "Préscolaire",
    "country_iso3_code": "TGO",
    "giga_id_school": "927b77ef-cad8-3eda-a484-0ce5bbd8e610",
    "school_data_source": null
  },
  {
    "school_name": "JEDIL ALAWOGBE",
    "longitude": 0.8805363774299622,
    "latitude": 6.378242015838623,
    "education_level": "Préscolaire",
    "country_iso3_code": "TGO",
    "giga_id_school": "d4864832-a40e-30c9-a3ad-f6fbdbae0bf6",
    "school_data_source": null
  },
  {
    "school_name": "JEDIL AGOTIME-BATOUME",
    "longitude": 0.7568401098251343,
    "latitude": 6.475525379180908,
    "education_level": "Préscolaire",
    "country_iso3_code": "TGO",
    "giga_id_school": "4d5131e3-379a-3813-881a-de51bf641677",
    "school_data_source": null
  },
  {
    "school_name": "JEDIL AGBOZOME",
    "longitude": 0.9964276552200317,
    "latitude": 6.469417095184326,
    "education_level": "Préscolaire",
    "country_iso3_code": "TGO",
    "giga_id_school": "a3f587c7-0cf0-3369-a0b5-17ddcd5b09f3",
    "school_data_source": null
  },
  {
    "school_name": "JEDIL ASSAHOUN G/F",
    "longitude": 0.9132630825042725,
    "latitude": 6.459496974945068,
    "education_level": "Préscolaire",
    "country_iso3_code": "TGO",
    "giga_id_school": "79e40764-2959-3330-a636-c8133c71e1fd",
    "school_data_source": null
  },
  {
    "school_name": "JEDIL YOKOUTIKPOTA",
    "longitude": 0.7790340185165405,
    "latitude": 6.477236270904541,
    "education_level": "Préscolaire",
    "country_iso3_code": "TGO",
    "giga_id_school": "cd9558bb-064b-3b6b-8cf8-dfeaf6e53bf7",
    "school_data_source": null
  },
  {
    "school_name": "JEDIL AGBADZANAKIN",
    "longitude": 0.8252468109130859,
    "latitude": 6.482113361358643,
    "education_level": "Préscolaire",
    "country_iso3_code": "TGO",
    "giga_id_school": "d5fd880d-e75c-342b-8407-744e4bf532e3",
    "school_data_source": null
  },
  {
    "school_name": "JEDIL ANDO-KPEGBE",
    "longitude": 0.8175103068351746,
    "latitude": 6.448372840881348,
    "education_level": "Préscolaire",
    "country_iso3_code": "TGO",
    "giga_id_school": "cd805904-ef7e-3add-af46-402ad4ef9da3",
    "school_data_source": null
  },
  {
    "school_name": "JEDIL ASSIAMAGBLE",
    "longitude": 1.067171573638916,
    "latitude": 6.268006801605225,
    "education_level": "Préscolaire",
    "country_iso3_code": "TGO",
    "giga_id_school": "23c945b0-72de-3224-ae0f-77f075d0198e",
    "school_data_source": null
  },
  {
    "school_name": "JEL GOD'S GLORY INTERNATIONAL",
    "longitude": 1.096156120300293,
    "latitude": 6.239251136779785,
    "education_level": "Préscolaire",
    "country_iso3_code": "TGO",
    "giga_id_school": "784a3dcd-e1a4-3814-8bb4-c92538155aa0",
    "school_data_source": null
  },
  {
    "school_name": "JEDIL FOGUEGUE",
    "longitude": 0.890131950378418,
    "latitude": 6.602745532989502,
    "education_level": "Préscolaire",
    "country_iso3_code": "TGO",
    "giga_id_school": "009a5f8b-65c6-3b16-ab26-4b74221ed132",
    "school_data_source": null
  },
  {
    "school_name": "JEDIL YOPE",
    "longitude": 0.9196515083312988,
    "latitude": 6.415572643280029,
    "education_level": "Préscolaire",
    "country_iso3_code": "TGO",
    "giga_id_school": "e6124793-9cda-3402-bf10-b86655ebfff4",
    "school_data_source": null
  },
  {
    "school_name": "JEDIL AGNRON",
    "longitude": 0.9846382737159729,
    "latitude": 6.5143890380859375,
    "education_level": "Préscolaire",
    "country_iso3_code": "TGO",
    "giga_id_school": "670e7a19-45f2-3f7f-bd08-0db06ecbb42b",
    "school_data_source": null
  },
  {
    "school_name": "JEDIL EDZI",
    "longitude": 0.8716862797737122,
    "latitude": 6.383103370666504,
    "education_level": "Préscolaire",
    "country_iso3_code": "TGO",
    "giga_id_school": "6e889133-e6a2-3bb4-9130-42c8c663a45f",
    "school_data_source": null
  },
  {
    "school_name": "JEDIL AKATI KOPE",
    "longitude": 0.8446610569953918,
    "latitude": 6.4325666427612305,
    "education_level": "Préscolaire",
    "country_iso3_code": "TGO",
    "giga_id_school": "c8f8af50-f3dd-3787-a4cd-4b091ea70d05",
    "school_data_source": null
  },
  {
    "school_name": "JEDIL ADEKPUI",
    "longitude": 0.8119828701019287,
    "latitude": 6.48630428314209,
    "education_level": "Préscolaire",
    "country_iso3_code": "TGO",
    "giga_id_school": "d66c706e-d52f-3250-a772-367bcfe65eba",
    "school_data_source": null
  },
  {
    "school_name": "JEDIL ASSAHOUN G/B2",
    "longitude": 0.9164432287216187,
    "latitude": 6.459122657775879,
    "education_level": "Préscolaire",
    "country_iso3_code": "TGO",
    "giga_id_school": "bd07456a-fb66-346c-b078-e74853e1251b",
    "school_data_source": null
  },
  {
    "school_name": "JEDIL ATTI ATOVOU",
    "longitude": 0.8644728064537048,
    "latitude": 6.55120849609375,
    "education_level": "Préscolaire",
    "country_iso3_code": "TGO",
    "giga_id_school": "153a25e7-3cc4-38c3-8897-65933c1fc0d9",
    "school_data_source": null
  },
  {
    "school_name": "JEDIL BAKA KOPE",
    "longitude": 0.8947330117225647,
    "latitude": 6.6559553146362305,
    "education_level": "Préscolaire",
    "country_iso3_code": "TGO",
    "giga_id_school": "49957048-7e5f-3e82-b0bf-79f52c40cce9",
    "school_data_source": null
  },
  {
    "school_name": "JEDIL YIDAVE",
    "longitude": 1.0799006223678589,
    "latitude": 6.201432228088379,
    "education_level": "Préscolaire",
    "country_iso3_code": "TGO",
    "giga_id_school": "2fc2b520-ba39-3b97-b923-76f210c4a598",
    "school_data_source": null
  },
  {
    "school_name": "JEE TSIVIEPE",
    "longitude": 0.9172170162200928,
    "latitude": 6.411203384399414,
    "education_level": "Préscolaire",
    "country_iso3_code": "TGO",
    "giga_id_school": "13ded44e-e0fc-3280-b659-5d77c21a83a3",
    "school_data_source": null
  },
  {
    "school_name": "JEC TOVEGAN",
    "longitude": 0.8969060778617859,
    "latitude": 6.571361541748047,
    "education_level": "Préscolaire",
    "country_iso3_code": "TGO",
    "giga_id_school": "774af100-35fb-34f3-a316-a6ab11236709",
    "school_data_source": null
  },
  {
    "school_name": "JEE METHODISTE KEVE",
    "longitude": 0.9338179230690002,
    "latitude": 6.42406702041626,
    "education_level": "Préscolaire",
    "country_iso3_code": "TGO",
    "giga_id_school": "10e2164d-b588-39a7-bbef-7f6dd14a7fc2",
    "school_data_source": null
  },
  {
    "school_name": "JEP ADABADJI",
    "longitude": 1.6140179634094238,
    "latitude": 6.485617160797119,
    "education_level": "Préscolaire",
    "country_iso3_code": "TGO",
    "giga_id_school": "114787f4-1a29-3277-8bf6-ff93ae072b17",
    "school_data_source": null
  },
  {
    "school_name": "JEP ATTITOGON G/A",
    "longitude": 1.6612733602523804,
    "latitude": 6.416451454162598,
    "education_level": "Préscolaire",
    "country_iso3_code": "TGO",
    "giga_id_school": "7dd6b05d-a8ca-314f-a5e3-dea1f3b18c32",
    "school_data_source": null
  },
  {
    "school_name": "JEP DEVEME",
    "longitude": 1.6212170124053955,
    "latitude": 6.480745792388916,
    "education_level": "Préscolaire",
    "country_iso3_code": "TGO",
    "giga_id_school": "483c1f83-8699-3c2f-95b4-eecbf7619d58",
    "school_data_source": null
  },
  {
    "school_name": "JEP HOMPOU",
    "longitude": 1.6996220350265503,
    "latitude": 6.43303108215332,
    "education_level": "Préscolaire",
    "country_iso3_code": "TGO",
    "giga_id_school": "0952e0a3-bdc3-39bd-909b-b214db457b83",
    "school_data_source": null
  },
  {
    "school_name": "JEP WEME",
    "longitude": 1.6110880374908447,
    "latitude": 6.514169216156006,
    "education_level": "Préscolaire",
    "country_iso3_code": "TGO",
    "giga_id_school": "43167f54-3b23-3db4-91bc-16c16df7ff08",
    "school_data_source": null
  },
  {
    "school_name": "JEDIL ADEHO",
    "longitude": 1.6211199760437012,
    "latitude": 6.419000148773193,
    "education_level": "Préscolaire",
    "country_iso3_code": "TGO",
    "giga_id_school": "55d4a13f-973e-35a5-bde8-6f60148bd471",
    "school_data_source": null
  },
  {
    "school_name": "JEDIL AGOME GLOZOU",
    "longitude": 1.664816975593567,
    "latitude": 6.553047180175781,
    "education_level": "Préscolaire",
    "country_iso3_code": "TGO",
    "giga_id_school": "5d060e29-4942-343e-b2f4-59a74be238b1",
    "school_data_source": null
  },
  {
    "school_name": "JEDIL AGOME SEVA",
    "longitude": 1.739601969718933,
    "latitude": 6.472305774688721,
    "education_level": "Préscolaire",
    "country_iso3_code": "TGO",
    "giga_id_school": "037bd503-8692-3bab-8d9a-4aa4be29cb23",
    "school_data_source": null
  },
  {
    "school_name": "JEDIL ATTITOGON G/B",
    "longitude": 1.6591249704360962,
    "latitude": 6.418091773986816,
    "education_level": "Préscolaire",
    "country_iso3_code": "TGO",
    "giga_id_school": "6282d689-b2c8-3798-b0b5-421d79ab4cd0",
    "school_data_source": null
  },
  {
    "school_name": "JEDIL MAWOUSSI",
    "longitude": 1.6413700580596924,
    "latitude": 6.397809982299805,
    "education_level": "Préscolaire",
    "country_iso3_code": "TGO",
    "giga_id_school": "594f9ef5-c3b9-37c2-9bb1-5d3a2869e793",
    "school_data_source": null
  },
  {
    "school_name": "JEDIL MOME GBAVE",
    "longitude": 1.5832833051681519,
    "latitude": 6.454549789428711,
    "education_level": "Préscolaire",
    "country_iso3_code": "TGO",
    "giga_id_school": "0e7a8ccc-dc2b-3d0d-86ae-c5511a01c327",
    "school_data_source": null
  },
  {
    "school_name": "JEC KPESSOU",
    "longitude": 1.5821499824523926,
    "latitude": 6.526689052581787,
    "education_level": "Préscolaire",
    "country_iso3_code": "TGO",
    "giga_id_school": "809a35ea-8989-38e5-877e-49e3811d6f84",
    "school_data_source": null
  },
  {
    "school_name": "JEM ATTITOGON",
    "longitude": 1.6638166904449463,
    "latitude": 6.4157915115356445,
    "education_level": "Préscolaire",
    "country_iso3_code": "TGO",
    "giga_id_school": "f1007eb9-6b96-3b54-9d79-7e4f212a855a",
    "school_data_source": null
  },
  {
    "school_name": "JEDIL AWAVE",
    "longitude": 1.6506683826446533,
    "latitude": 6.432556629180908,
    "education_level": "Préscolaire",
    "country_iso3_code": "TGO",
    "giga_id_school": "21622020-d2cf-3a9f-9bd7-5494b65a51e0",
    "school_data_source": null
  },
  {
    "school_name": "JEDIL AFAGNAGAN",
    "longitude": 1.6377450227737427,
    "latitude": 6.4935150146484375,
    "education_level": "Préscolaire",
    "country_iso3_code": "TGO",
    "giga_id_school": "1c07e8d1-abb6-3152-b812-eba0fdd6c83f",
    "school_data_source": null
  },
  {
    "school_name": "JEDIL ATTITOGON G/C",
    "longitude": 1.6661570072174072,
    "latitude": 6.42399787902832,
    "education_level": "Préscolaire",
    "country_iso3_code": "TGO",
    "giga_id_school": "795b32f3-1cc7-3890-96b1-7375b1d4ccc0",
    "school_data_source": null
  },
  {
    "school_name": "JEC MADRE MATILDE PASCAL",
    "longitude": 1.621595025062561,
    "latitude": 6.498183250427246,
    "education_level": "Préscolaire",
    "country_iso3_code": "TGO",
    "giga_id_school": "02709580-5774-309b-bbe4-f0fe0379d412",
    "school_data_source": null
  },
  {
    "school_name": "JEDIL TOULASSI",
    "longitude": 1.6688467264175415,
    "latitude": 6.4044718742370605,
    "education_level": "Préscolaire",
    "country_iso3_code": "TGO",
    "giga_id_school": "f4490c98-3b50-3795-91c2-8707982e58c7",
    "school_data_source": null
  },
  {
    "school_name": "JEDIL FUSESE",
    "longitude": 1.6428567171096802,
    "latitude": 6.485626697540283,
    "education_level": "Préscolaire",
    "country_iso3_code": "TGO",
    "giga_id_school": "bb6dd952-14c8-35ba-b4cb-228bab453609",
    "school_data_source": null
  },
  {
    "school_name": "JEE A/D ATTITOGON",
    "longitude": 1.6635550260543823,
    "latitude": 6.414004802703857,
    "education_level": "Préscolaire",
    "country_iso3_code": "TGO",
    "giga_id_school": "d10ad113-828d-32f7-82b1-a38ea40c28b1",
    "school_data_source": null
  },
  {
    "school_name": "JEL LE RENOUVEAU CLASSIQUE",
    "longitude": 1.6275500059127808,
    "latitude": 6.49536657333374,
    "education_level": "Préscolaire",
    "country_iso3_code": "TGO",
    "giga_id_school": "ce7fa40a-c725-3a1a-96b9-c7a888b6b442",
    "school_data_source": null
  },
  {
    "school_name": "JEL LE GUIDE",
    "longitude": 1.6287659406661987,
    "latitude": 6.4958600997924805,
    "education_level": "Préscolaire",
    "country_iso3_code": "TGO",
    "giga_id_school": "57e0e2c6-c5ff-3852-b37a-d4b5e40c7721",
    "school_data_source": null
  },
  {
    "school_name": "JEP AGBANAKIN",
    "longitude": 1.800784945487976,
    "latitude": 6.289348125457764,
    "education_level": "Préscolaire",
    "country_iso3_code": "TGO",
    "giga_id_school": "f86abc9d-ef5f-3da2-bf73-08099e6fff02",
    "school_data_source": null
  },
  {
    "school_name": "JEP AGOUEGAN",
    "longitude": 1.6830739974975586,
    "latitude": 6.260429859161377,
    "education_level": "Préscolaire",
    "country_iso3_code": "TGO",
    "giga_id_school": "8a0960fe-eb98-3fa6-beba-1cfeb026e600",
    "school_data_source": null
  },
  {
    "school_name": "JEP CENTRAL AKLAKOU",
    "longitude": 1.7105950117111206,
    "latitude": 6.335639953613281,
    "education_level": "Préscolaire",
    "country_iso3_code": "TGO",
    "giga_id_school": "4492bdd0-2905-34bd-bd0e-0599c3e5f6e6",
    "school_data_source": null
  },
  {
    "school_name": "JEP ATTISSO CONDJI",
    "longitude": 1.6664990186691284,
    "latitude": 6.327793121337891,
    "education_level": "Préscolaire",
    "country_iso3_code": "TGO",
    "giga_id_school": "79353362-f94b-3a5b-85f8-39d13bc96f10",
    "school_data_source": null
  },
  {
    "school_name": "JEE METHODISTE HETCHIAVI",
    "longitude": 1.7108349800109863,
    "latitude": 6.34701681137085,
    "education_level": "Préscolaire",
    "country_iso3_code": "TGO",
    "giga_id_school": "6c72a5f9-23df-3756-960c-1243f89b16d3",
    "school_data_source": null
  },
  {
    "school_name": "JEP HLANDE",
    "longitude": 1.730762004852295,
    "latitude": 6.319480895996094,
    "education_level": "Préscolaire",
    "country_iso3_code": "TGO",
    "giga_id_school": "f7853c64-19d6-35ef-976a-6e522da34c48",
    "school_data_source": null
  },
  {
    "school_name": "JEP ADJIDO",
    "longitude": 1.6045180559158325,
    "latitude": 6.234118938446045,
    "education_level": "Préscolaire",
    "country_iso3_code": "TGO",
    "giga_id_school": "cb6b2bc7-cc93-39fd-81ab-91aa7e30c802",
    "school_data_source": null
  },
  {
    "school_name": "JEP MESSAN KONDJI",
    "longitude": 1.6221129894256592,
    "latitude": 6.2390031814575195,
    "education_level": "Préscolaire",
    "country_iso3_code": "TGO",
    "giga_id_school": "37d0a3db-8b94-33ba-8f20-4c3493a50ded",
    "school_data_source": null
  },
  {
    "school_name": "JEP YESSOUVITO",
    "longitude": 1.6098580360412598,
    "latitude": 6.236070156097412,
    "education_level": "Préscolaire",
    "country_iso3_code": "TGO",
    "giga_id_school": "f582dbc3-1a89-3911-a9d1-70418943025d",
    "school_data_source": null
  },
  {
    "school_name": "JEP ZEBEVI",
    "longitude": 1.610131025314331,
    "latitude": 6.250678062438965,
    "education_level": "Préscolaire",
    "country_iso3_code": "TGO",
    "giga_id_school": "10b7b0de-e91b-3961-bc7d-6a728f675be3",
    "school_data_source": null
  },
  {
    "school_name": "JEC AGOKPAME",
    "longitude": 1.6473289728164673,
    "latitude": 6.25756311416626,
    "education_level": "Préscolaire",
    "country_iso3_code": "TGO",
    "giga_id_school": "43facfad-bd43-3c9a-89f3-047dbf2c039f",
    "school_data_source": null
  },
  {
    "school_name": "JEC GLIDJI",
    "longitude": 1.600342035293579,
    "latitude": 6.248094081878662,
    "education_level": "Préscolaire",
    "country_iso3_code": "TGO",
    "giga_id_school": "8bdcc072-27f8-3c96-8265-195116e1a6ad",
    "school_data_source": null
  },
  {
    "school_name": "JEE METHODISTE CANAAN",
    "longitude": 1.6066169738769531,
    "latitude": 6.237034797668457,
    "education_level": "Préscolaire",
    "country_iso3_code": "TGO",
    "giga_id_school": "5f71bc16-5173-392d-9c55-dd02fc983d38",
    "school_data_source": null
  },
  {
    "school_name": "JEPL CHRIST-ROI",
    "longitude": 1.6019469499588013,
    "latitude": 6.232700824737549,
    "education_level": "Préscolaire",
    "country_iso3_code": "TGO",
    "giga_id_school": "69bba347-622d-36cb-a20f-ef59e6305d33",
    "school_data_source": null
  },
  {
    "school_name": "JEPL LA PASSERELLE",
    "longitude": 1.6139299869537354,
    "latitude": 6.238268852233887,
    "education_level": "Préscolaire",
    "country_iso3_code": "TGO",
    "giga_id_school": "aaa05c58-96f0-361e-b6e9-bb25d72249b2",
    "school_data_source": null
  },
  {
    "school_name": "JEPL RENOUVEAU",
    "longitude": 1.6136540174484253,
    "latitude": 6.234407901763916,
    "education_level": "Préscolaire",
    "country_iso3_code": "TGO",
    "giga_id_school": "3a48d9ed-32c1-3527-8f54-fa73d15c3087",
    "school_data_source": null
  },
  {
    "school_name": "JEPL LA LUMIERE",
    "longitude": 1.6084890365600586,
    "latitude": 6.267284870147705,
    "education_level": "Préscolaire",
    "country_iso3_code": "TGO",
    "giga_id_school": "f4ccb2c3-f1ee-362d-b052-3916966a89de",
    "school_data_source": null
  },
  {
    "school_name": "JEDIL ABATAME",
    "longitude": 1.6444549560546875,
    "latitude": 6.272930145263672,
    "education_level": "Préscolaire",
    "country_iso3_code": "TGO",
    "giga_id_school": "29a1d0f5-782d-3a44-9c3e-7a712ca50b03",
    "school_data_source": null
  },
  {
    "school_name": "JEDIL GBOGBO KONDJI",
    "longitude": 1.662708044052124,
    "latitude": 6.3218159675598145,
    "education_level": "Préscolaire",
    "country_iso3_code": "TGO",
    "giga_id_school": "de6c5348-71a5-3ffe-961e-ca3c9bafbc33",
    "school_data_source": null
  },
  {
    "school_name": "JEDIL LAYE CONDJI",
    "longitude": 1.6884883642196655,
    "latitude": 6.302245140075684,
    "education_level": "Préscolaire",
    "country_iso3_code": "TGO",
    "giga_id_school": "1dfa9071-4192-3f97-a66f-8124347333df",
    "school_data_source": null
  },
  {
    "school_name": "JEDIL GLIDJI",
    "longitude": 1.6054550409317017,
    "latitude": 6.252414226531982,
    "education_level": "Préscolaire",
    "country_iso3_code": "TGO",
    "giga_id_school": "b176b7cc-def5-3ecd-a6b5-a1cbb918941c",
    "school_data_source": null
  },
  {
    "school_name": "JEC SAINTE CECILE ADJIDO",
    "longitude": 1.6058310270309448,
    "latitude": 6.2339630126953125,
    "education_level": "Préscolaire",
    "country_iso3_code": "TGO",
    "giga_id_school": "08809bae-b8c9-39d7-8fb8-1bcbf4e0f80b",
    "school_data_source": null
  },
  {
    "school_name": "JEDIL AKLAKOU G/D",
    "longitude": 1.7167689800262451,
    "latitude": 6.3331708908081055,
    "education_level": "Préscolaire",
    "country_iso3_code": "TGO",
    "giga_id_school": "a9bff1fa-2a33-35dd-a38f-1f0a7ea21efd",
    "school_data_source": null
  },
  {
    "school_name": "JEDIL AKAGANDJI",
    "longitude": 1.6399869918823242,
    "latitude": 6.2848429679870605,
    "education_level": "Préscolaire",
    "country_iso3_code": "TGO",
    "giga_id_school": "3a8ae2e3-ca5b-3e0e-8575-dbccb5df4ead",
    "school_data_source": null
  },
  {
    "school_name": "JEP HETCHIAVI",
    "longitude": 1.7063610553741455,
    "latitude": 6.347152233123779,
    "education_level": "Préscolaire",
    "country_iso3_code": "TGO",
    "giga_id_school": "a84e5590-e294-3291-a6fb-80ca9e1bd7c1",
    "school_data_source": null
  },
  {
    "school_name": "JEDIL AKLAKOU G/C",
    "longitude": 1.7073309421539307,
    "latitude": 6.338067054748535,
    "education_level": "Préscolaire",
    "country_iso3_code": "TGO",
    "giga_id_school": "794498e1-3749-3eeb-9140-3db90b23710d",
    "school_data_source": null
  },
  {
    "school_name": "JEDIL ATOUETA",
    "longitude": 1.6397759914398193,
    "latitude": 6.284885883331299,
    "education_level": "Préscolaire",
    "country_iso3_code": "TGO",
    "giga_id_school": "675a3778-5aae-3d29-9a95-242d01815185",
    "school_data_source": null
  },
  {
    "school_name": "JEE METHODISTE AVEVE",
    "longitude": 1.7606966495513916,
    "latitude": 6.405818462371826,
    "education_level": "Préscolaire",
    "country_iso3_code": "TGO",
    "giga_id_school": "285a0228-497b-3719-bf30-1f164e04a4a8",
    "school_data_source": null
  },
  {
    "school_name": "JEE METHODISTE AGOUEGAN",
    "longitude": 1.6800960302352905,
    "latitude": 6.2599968910217285,
    "education_level": "Préscolaire",
    "country_iso3_code": "TGO",
    "giga_id_school": "f171ddd2-ecdb-3182-8826-a85f447a5d56",
    "school_data_source": null
  },
  {
    "school_name": "JEDIL MELONKOU",
    "longitude": 1.7083810567855835,
    "latitude": 6.35621976852417,
    "education_level": "Préscolaire",
    "country_iso3_code": "TGO",
    "giga_id_school": "c1ce81e0-e0b5-3c29-844f-758509b52eb0",
    "school_data_source": null
  },
  {
    "school_name": "JEPI FRANCO-ARABE RAHMANIYA",
    "longitude": 1.607271671295166,
    "latitude": 6.238378524780273,
    "education_level": "Préscolaire",
    "country_iso3_code": "TGO",
    "giga_id_school": "d3520129-df46-3696-9e8b-18b8a0c53351",
    "school_data_source": null
  },
  {
    "school_name": "JEDIL SEKO",
    "longitude": 1.7110979557037354,
    "latitude": 6.267244815826416,
    "education_level": "Préscolaire",
    "country_iso3_code": "TGO",
    "giga_id_school": "d297f61c-a821-3e4d-96b7-6604ed6384dd",
    "school_data_source": null
  },
  {
    "school_name": "JEP AGBODRAFO",
    "longitude": 1.4792150259017944,
    "latitude": 6.202992916107178,
    "education_level": "Préscolaire",
    "country_iso3_code": "TGO",
    "giga_id_school": "a79719cb-e0b7-3530-8201-925790fed058",
    "school_data_source": null
  },
  {
    "school_name": "JEP FOLLY-GA KPEME",
    "longitude": 1.503872036933899,
    "latitude": 6.210558891296387,
    "education_level": "Préscolaire",
    "country_iso3_code": "TGO",
    "giga_id_school": "0027a8d6-4a64-3ff1-8877-1e3ec1b4c1d9",
    "school_data_source": null
  },
  {
    "school_name": "JEP KPESSI",
    "longitude": 1.4491300582885742,
    "latitude": 6.216050148010254,
    "education_level": "Préscolaire",
    "country_iso3_code": "TGO",
    "giga_id_school": "249c9080-3088-3c79-b44e-bad973bb1bd6",
    "school_data_source": null
  },
  {
    "school_name": "JEP SEWATSRICOPE",
    "longitude": 1.5096999406814575,
    "latitude": 6.219130039215088,
    "education_level": "Préscolaire",
    "country_iso3_code": "TGO",
    "giga_id_school": "23d8ac06-95c6-3c6d-a5f4-5f4f1f841c6a",
    "school_data_source": null
  },
  {
    "school_name": "JEP TOGOKOME",
    "longitude": 1.421260952949524,
    "latitude": 6.2128520011901855,
    "education_level": "Préscolaire",
    "country_iso3_code": "TGO",
    "giga_id_school": "38128727-b14a-3118-a2db-9c391a3b996e",
    "school_data_source": null
  },
  {
    "school_name": "JEP KPOTA",
    "longitude": 1.58719801902771,
    "latitude": 6.226254940032959,
    "education_level": "Préscolaire",
    "country_iso3_code": "TGO",
    "giga_id_school": "3306c36e-cbc1-3040-a713-8925c25c92f9",
    "school_data_source": null
  },
  {
    "school_name": "JEP ANFOIN",
    "longitude": 1.605883002281189,
    "latitude": 6.32917594909668,
    "education_level": "Préscolaire",
    "country_iso3_code": "TGO",
    "giga_id_school": "d3e8f740-e777-38d9-b09e-f7f36a351449",
    "school_data_source": null
  },
  {
    "school_name": "JEP DEGBENOU",
    "longitude": 1.5853639841079712,
    "latitude": 6.230514049530029,
    "education_level": "Préscolaire",
    "country_iso3_code": "TGO",
    "giga_id_school": "c3d62be5-7332-359e-bfeb-88dbf0cf5b87",
    "school_data_source": null
  },
  {
    "school_name": "JEP AGBATA LANZO",
    "longitude": 1.3844399452209473,
    "latitude": 6.197649955749512,
    "education_level": "Préscolaire",
    "country_iso3_code": "TGO",
    "giga_id_school": "f548d8b3-1fba-36e0-b32e-69b450fff33d",
    "school_data_source": null
  },
  {
    "school_name": "JEC ST ANNE ET JEACHIN GOUMOUKOPE",
    "longitude": 1.5328149795532227,
    "latitude": 6.21522855758667,
    "education_level": "Préscolaire",
    "country_iso3_code": "TGO",
    "giga_id_school": "19be7f4d-4cf9-33a6-804b-d4e9dda072e3",
    "school_data_source": null
  },
  {
    "school_name": "JEC KPOGAN AGBETIKO",
    "longitude": 1.3824383020401,
    "latitude": 6.182066440582275,
    "education_level": "Préscolaire",
    "country_iso3_code": "TGO",
    "giga_id_school": "a16ef23d-8601-333c-a38e-6e48e29c1003",
    "school_data_source": null
  },
  {
    "school_name": "JEC ST KIZITO KPEME",
    "longitude": 1.503553032875061,
    "latitude": 6.223177909851074,
    "education_level": "Préscolaire",
    "country_iso3_code": "TGO",
    "giga_id_school": "9645c839-2606-38f1-b083-9ac475a7995b",
    "school_data_source": null
  },
  {
    "school_name": "JEC NDE ANEHO",
    "longitude": 1.5923449993133545,
    "latitude": 6.228219032287598,
    "education_level": "Préscolaire",
    "country_iso3_code": "TGO",
    "giga_id_school": "888f992c-0ac7-3f2b-857f-f4cf9471c3d4",
    "school_data_source": null
  },
  {
    "school_name": "JEC ANFOIN",
    "longitude": 1.6109399795532227,
    "latitude": 6.33213996887207,
    "education_level": "Préscolaire",
    "country_iso3_code": "TGO",
    "giga_id_school": "67f195c8-de63-312f-b931-88f1ac7799d6",
    "school_data_source": null
  },
  {
    "school_name": "JEE METHODISTE AGBODRAFO",
    "longitude": 1.589158058166504,
    "latitude": 6.22747278213501,
    "education_level": "Préscolaire",
    "country_iso3_code": "TGO",
    "giga_id_school": "24f5062a-df01-3dc8-9331-2940ab3f57ea",
    "school_data_source": null
  },
  {
    "school_name": "JEE METHODISTE EBEN-EZER",
    "longitude": 1.588879942893982,
    "latitude": 6.227468490600586,
    "education_level": "Préscolaire",
    "country_iso3_code": "TGO",
    "giga_id_school": "e66e674c-a05f-3f90-98c6-9df7c86f5c68",
    "school_data_source": null
  },
  {
    "school_name": "JEPL ARC-EN-CIEL",
    "longitude": 1.503108024597168,
    "latitude": 6.217413902282715,
    "education_level": "Préscolaire",
    "country_iso3_code": "TGO",
    "giga_id_school": "72555d0a-9ae7-3520-adfc-ee7e5c773f77",
    "school_data_source": null
  },
  {
    "school_name": "JEPL BON BERGER",
    "longitude": 1.505579948425293,
    "latitude": 6.216629981994629,
    "education_level": "Préscolaire",
    "country_iso3_code": "TGO",
    "giga_id_school": "ac9d9f5b-a2cf-319d-ac92-0c126ab3d85e",
    "school_data_source": null
  },
  {
    "school_name": "JEPL LA CHARITE",
    "longitude": 1.5044000148773193,
    "latitude": 6.216030120849609,
    "education_level": "Préscolaire",
    "country_iso3_code": "TGO",
    "giga_id_school": "06f5b246-3558-3b09-8a4d-26fdbfbecb9f",
    "school_data_source": null
  },
  {
    "school_name": "JEPL JELEM",
    "longitude": 1.5012019872665405,
    "latitude": 6.218470096588135,
    "education_level": "Préscolaire",
    "country_iso3_code": "TGO",
    "giga_id_school": "e256803f-a14d-3ee6-bc94-2e27d6f8695f",
    "school_data_source": null
  },
  {
    "school_name": "JEP LE PROGRES",
    "longitude": 1.421550989151001,
    "latitude": 6.207271099090576,
    "education_level": "Préscolaire",
    "country_iso3_code": "TGO",
    "giga_id_school": "18b472da-7718-30a3-9f81-6bb3266dca26",
    "school_data_source": null
  },
  {
    "school_name": "JEPL PIERRE SIMON",
    "longitude": 1.382159948348999,
    "latitude": 6.195930004119873,
    "education_level": "Préscolaire",
    "country_iso3_code": "TGO",
    "giga_id_school": "a5f2a034-2271-3e3f-b415-b2b1cbe61e41",
    "school_data_source": null
  },
  {
    "school_name": "JEPL CITE DE KPEME",
    "longitude": 1.5088000297546387,
    "latitude": 6.209624767303467,
    "education_level": "Préscolaire",
    "country_iso3_code": "TGO",
    "giga_id_school": "12866c7a-2a97-3ae4-85c7-b3d294d99f90",
    "school_data_source": null
  },
  {
    "school_name": "JEPL LA NOBLESSE",
    "longitude": 1.384119987487793,
    "latitude": 6.189939975738525,
    "education_level": "Préscolaire",
    "country_iso3_code": "TGO",
    "giga_id_school": "0b162f14-88e4-3ba4-8301-530935f91174",
    "school_data_source": null
  },
  {
    "school_name": "JEPL LES PYRAMIDES",
    "longitude": 1.5014499425888062,
    "latitude": 6.216288089752197,
    "education_level": "Préscolaire",
    "country_iso3_code": "TGO",
    "giga_id_school": "e9f9e275-5e38-3940-891c-557709aabbc9",
    "school_data_source": null
  },
  {
    "school_name": "CEPE AGBAVI",
    "longitude": 1.4028270244598389,
    "latitude": 6.1869378089904785,
    "education_level": "Préscolaire",
    "country_iso3_code": "TGO",
    "giga_id_school": "ab887efe-d319-3d7c-a957-3a22e795e7cb",
    "school_data_source": null
  },
  {
    "school_name": "JEPL COMPLEXE SCOLAIRE HAVILA",
    "longitude": 1.441580057144165,
    "latitude": 6.218400001525879,
    "education_level": "Préscolaire",
    "country_iso3_code": "TGO",
    "giga_id_school": "822ff87f-2028-3790-89ea-b26650bf2394",
    "school_data_source": null
  },
  {
    "school_name": "JEPL SCIENCE ET CONSCIENCE",
    "longitude": 1.5708709955215454,
    "latitude": 6.227509021759033,
    "education_level": "Préscolaire",
    "country_iso3_code": "TGO",
    "giga_id_school": "fcde7813-5346-3cd2-b907-c56ccdce03cd",
    "school_data_source": null
  },
  {
    "school_name": "JEPL JARDIN ARROSE",
    "longitude": 1.382680058479309,
    "latitude": 6.192689895629883,
    "education_level": "Préscolaire",
    "country_iso3_code": "TGO",
    "giga_id_school": "1cc2922d-4a03-3e30-bfe2-3f50885fbfd1",
    "school_data_source": null
  },
  {
    "school_name": "JEPL DASEKO",
    "longitude": 1.4263149499893188,
    "latitude": 6.201468467712402,
    "education_level": "Préscolaire",
    "country_iso3_code": "TGO",
    "giga_id_school": "678d5ed5-b0c5-35ca-9b86-a102b1705bbc",
    "school_data_source": null
  },
  {
    "school_name": "CEPE DJASSEME",
    "longitude": 1.4994399547576904,
    "latitude": 6.223701000213623,
    "education_level": "Préscolaire",
    "country_iso3_code": "TGO",
    "giga_id_school": "cad2ddab-ef26-34d6-a7da-08ffa988f2ca",
    "school_data_source": null
  },
  {
    "school_name": "CEPE TOTA",
    "longitude": 1.6082919836044312,
    "latitude": 6.32036018371582,
    "education_level": "Préscolaire",
    "country_iso3_code": "TGO",
    "giga_id_school": "6cb22234-5cf5-374a-98b8-b76bda377418",
    "school_data_source": null
  },
  {
    "school_name": "CEPE GANAVE",
    "longitude": 1.6331700086593628,
    "latitude": 6.306940078735352,
    "education_level": "Préscolaire",
    "country_iso3_code": "TGO",
    "giga_id_school": "eb73f2d6-99c2-313d-9f95-1b76e026515d",
    "school_data_source": null
  },
  {
    "school_name": "JEP AMEDEHOEVE",
    "longitude": 1.4020899534225464,
    "latitude": 6.209959983825684,
    "education_level": "Préscolaire",
    "country_iso3_code": "TGO",
    "giga_id_school": "a2c11aca-0626-3f3c-8112-53a8db760f66",
    "school_data_source": null
  },
  {
    "school_name": "CEPE GLOPE-AKOLISSEH",
    "longitude": 1.6207300424575806,
    "latitude": 6.358580112457275,
    "education_level": "Préscolaire",
    "country_iso3_code": "TGO",
    "giga_id_school": "6f5ed77a-dcce-388b-a85e-86537f31c130",
    "school_data_source": null
  },
  {
    "school_name": "CEPE GBODJOME G/A",
    "longitude": 1.417114019393921,
    "latitude": 6.194830894470215,
    "education_level": "Préscolaire",
    "country_iso3_code": "TGO",
    "giga_id_school": "e36584d6-f43f-3e1f-a1b6-b5b3aae0e875",
    "school_data_source": null
  },
  {
    "school_name": "CEPE FOLIVI-JOE",
    "longitude": 1.605605959892273,
    "latitude": 6.309258937835693,
    "education_level": "Préscolaire",
    "country_iso3_code": "TGO",
    "giga_id_school": "021d86e7-ded0-340b-8986-26244e2186ca",
    "school_data_source": null
  },
  {
    "school_name": "CEPE HANGOUME",
    "longitude": 1.6066299676895142,
    "latitude": 6.364290237426758,
    "education_level": "Préscolaire",
    "country_iso3_code": "TGO",
    "giga_id_school": "860e6219-708d-36b8-b721-4b6cb954fa93",
    "school_data_source": null
  },
  {
    "school_name": "JEC ST JOSEPH AGBODRAFO",
    "longitude": 1.4780559539794922,
    "latitude": 6.20285701751709,
    "education_level": "Préscolaire",
    "country_iso3_code": "TGO",
    "giga_id_school": "03fa070f-35e6-3dde-a045-add00acb0a5f",
    "school_data_source": null
  },
  {
    "school_name": "JEPL ISLUMO",
    "longitude": 1.4934600591659546,
    "latitude": 6.208980083465576,
    "education_level": "Préscolaire",
    "country_iso3_code": "TGO",
    "giga_id_school": "ecdc85b5-b1ba-32fc-8832-f2246a2b2156",
    "school_data_source": null
  },
  {
    "school_name": "CEPE KOUTIGBE",
    "longitude": 1.6115299463272095,
    "latitude": 6.348050117492676,
    "education_level": "Préscolaire",
    "country_iso3_code": "TGO",
    "giga_id_school": "127d8a33-1af7-3228-888e-722db5b61e68",
    "school_data_source": null
  },
  {
    "school_name": "JEPL COMPLEXE SCOLAIRE CHIMELIO",
    "longitude": 1.3966166973114014,
    "latitude": 6.197246551513672,
    "education_level": "Préscolaire",
    "country_iso3_code": "TGO",
    "giga_id_school": "a2711ac7-c976-345a-b537-bd456266e02f",
    "school_data_source": null
  },
  {
    "school_name": "CEPE AGOVOUDOU",
    "longitude": 1.4322600364685059,
    "latitude": 6.2159199714660645,
    "education_level": "Préscolaire",
    "country_iso3_code": "TGO",
    "giga_id_school": "ce6482fb-94f1-3d77-bd9d-3a8119ae91c3",
    "school_data_source": null
  },
  {
    "school_name": "JEPL LE DEFI DE GBODJOME",
    "longitude": 1.4067540168762207,
    "latitude": 6.19476318359375,
    "education_level": "Préscolaire",
    "country_iso3_code": "TGO",
    "giga_id_school": "660c8172-251f-3f5e-bc05-e98a7fffff27",
    "school_data_source": null
  },
  {
    "school_name": "JEPL SAINT EXUPERY",
    "longitude": 1.4148290157318115,
    "latitude": 6.195435047149658,
    "education_level": "Préscolaire",
    "country_iso3_code": "TGO",
    "giga_id_school": "a71a53e2-dcc3-3fe0-b97e-ed3dd294e2a3",
    "school_data_source": null
  },
  {
    "school_name": "JEPL SAINT SAMUEL",
    "longitude": 1.418436050415039,
    "latitude": 6.207286834716797,
    "education_level": "Préscolaire",
    "country_iso3_code": "TGO",
    "giga_id_school": "ebfe5fe7-2fe0-3f03-a1de-73097c1243a2",
    "school_data_source": null
  },
  {
    "school_name": "JEPL THE ROCK",
    "longitude": 1.4826949834823608,
    "latitude": 6.21332311630249,
    "education_level": "Préscolaire",
    "country_iso3_code": "TGO",
    "giga_id_school": "229671a8-2143-3678-9920-a41ea990ba3b",
    "school_data_source": null
  },
  {
    "school_name": "JEPL LA BELLE ETOILE",
    "longitude": 1.4334816932678223,
    "latitude": 6.21077823638916,
    "education_level": "Préscolaire",
    "country_iso3_code": "TGO",
    "giga_id_school": "ee13d782-f239-39f8-a263-d5b4391a278f",
    "school_data_source": null
  },
  {
    "school_name": "JEPL LE BON",
    "longitude": 1.3986550569534302,
    "latitude": 6.201214790344238,
    "education_level": "Préscolaire",
    "country_iso3_code": "TGO",
    "giga_id_school": "87aefca9-2fbf-32d6-85b9-9e3510aea0df",
    "school_data_source": null
  },
  {
    "school_name": "CEPE ANYMAGNA",
    "longitude": 1.4415700435638428,
    "latitude": 6.199725151062012,
    "education_level": "Préscolaire",
    "country_iso3_code": "TGO",
    "giga_id_school": "8b065709-0188-3d00-89d2-e33174be6365",
    "school_data_source": null
  },
  {
    "school_name": "JEPL L' AURORE",
    "longitude": 1.395300030708313,
    "latitude": 6.195429801940918,
    "education_level": "Préscolaire",
    "country_iso3_code": "TGO",
    "giga_id_school": "412c7ebb-a39b-3819-8945-70fd38af009b",
    "school_data_source": null
  },
  {
    "school_name": "JEPL CITEM EBENEZER",
    "longitude": 1.4113999605178833,
    "latitude": 6.207799911499023,
    "education_level": "Préscolaire",
    "country_iso3_code": "TGO",
    "giga_id_school": "9be59b67-f585-305a-b84c-5173a9466d80",
    "school_data_source": null
  },
  {
    "school_name": "JEPL ROYAL",
    "longitude": 1.3946000337600708,
    "latitude": 6.1915998458862305,
    "education_level": "Préscolaire",
    "country_iso3_code": "TGO",
    "giga_id_school": "19818ea9-05e1-3b2a-9c40-bae77033e77f",
    "school_data_source": null
  },
  {
    "school_name": "JEPL SAINT FREDERIC",
    "longitude": 1.3848999738693237,
    "latitude": 6.196300029754639,
    "education_level": "Préscolaire",
    "country_iso3_code": "TGO",
    "giga_id_school": "df398163-e401-3e47-a4f9-8625cb655eab",
    "school_data_source": null
  },
  {
    "school_name": "CEPE AGBANOU",
    "longitude": 1.5982270240783691,
    "latitude": 6.27186393737793,
    "education_level": "Préscolaire",
    "country_iso3_code": "TGO",
    "giga_id_school": "0f6bb94d-bc04-33e5-80da-4225178721ed",
    "school_data_source": null
  },
  {
    "school_name": "CEPE FIATA",
    "longitude": 1.6381800174713135,
    "latitude": 6.325069904327393,
    "education_level": "Préscolaire",
    "country_iso3_code": "TGO",
    "giga_id_school": "ed395486-1464-35ce-bd33-1686fc841720",
    "school_data_source": null
  },
  {
    "school_name": "JEP ATCHANDOME",
    "longitude": 1.5635299682617188,
    "latitude": 6.345263957977295,
    "education_level": "Préscolaire",
    "country_iso3_code": "TGO",
    "giga_id_school": "e8e3d87c-3794-3bb3-8ad8-12ab2e5922ab",
    "school_data_source": null
  },
  {
    "school_name": "JEP DZREKPO-BAS",
    "longitude": 1.5728566646575928,
    "latitude": 6.470973491668701,
    "education_level": "Préscolaire",
    "country_iso3_code": "TGO",
    "giga_id_school": "6b3a03a6-89a4-3fe1-951c-487ebfc76010",
    "school_data_source": null
  },
  {
    "school_name": "JEP KLOLOGO",
    "longitude": 1.5869699716567993,
    "latitude": 6.415578365325928,
    "education_level": "Préscolaire",
    "country_iso3_code": "TGO",
    "giga_id_school": "5326376e-15b4-3b40-aa17-bb50e7ae7528",
    "school_data_source": null
  },
  {
    "school_name": "JEP MOME KATIHOE",
    "longitude": 1.5535180568695068,
    "latitude": 6.522803783416748,
    "education_level": "Préscolaire",
    "country_iso3_code": "TGO",
    "giga_id_school": "bc55666d-5688-3848-a08b-dbbb1694c137",
    "school_data_source": null
  },
  {
    "school_name": "JEP TETEME",
    "longitude": 1.4828399419784546,
    "latitude": 6.428397178649902,
    "education_level": "Préscolaire",
    "country_iso3_code": "TGO",
    "giga_id_school": "2ea79d8c-f4a4-39f5-8899-4e46fb54ff8e",
    "school_data_source": null
  },
  {
    "school_name": "JEP ZOOTI",
    "longitude": 1.6084250211715698,
    "latitude": 6.416656494140625,
    "education_level": "Préscolaire",
    "country_iso3_code": "TGO",
    "giga_id_school": "65f56f75-c7a5-3d72-82c0-f34ef964f109",
    "school_data_source": null
  },
  {
    "school_name": "JEDIL KPONOU DJEKOTOE",
    "longitude": 1.582669973373413,
    "latitude": 6.399553298950195,
    "education_level": "Préscolaire",
    "country_iso3_code": "TGO",
    "giga_id_school": "987c4d2a-9e7b-3e7a-9351-4993848c2db5",
    "school_data_source": null
  },
  {
    "school_name": "JEP GBEDEPEME",
    "longitude": 1.5607399940490723,
    "latitude": 6.44931173324585,
    "education_level": "Préscolaire",
    "country_iso3_code": "TGO",
    "giga_id_school": "99b661a8-4f7c-3d5d-a210-65dd2e92639e",
    "school_data_source": null
  },
  {
    "school_name": "JEDIL KLIKAME HEVE",
    "longitude": 1.580685019493103,
    "latitude": 6.395608425140381,
    "education_level": "Préscolaire",
    "country_iso3_code": "TGO",
    "giga_id_school": "d5d00c43-eb16-3c93-b536-9aa3eb1f1682",
    "school_data_source": null
  },
  {
    "school_name": "JEDIL TOKPLI",
    "longitude": 1.5573749542236328,
    "latitude": 6.3715291023254395,
    "education_level": "Préscolaire",
    "country_iso3_code": "TGO",
    "giga_id_school": "36e3fb56-86e2-3438-9983-e9d62ebe0974",
    "school_data_source": null
  },
  {
    "school_name": "JEDIL VO ATTIVE",
    "longitude": 1.4961400032043457,
    "latitude": 6.42403507232666,
    "education_level": "Préscolaire",
    "country_iso3_code": "TGO",
    "giga_id_school": "98412747-0cc6-340e-8d58-bcbf4d8221d8",
    "school_data_source": null
  },
  {
    "school_name": "JEDIL DZREKPO HAGOU",
    "longitude": 1.5689599514007568,
    "latitude": 6.487450122833252,
    "education_level": "Préscolaire",
    "country_iso3_code": "TGO",
    "giga_id_school": "0f326dd7-3bba-37db-b034-9de809869280",
    "school_data_source": null
  },
  {
    "school_name": "JEP MOME HAGOU",
    "longitude": 1.5574949979782104,
    "latitude": 6.490839958190918,
    "education_level": "Préscolaire",
    "country_iso3_code": "TGO",
    "giga_id_school": "f8760cb0-6226-387c-b079-a862b9e4718d",
    "school_data_source": null
  },
  {
    "school_name": "JEDIL ASSO",
    "longitude": 1.4759249687194824,
    "latitude": 6.487443447113037,
    "education_level": "Préscolaire",
    "country_iso3_code": "TGO",
    "giga_id_school": "a6bc03ec-2576-3e86-b75e-8577c0ed1aa5",
    "school_data_source": null
  },
  {
    "school_name": "JEDIL KPONOU",
    "longitude": 1.5703150033950806,
    "latitude": 6.378976821899414,
    "education_level": "Préscolaire",
    "country_iso3_code": "TGO",
    "giga_id_school": "422be40a-2a61-3cfd-b92f-d69fe671dfe1",
    "school_data_source": null
  },
  {
    "school_name": "JEDIL KOUTIME",
    "longitude": 1.5673316717147827,
    "latitude": 6.361058235168457,
    "education_level": "Préscolaire",
    "country_iso3_code": "TGO",
    "giga_id_school": "c32a44d5-63c1-3627-8cd7-56929ac78bb2",
    "school_data_source": null
  },
  {
    "school_name": "JEDIL ATCHANVEGLO",
    "longitude": 1.5639499425888062,
    "latitude": 6.434013366699219,
    "education_level": "Préscolaire",
    "country_iso3_code": "TGO",
    "giga_id_school": "47cac198-5617-3b35-b541-db0f0dd990d9",
    "school_data_source": null
  },
  {
    "school_name": "JEDIL MAMISSI",
    "longitude": 1.6019933223724365,
    "latitude": 6.381340026855469,
    "education_level": "Préscolaire",
    "country_iso3_code": "TGO",
    "giga_id_school": "d88f83a8-8199-3bca-9cf7-8f7aa30a20ec",
    "school_data_source": null
  },
  {
    "school_name": "JEDIL WODZEPE",
    "longitude": 1.5600166320800781,
    "latitude": 6.466754913330078,
    "education_level": "Préscolaire",
    "country_iso3_code": "TGO",
    "giga_id_school": "1357be43-b17f-3044-9672-621729c4ca71",
    "school_data_source": null
  },
  {
    "school_name": "JEDIL ZOOTI KUESSAN CONDJI",
    "longitude": 1.6016650199890137,
    "latitude": 6.400383472442627,
    "education_level": "Préscolaire",
    "country_iso3_code": "TGO",
    "giga_id_school": "a5393d0d-4e0f-3867-9d92-d78098ed7f69",
    "school_data_source": null
  },
  {
    "school_name": "JEDIL DZREKPO-CENTRE",
    "longitude": 1.5674883127212524,
    "latitude": 6.475231647491455,
    "education_level": "Préscolaire",
    "country_iso3_code": "TGO",
    "giga_id_school": "359c4d0c-91f9-3008-aa64-6b15380753cd",
    "school_data_source": null
  },
  {
    "school_name": "JEP ADOUHO",
    "longitude": 1.5119383335113525,
    "latitude": 6.361249923706055,
    "education_level": "Préscolaire",
    "country_iso3_code": "TGO",
    "giga_id_school": "d60495ac-2e9a-3e86-82cd-21a4bf1f7257",
    "school_data_source": null
  },
  {
    "school_name": "JEP AKOUMAPE DOULASSA",
    "longitude": 1.4478000402450562,
    "latitude": 6.394259929656982,
    "education_level": "Préscolaire",
    "country_iso3_code": "TGO",
    "giga_id_school": "a5dfa477-9a4e-39a1-909b-45f1dfb606c5",
    "school_data_source": null
  },
  {
    "school_name": "JEP AKODESSEWA",
    "longitude": 1.3986133337020874,
    "latitude": 6.341503143310547,
    "education_level": "Préscolaire",
    "country_iso3_code": "TGO",
    "giga_id_school": "0d3d5b27-b3e6-36df-a920-4687d335853b",
    "school_data_source": null
  },
  {
    "school_name": "JEP ASSO APEGAN",
    "longitude": 1.4741950035095215,
    "latitude": 6.468508243560791,
    "education_level": "Préscolaire",
    "country_iso3_code": "TGO",
    "giga_id_school": "ca92b4c5-d392-3266-9909-d787ab760ce8",
    "school_data_source": null
  },
  {
    "school_name": "JEP AVETSEDOME",
    "longitude": 1.513124942779541,
    "latitude": 6.4261651039123535,
    "education_level": "Préscolaire",
    "country_iso3_code": "TGO",
    "giga_id_school": "e4d87c47-d135-3835-a137-e1a21b42eb53",
    "school_data_source": null
  },
  {
    "school_name": "JEP BADOUGBE KETA",
    "longitude": 1.5223979949951172,
    "latitude": 6.238973140716553,
    "education_level": "Préscolaire",
    "country_iso3_code": "TGO",
    "giga_id_school": "9fec775d-9756-3b6d-a45b-b7da5280fb9c",
    "school_data_source": null
  },
  {
    "school_name": "JEP BADOUGBE ADJOME",
    "longitude": 1.5140819549560547,
    "latitude": 6.237791061401367,
    "education_level": "Préscolaire",
    "country_iso3_code": "TGO",
    "giga_id_school": "9e1fb93e-5965-35b8-bb0d-ab2276f47ec6",
    "school_data_source": null
  },
  {
    "school_name": "JEP HAHOTOE G/A",
    "longitude": 1.415091633796692,
    "latitude": 6.370941638946533,
    "education_level": "Préscolaire",
    "country_iso3_code": "TGO",
    "giga_id_school": "0b97958b-7d51-3eb7-9a1d-8e6729320ead",
    "school_data_source": null
  },
  {
    "school_name": "JEP HAHOTOE G/B",
    "longitude": 1.415536642074585,
    "latitude": 6.37224006652832,
    "education_level": "Préscolaire",
    "country_iso3_code": "TGO",
    "giga_id_school": "50ddf4ca-4786-3e9c-8aef-c017e8cc6ea2",
    "school_data_source": null
  },
  {
    "school_name": "JEP KETA AKODA",
    "longitude": 1.5550990104675293,
    "latitude": 6.246234893798828,
    "education_level": "Préscolaire",
    "country_iso3_code": "TGO",
    "giga_id_school": "7beb5dfb-e028-3e7e-a1e4-f14017c17c64",
    "school_data_source": null
  },
  {
    "school_name": "JEP KPOTAVE AGBOBA",
    "longitude": 1.4853969812393188,
    "latitude": 6.394786834716797,
    "education_level": "Préscolaire",
    "country_iso3_code": "TGO",
    "giga_id_school": "51981fc8-4db1-3297-be67-5a6b2b53323e",
    "school_data_source": null
  },
  {
    "school_name": "JEP NYITA APEYEME",
    "longitude": 1.4521900415420532,
    "latitude": 6.450225830078125,
    "education_level": "Préscolaire",
    "country_iso3_code": "TGO",
    "giga_id_school": "8647ba26-3b23-3e9e-a735-0a1dac457453",
    "school_data_source": null
  },
  {
    "school_name": "JEP SEVAGAN",
    "longitude": 1.4273632764816284,
    "latitude": 6.300439834594727,
    "education_level": "Préscolaire",
    "country_iso3_code": "TGO",
    "giga_id_school": "9aa7dd0a-c799-3c52-9b1b-514b2265b3b8",
    "school_data_source": null
  },
  {
    "school_name": "JEP TOGOVILLE",
    "longitude": 1.474565029144287,
    "latitude": 6.234749794006348,
    "education_level": "Préscolaire",
    "country_iso3_code": "TGO",
    "giga_id_school": "86c48206-139f-3031-aa33-12d5ad26fbfc",
    "school_data_source": null
  },
  {
    "school_name": "JEP VOGAN ADJREGO",
    "longitude": 1.5072300434112549,
    "latitude": 6.287049770355225,
    "education_level": "Préscolaire",
    "country_iso3_code": "TGO",
    "giga_id_school": "729c6a66-e8cc-302b-937c-d587ac2d2fcb",
    "school_data_source": null
  },
  {
    "school_name": "JEP WOGBA",
    "longitude": 1.5075949430465698,
    "latitude": 6.287168502807617,
    "education_level": "Préscolaire",
    "country_iso3_code": "TGO",
    "giga_id_school": "0ac94b99-ff0e-3134-9a15-582fc722337e",
    "school_data_source": null
  },
  {
    "school_name": "JEE ASSEMBLEES DE DIEU HAHOTOE",
    "longitude": 1.4139083623886108,
    "latitude": 6.35927152633667,
    "education_level": "Préscolaire",
    "country_iso3_code": "TGO",
    "giga_id_school": "ce5b6201-4031-31d9-aa0e-708441f25bbb",
    "school_data_source": null
  },
  {
    "school_name": "JEE BAME",
    "longitude": 1.5218000411987305,
    "latitude": 6.333995819091797,
    "education_level": "Préscolaire",
    "country_iso3_code": "TGO",
    "giga_id_school": "b4b07555-94c6-31ec-87a0-edee841d6950",
    "school_data_source": null
  },
  {
    "school_name": "JEE HAHOTOE G/A",
    "longitude": 1.4092882871627808,
    "latitude": 6.36526346206665,
    "education_level": "Préscolaire",
    "country_iso3_code": "TGO",
    "giga_id_school": "97a87fc1-97bf-3ddc-b7a7-5cdd5ec40e9e",
    "school_data_source": null
  },
  {
    "school_name": "JEP HEDJEGAN G/B",
    "longitude": 1.4563466310501099,
    "latitude": 6.3334784507751465,
    "education_level": "Préscolaire",
    "country_iso3_code": "TGO",
    "giga_id_school": "e1a8bc17-104e-37d4-a994-e16f85abf324",
    "school_data_source": null
  },
  {
    "school_name": "JEDIL LEGBANOU DJOKOPE",
    "longitude": 1.4798716306686401,
    "latitude": 6.338201522827148,
    "education_level": "Préscolaire",
    "country_iso3_code": "TGO",
    "giga_id_school": "ab5b9cdf-5ede-359a-8152-17c8a01f9fd9",
    "school_data_source": null
  },
  {
    "school_name": "JEP MARCHE",
    "longitude": 1.5267499685287476,
    "latitude": 6.326105117797852,
    "education_level": "Préscolaire",
    "country_iso3_code": "TGO",
    "giga_id_school": "ab281876-ad26-33ad-bd07-d9f5927a07e0",
    "school_data_source": null
  },
  {
    "school_name": "JEP NOVISSI",
    "longitude": 1.531954050064087,
    "latitude": 6.3462300300598145,
    "education_level": "Préscolaire",
    "country_iso3_code": "TGO",
    "giga_id_school": "7f077a26-8d52-398e-abc9-b228abe0226e",
    "school_data_source": null
  },
  {
    "school_name": "JEDIL TCHILIME",
    "longitude": 1.4230233430862427,
    "latitude": 6.375888347625732,
    "education_level": "Préscolaire",
    "country_iso3_code": "TGO",
    "giga_id_school": "984eae16-f46c-351a-8ed9-2020279fddcb",
    "school_data_source": null
  },
  {
    "school_name": "JEPL LA REUSSITE",
    "longitude": 1.5268017053604126,
    "latitude": 6.336058139801025,
    "education_level": "Préscolaire",
    "country_iso3_code": "TGO",
    "giga_id_school": "3bb8d9f2-cc38-3900-8c92-a2326e1eab33",
    "school_data_source": null
  },
  {
    "school_name": "JEPL SHALOM",
    "longitude": 1.4487600326538086,
    "latitude": 6.382975101470947,
    "education_level": "Préscolaire",
    "country_iso3_code": "TGO",
    "giga_id_school": "550cf64d-1a79-379b-a081-309bac59b0de",
    "school_data_source": null
  },
  {
    "school_name": "JEE ACADEMIE CHRETIENNE DE VOGAN (ACV)",
    "longitude": 1.5379400253295898,
    "latitude": 6.342450141906738,
    "education_level": "Préscolaire",
    "country_iso3_code": "TGO",
    "giga_id_school": "d9e853c2-62ca-327a-bc83-16aea682cfdc",
    "school_data_source": null
  },
  {
    "school_name": "JEPL INSTITUT LA VOIE",
    "longitude": 1.4157782793045044,
    "latitude": 6.363303184509277,
    "education_level": "Préscolaire",
    "country_iso3_code": "TGO",
    "giga_id_school": "35b8fbdb-7766-3924-a71e-217e5e7b43ad",
    "school_data_source": null
  },
  {
    "school_name": "JEPL SNPT HAHOTOE",
    "longitude": 1.4056583642959595,
    "latitude": 6.366221904754639,
    "education_level": "Préscolaire",
    "country_iso3_code": "TGO",
    "giga_id_school": "e96de7d0-0150-3fb3-8da5-b05b4eed48ea",
    "school_data_source": null
  },
  {
    "school_name": "JEPL MON SAUVEUR",
    "longitude": 1.5315699577331543,
    "latitude": 6.341103553771973,
    "education_level": "Préscolaire",
    "country_iso3_code": "TGO",
    "giga_id_school": "324bcb5d-66b2-30e4-81af-0a0128bfeb34",
    "school_data_source": null
  },
  {
    "school_name": "JEC NDA VOGAN",
    "longitude": 1.534289002418518,
    "latitude": 6.3328471183776855,
    "education_level": "Préscolaire",
    "country_iso3_code": "TGO",
    "giga_id_school": "fa7bb099-c2d0-3133-88a2-68258f7a3121",
    "school_data_source": null
  },
  {
    "school_name": "JEPL MINERVA",
    "longitude": 1.4103749990463257,
    "latitude": 6.3628315925598145,
    "education_level": "Préscolaire",
    "country_iso3_code": "TGO",
    "giga_id_school": "b2093e03-fe77-3994-b8a5-4cfdca2e5536",
    "school_data_source": null
  },
  {
    "school_name": "JEP SAGADA",
    "longitude": 1.5252666473388672,
    "latitude": 6.335571765899658,
    "education_level": "Préscolaire",
    "country_iso3_code": "TGO",
    "giga_id_school": "8e1fa404-3082-3e06-af03-a892cdf357c5",
    "school_data_source": null
  },
  {
    "school_name": "JEDIL TOGOVILLE G/C",
    "longitude": 1.481529951095581,
    "latitude": 6.247049808502197,
    "education_level": "Préscolaire",
    "country_iso3_code": "TGO",
    "giga_id_school": "0f702022-6594-3d61-a741-7ad4d0a782d4",
    "school_data_source": null
  },