[
  {
    "school_name": "ESC. LOS PLANES",
    "longitude": -82.99524688720703,
    "latitude": 8.33536148071289,
    "education_level": "Unknown",
    "country_iso3_code": "PAN",
    "giga_id_school": "6817f91c-be01-31fc-9541-c9ef1473fde0",
    "school_data_source": null
  },
  {
    "school_name": "ESC. SAN BARTOLO LIMITE",
    "longitude": -82.97303009033203,
    "latitude": 8.307306289672852,
    "education_level": "Unknown",
    "country_iso3_code": "PAN",
    "giga_id_school": "231812cd-2ba6-3818-9996-05cd60ff2cec",
    "school_data_source": null
  },
  {
    "school_name": "ESC. LA VICTORIA",
    "longitude": -82.95024871826172,
    "latitude": 8.400361061096191,
    "education_level": "Unknown",
    "country_iso3_code": "PAN",
    "giga_id_school": "b61d9131-1e08-3d4c-b09b-1248b3855cb5",
    "school_data_source": null
  },
  {
    "school_name": "ESC. CAÑAZAS",
    "longitude": -82.93218994140625,
    "latitude": 8.403139114379883,
    "education_level": "Unknown",
    "country_iso3_code": "PAN",
    "giga_id_school": "c719dd7d-7136-3c0f-a1f0-cdb0c17ac77a",
    "school_data_source": null
  },
  {
    "school_name": "ESC. CORREDOR",
    "longitude": -82.93135833740234,
    "latitude": 8.416194915771484,
    "education_level": "Unknown",
    "country_iso3_code": "PAN",
    "giga_id_school": "8ac7b558-aacd-37bd-964e-8c2d62c1efa8",
    "school_data_source": null
  },
  {
    "school_name": "ESC. BLANCO ARRIBA",
    "longitude": -82.92996978759766,
    "latitude": 8.370361328125,
    "education_level": "Unknown",
    "country_iso3_code": "PAN",
    "giga_id_school": "5855d7ff-b5b8-3e48-b132-39e4d1181a8c",
    "school_data_source": null
  },
  {
    "school_name": "ESC. COROZO",
    "longitude": -82.92330169677734,
    "latitude": 8.220361709594727,
    "education_level": "Unknown",
    "country_iso3_code": "PAN",
    "giga_id_school": "867b5090-7264-38c7-ade3-bb2e10038b57",
    "school_data_source": null
  },
  {
    "school_name": "ESC. CAÑAS GORDAS",
    "longitude": -82.9167251586914,
    "latitude": 8.747903823852539,
    "education_level": "Unknown",
    "country_iso3_code": "PAN",
    "giga_id_school": "97878a2e-6731-3c30-9a76-0e2d146bead6",
    "school_data_source": null
  },
  {
    "school_name": "ESC. BELLA VISTA",
    "longitude": -82.91053009033203,
    "latitude": 8.320639610290527,
    "education_level": "Unknown",
    "country_iso3_code": "PAN",
    "giga_id_school": "a4a8ad48-6a84-3f6b-9066-f8d228602cc9",
    "school_data_source": null
  },
  {
    "school_name": "ESC. BONGO",
    "longitude": -82.9044189453125,
    "latitude": 8.405917167663574,
    "education_level": "Unknown",
    "country_iso3_code": "PAN",
    "giga_id_school": "739bed45-fb13-3698-b101-e2b4a008efd4",
    "school_data_source": null
  },
  {
    "school_name": "ESC. BURICA CENTRO",
    "longitude": -82.903076171875,
    "latitude": 8.39116096496582,
    "education_level": "Unknown",
    "country_iso3_code": "PAN",
    "giga_id_school": "b314907a-0745-3007-b8e0-b0f30582e875",
    "school_data_source": null
  },
  {
    "school_name": "ESC. COPAL",
    "longitude": -82.9012680053711,
    "latitude": 8.766847610473633,
    "education_level": "Unknown",
    "country_iso3_code": "PAN",
    "giga_id_school": "6a916b64-5472-38d0-8762-00bba21673c9",
    "school_data_source": null
  },
  {
    "school_name": "ESC. BALSA",
    "longitude": -82.89441680908203,
    "latitude": 8.428694725036621,
    "education_level": "Unknown",
    "country_iso3_code": "PAN",
    "giga_id_school": "3759d251-2c6e-30cd-b0fe-d549a7d38b60",
    "school_data_source": null
  },
  {
    "school_name": "ESC. SANGRILLO ARRIBA",
    "longitude": -82.89274597167969,
    "latitude": 8.343972206115723,
    "education_level": "Unknown",
    "country_iso3_code": "PAN",
    "giga_id_school": "6f210b39-df0a-3bfa-846e-3458755e8b16",
    "school_data_source": null
  },
  {
    "school_name": "ESC. MARGENES DE COROTU",
    "longitude": -82.88935089111328,
    "latitude": 8.270870208740234,
    "education_level": "Unknown",
    "country_iso3_code": "PAN",
    "giga_id_school": "199de0e9-6f88-3252-8ff4-a80fc10bff81",
    "school_data_source": null
  },
  {
    "school_name": "ESC. FINCA ZAPATERO",
    "longitude": -82.88886260986328,
    "latitude": 8.396194458007812,
    "education_level": "Unknown",
    "country_iso3_code": "PAN",
    "giga_id_school": "64380477-5398-3a91-9fd2-5d12618c59af",
    "school_data_source": null
  },
  {
    "school_name": "ESC. ALTO QUIEL",
    "longitude": -82.88844299316406,
    "latitude": 8.729373931884766,
    "education_level": "Unknown",
    "country_iso3_code": "PAN",
    "giga_id_school": "6c8133ae-c270-3f70-84b0-7ff9a66062b6",
    "school_data_source": null
  },
  {
    "school_name": "ESC. MAJAGUA",
    "longitude": -82.88802337646484,
    "latitude": 8.355639457702637,
    "education_level": "Unknown",
    "country_iso3_code": "PAN",
    "giga_id_school": "84d7fdec-da25-3a2f-916c-d0989cade5c0",
    "school_data_source": null
  },
  {
    "school_name": "ESC. SAN ANTONIO",
    "longitude": -82.88741302490234,
    "latitude": 8.371306419372559,
    "education_level": "Unknown",
    "country_iso3_code": "PAN",
    "giga_id_school": "b1162c5a-aee9-35c7-9d86-73cae64b857e",
    "school_data_source": null
  },
  {
    "school_name": "ESC. HIGUERON",
    "longitude": -82.88719177246094,
    "latitude": 8.408416748046875,
    "education_level": "Unknown",
    "country_iso3_code": "PAN",
    "giga_id_school": "ba35ecbd-0c23-3a0b-b119-8c6705b14901",
    "school_data_source": null
  },
  {
    "school_name": "ESC. HIGUITO",
    "longitude": -82.8860855102539,
    "latitude": 8.348138809204102,
    "education_level": "Unknown",
    "country_iso3_code": "PAN",
    "giga_id_school": "4c610aa5-5311-3cdf-8a9b-6d2c81d04cca",
    "school_data_source": null
  },
  {
    "school_name": "ESC. BOCA DE YORKIN",
    "longitude": -82.88282775878906,
    "latitude": 9.56702995300293,
    "education_level": "Unknown",
    "country_iso3_code": "PAN",
    "giga_id_school": "7cbda9a3-36b3-373c-a6d8-0deb0c996c32",
    "school_data_source": null
  },
  {
    "school_name": "ESC. BELLA VISTA",
    "longitude": -82.88275146484375,
    "latitude": 8.050640106201172,
    "education_level": "Unknown",
    "country_iso3_code": "PAN",
    "giga_id_school": "981ab57f-0f5d-3a38-991f-28e1237bd40e",
    "school_data_source": null
  },
  {
    "school_name": "ESC. ALTO DE YORKIN",
    "longitude": -82.88163757324219,
    "latitude": 9.56646728515625,
    "education_level": "Unknown",
    "country_iso3_code": "PAN",
    "giga_id_school": "d8785429-2f98-3ca3-bc45-4ce317984ddf",
    "school_data_source": null
  },
  {
    "school_name": "ESC. SAN BARTOLO LINEA",
    "longitude": -82.8808364868164,
    "latitude": 8.320616722106934,
    "education_level": "Unknown",
    "country_iso3_code": "PAN",
    "giga_id_school": "cb70cc04-52a0-3d81-b94f-6a4df9c1531b",
    "school_data_source": null
  },
  {
    "school_name": "ESC. CAÑA BLANCA",
    "longitude": -82.87718963623047,
    "latitude": 8.152029037475586,
    "education_level": "Unknown",
    "country_iso3_code": "PAN",
    "giga_id_school": "8d9945e4-2298-3087-ba87-78ca04ff3a3a",
    "school_data_source": null
  },
  {
    "school_name": "ESC. LAS MELLICITAS",
    "longitude": -82.87664031982422,
    "latitude": 8.190084457397461,
    "education_level": "Unknown",
    "country_iso3_code": "PAN",
    "giga_id_school": "65b3d69c-fc36-3d1f-a5e9-244ed72e41dc",
    "school_data_source": null
  },
  {
    "school_name": "ESC. SECUNDARIA FINCA BLANCO",
    "longitude": -82.87654876708984,
    "latitude": 8.38335132598877,
    "education_level": "Unknown",
    "country_iso3_code": "PAN",
    "giga_id_school": "4d00208c-3566-3b18-89cc-c4434d4c27ed",
    "school_data_source": null
  },
  {
    "school_name": "ESC. FINCA BLANCO",
    "longitude": -82.87584686279297,
    "latitude": 8.383756637573242,
    "education_level": "Unknown",
    "country_iso3_code": "PAN",
    "giga_id_school": "fa9a378a-b2ee-314b-bf6f-5cc93a6c8be0",
    "school_data_source": null
  },
  {
    "school_name": "ESC. ALMENDRO ASENTAMIENTO",
    "longitude": -82.87525177001953,
    "latitude": 8.427027702331543,
    "education_level": "Unknown",
    "country_iso3_code": "PAN",
    "giga_id_school": "72dbd57a-4b85-38c2-91bf-536a2d27f761",
    "school_data_source": null
  },
  {
    "school_name": "ESC. QUEBRADA DE TALLO",
    "longitude": -82.87458038330078,
    "latitude": 8.084134101867676,
    "education_level": "Unknown",
    "country_iso3_code": "PAN",
    "giga_id_school": "8fa41fdc-10ec-379e-ab5a-1ab49764a723",
    "school_data_source": null
  },
  {
    "school_name": "ESC. BRISAS DEL MAR",
    "longitude": -82.87408447265625,
    "latitude": 8.242151260375977,
    "education_level": "Unknown",
    "country_iso3_code": "PAN",
    "giga_id_school": "4325c86e-e232-38ae-8702-90db809cf778",
    "school_data_source": null
  },
  {
    "school_name": "ESC. MONTE VERDE",
    "longitude": -82.8730239868164,
    "latitude": 8.274806022644043,
    "education_level": "Unknown",
    "country_iso3_code": "PAN",
    "giga_id_school": "0a2583e2-5716-3a7e-b9b2-f3649140254f",
    "school_data_source": null
  },
  {
    "school_name": "C.E.B.G. TRES BRAZOS",
    "longitude": -82.87274932861328,
    "latitude": 8.348138809204102,
    "education_level": "Unknown",
    "country_iso3_code": "PAN",
    "giga_id_school": "e9ab3a6a-d560-3f05-8e29-0b6d65054e85",
    "school_data_source": null
  },
  {
    "school_name": "ESC. FLOR DE LIMA",
    "longitude": -82.87246704101562,
    "latitude": 8.260361671447754,
    "education_level": "Unknown",
    "country_iso3_code": "PAN",
    "giga_id_school": "a98cd310-0dec-310c-9d25-58d651404b8a",
    "school_data_source": null
  },
  {
    "school_name": "ESC. AGUA BUENA",
    "longitude": -82.87163543701172,
    "latitude": 8.302027702331543,
    "education_level": "Unknown",
    "country_iso3_code": "PAN",
    "giga_id_school": "de2f5247-d8d0-3bc1-8bdf-01db721b3edf",
    "school_data_source": null
  },
  {
    "school_name": "ESC. CAOBA 09",
    "longitude": -82.8699722290039,
    "latitude": 8.398416519165039,
    "education_level": "Unknown",
    "country_iso3_code": "PAN",
    "giga_id_school": "7d8872ba-fcf2-31bb-b50a-7a89f57488e2",
    "school_data_source": null
  },
  {
    "school_name": "ESC. NUEVA DELLY",
    "longitude": -82.86939239501953,
    "latitude": 8.709481239318848,
    "education_level": "Unknown",
    "country_iso3_code": "PAN",
    "giga_id_school": "426b7a2c-4b84-35d7-ac86-9d1bca08ba05",
    "school_data_source": null
  },
  {
    "school_name": "P.C. PUNTA BURICA",
    "longitude": -82.86831665039062,
    "latitude": 8.104517936706543,
    "education_level": "Unknown",
    "country_iso3_code": "PAN",
    "giga_id_school": "85aaa711-4fa1-39ce-b556-ba0f1787776c",
    "school_data_source": null
  },
  {
    "school_name": "ESC.PRIM.BIL. SAN VICENTE",
    "longitude": -82.86608123779297,
    "latitude": 8.260361671447754,
    "education_level": "Unknown",
    "country_iso3_code": "PAN",
    "giga_id_school": "33520c97-2f8f-325c-93cb-9988ddf11cf2",
    "school_data_source": null
  },
  {
    "school_name": "ESC. PUNTA BURICA",
    "longitude": -82.86569213867188,
    "latitude": 8.103443145751953,
    "education_level": "Unknown",
    "country_iso3_code": "PAN",
    "giga_id_school": "46e2a668-c109-3105-858e-dd49a2793344",
    "school_data_source": null
  },
  {
    "school_name": "ESC. LA UNION INTERNACIONAL",
    "longitude": -82.86544036865234,
    "latitude": 8.840141296386719,
    "education_level": "Unknown",
    "country_iso3_code": "PAN",
    "giga_id_school": "ac6a3b81-f56c-314b-8c76-ec8b7b56c489",
    "school_data_source": null
  },
  {
    "school_name": "ESC. EL CERRON",
    "longitude": -82.86528778076172,
    "latitude": 8.763113021850586,
    "education_level": "Unknown",
    "country_iso3_code": "PAN",
    "giga_id_school": "540221cd-ff5f-3a04-b611-6388a8e899cd",
    "school_data_source": null
  },
  {
    "school_name": "ESC. SECUNDARIA RENACIMIENTO",
    "longitude": -82.865234375,
    "latitude": 8.8301420211792,
    "education_level": "Unknown",
    "country_iso3_code": "PAN",
    "giga_id_school": "108b917f-c47f-3059-b6ad-e05a06d19f5a",
    "school_data_source": null
  },
  {
    "school_name": "E.S.N.O. DE RENACIMIENTO (EXT)",
    "longitude": -82.86521911621094,
    "latitude": 8.830185890197754,
    "education_level": "Unknown",
    "country_iso3_code": "PAN",
    "giga_id_school": "e8756a5c-241d-3982-9deb-735909f6abcc",
    "school_data_source": null
  },
  {
    "school_name": "ESC. BAJO CERRON",
    "longitude": -82.86358642578125,
    "latitude": 8.74308967590332,
    "education_level": "Unknown",
    "country_iso3_code": "PAN",
    "giga_id_school": "e0362134-4464-3339-a596-4133ac2c0779",
    "school_data_source": null
  },
  {
    "school_name": "ESC. PALMITO",
    "longitude": -82.86357879638672,
    "latitude": 8.406749725341797,
    "education_level": "Unknown",
    "country_iso3_code": "PAN",
    "giga_id_school": "aa8d79d7-5b6c-38c6-acb0-3d1887ff5016",
    "school_data_source": null
  },
  {
    "school_name": "ESC. ALMENDRO ACUEDUCTO",
    "longitude": -82.86247253417969,
    "latitude": 8.423138618469238,
    "education_level": "Unknown",
    "country_iso3_code": "PAN",
    "giga_id_school": "0f1e318b-c35b-38a1-8c7c-69e06ab3f535",
    "school_data_source": null
  },
  {
    "school_name": "ESC. CAOBA 01",
    "longitude": -82.8622055053711,
    "latitude": 8.404887199401855,
    "education_level": "Unknown",
    "country_iso3_code": "PAN",
    "giga_id_school": "1814dc0b-cc9e-33d9-b99a-285748fd38af",
    "school_data_source": null
  },
  {
    "school_name": "ESC. ALTAMIRA",
    "longitude": -82.86219787597656,
    "latitude": 8.793313980102539,
    "education_level": "Unknown",
    "country_iso3_code": "PAN",
    "giga_id_school": "e273c139-ac37-37a8-98b1-659215b4a3f5",
    "school_data_source": null
  },
  {
    "school_name": "ESC. TOMAS ARMUELLES",
    "longitude": -82.8619155883789,
    "latitude": 8.268972396850586,
    "education_level": "Unknown",
    "country_iso3_code": "PAN",
    "giga_id_school": "12419a8f-eb17-31fd-b918-456eed281da8",
    "school_data_source": null
  },
  {
    "school_name": "ESC. BOCA DE YORKIN ANEXA",
    "longitude": -82.86164093017578,
    "latitude": 9.588689804077148,
    "education_level": "Unknown",
    "country_iso3_code": "PAN",
    "giga_id_school": "cbcb363d-dfcb-3684-91e2-6eababfd82f6",
    "school_data_source": null
  },
  {
    "school_name": "ESC. LOS ANGELES",
    "longitude": -82.8614501953125,
    "latitude": 8.283605575561523,
    "education_level": "Unknown",
    "country_iso3_code": "PAN",
    "giga_id_school": "d5bbb1ff-97ec-3dcf-8f2d-3600b777c143",
    "school_data_source": null
  },
  {
    "school_name": "ESC.PRIM.BIL. RIO SERENO",
    "longitude": -82.86042022705078,
    "latitude": 8.819811820983887,
    "education_level": "Unknown",
    "country_iso3_code": "PAN",
    "giga_id_school": "c1036bba-522d-31c9-94ea-fcfc22f32cff",
    "school_data_source": null
  },
  {
    "school_name": "ESC. SECUNDARIA PUERTO ARMUELLES",
    "longitude": -82.85969543457031,
    "latitude": 8.272583961486816,
    "education_level": "Unknown",
    "country_iso3_code": "PAN",
    "giga_id_school": "99c41ec2-45ba-3de9-b896-e6587a701353",
    "school_data_source": null
  },
  {
    "school_name": "P.C. COROZO",
    "longitude": -82.85919952392578,
    "latitude": 8.274271965026855,
    "education_level": "Unknown",
    "country_iso3_code": "PAN",
    "giga_id_school": "08bfff3f-84d9-344c-ba98-92acbe1143f8",
    "school_data_source": null
  },
  {
    "school_name": "ESC. PUERTO ARMUELLES",
    "longitude": -82.85913848876953,
    "latitude": 8.273138999938965,
    "education_level": "Unknown",
    "country_iso3_code": "PAN",
    "giga_id_school": "0e9d21fc-47f8-387e-a05d-648523c1833d",
    "school_data_source": null
  },
  {
    "school_name": "ESC. PUERTO BALSA",
    "longitude": -82.85858154296875,
    "latitude": 8.076473236083984,
    "education_level": "Unknown",
    "country_iso3_code": "PAN",
    "giga_id_school": "4c9d4b16-3d05-33cd-a95d-fe0913148ce2",
    "school_data_source": null
  },
  {
    "school_name": "ESC. RIO MAR",
    "longitude": -82.85746765136719,
    "latitude": 8.278695106506348,
    "education_level": "Unknown",
    "country_iso3_code": "PAN",
    "giga_id_school": "d65cb1a1-8f60-3cc5-ae42-45b57fa71518",
    "school_data_source": null
  },
  {
    "school_name": "ESC. CHUCHUPATE",
    "longitude": -82.85697937011719,
    "latitude": 8.43398666381836,
    "education_level": "Unknown",
    "country_iso3_code": "PAN",
    "giga_id_school": "f092b2f4-659e-3076-8f66-df8f0b55399b",
    "school_data_source": null
  },
  {
    "school_name": "ESC. BAJOS DE CHIRIQUI",
    "longitude": -82.85191345214844,
    "latitude": 8.730637550354004,
    "education_level": "Unknown",
    "country_iso3_code": "PAN",
    "giga_id_school": "93d66076-1253-32b0-81aa-2ce7d253ab5c",
    "school_data_source": null
  },
  {
    "school_name": "ESC. JOBITO",
    "longitude": -82.84996795654297,
    "latitude": 8.375916481018066,
    "education_level": "Unknown",
    "country_iso3_code": "PAN",
    "giga_id_school": "e13c1591-835e-30d1-a962-0395b486314d",
    "school_data_source": null
  },
  {
    "school_name": "ESC.BIL. EL PALMAR",
    "longitude": -82.84969329833984,
    "latitude": 8.3053617477417,
    "education_level": "Unknown",
    "country_iso3_code": "PAN",
    "giga_id_school": "6e2ab020-ef82-354b-8be8-bb348fdc1b3e",
    "school_data_source": null
  },
  {
    "school_name": "E.S.N.O. PUERTO ARMUELLES (EXT)",
    "longitude": -82.84608459472656,
    "latitude": 8.306472778320312,
    "education_level": "Unknown",
    "country_iso3_code": "PAN",
    "giga_id_school": "bad2eaf9-2d11-3f45-b30e-03403b8903eb",
    "school_data_source": null
  },
  {
    "school_name": "ESC. CUERVITO",
    "longitude": -82.84202575683594,
    "latitude": 8.465414047241211,
    "education_level": "Unknown",
    "country_iso3_code": "PAN",
    "giga_id_school": "39170826-295c-3c4f-8e41-4a05a1c5ebf4",
    "school_data_source": null
  },
  {
    "school_name": "ESC. PASO CANOA ABAJO",
    "longitude": -82.84080505371094,
    "latitude": 8.41813850402832,
    "education_level": "Unknown",
    "country_iso3_code": "PAN",
    "giga_id_school": "be57f31c-0920-3808-97e2-d59397d1d4ac",
    "school_data_source": null
  },
  {
    "school_name": "ESC. QUEBRADA DE VUELTAS",
    "longitude": -82.83990478515625,
    "latitude": 8.67003345489502,
    "education_level": "Unknown",
    "country_iso3_code": "PAN",
    "giga_id_school": "77c8588b-5e90-3e93-a028-34b4cdad7ce3",
    "school_data_source": null
  },
  {
    "school_name": "ESC. COLORADO K-32",
    "longitude": -82.83985900878906,
    "latitude": 8.417476654052734,
    "education_level": "Unknown",
    "country_iso3_code": "PAN",
    "giga_id_school": "79fc73f7-df13-3603-8691-bf207bf88c46",
    "school_data_source": null
  },
  {
    "school_name": "ESC. LECHOZA",
    "longitude": -82.83552551269531,
    "latitude": 8.375916481018066,
    "education_level": "Unknown",
    "country_iso3_code": "PAN",
    "giga_id_school": "5753b06f-446a-304d-b060-b4d2ca12cdfa",
    "school_data_source": null
  },
  {
    "school_name": "ESC. OJO DE AGUA",
    "longitude": -82.83494567871094,
    "latitude": 8.646156311035156,
    "education_level": "Unknown",
    "country_iso3_code": "PAN",
    "giga_id_school": "c113608c-57b8-3817-9572-d2ca6c7d5776",
    "school_data_source": null
  },
  {
    "school_name": "ESC. PROGRESO",
    "longitude": -82.83489227294922,
    "latitude": 8.4530668258667,
    "education_level": "Unknown",
    "country_iso3_code": "PAN",
    "giga_id_school": "72bf2f75-b163-3692-a102-2e1c457a08fa",
    "school_data_source": null
  },
  {
    "school_name": "CTRO. DE EDUC. MEDIA DE PROGRESO",
    "longitude": -82.83473205566406,
    "latitude": 8.451821327209473,
    "education_level": "Unknown",
    "country_iso3_code": "PAN",
    "giga_id_school": "4d670e2e-8497-3bed-99d9-1e48f3c9286f",
    "school_data_source": null
  },
  {
    "school_name": "ESC. LA CEIBA",
    "longitude": -82.83441162109375,
    "latitude": 8.350083351135254,
    "education_level": "Unknown",
    "country_iso3_code": "PAN",
    "giga_id_school": "d529a097-d21e-3c3d-8328-013655a6ffa3",
    "school_data_source": null
  },
  {
    "school_name": "ESC. GUAYACAN",
    "longitude": -82.83381652832031,
    "latitude": 8.349678993225098,
    "education_level": "Unknown",
    "country_iso3_code": "PAN",
    "giga_id_school": "af19aa74-49ba-33aa-8550-ac5a1bb9a6bd",
    "school_data_source": null
  },
  {
    "school_name": "ESC. SAN ISIDRO",
    "longitude": -82.83052825927734,
    "latitude": 8.53369426727295,
    "education_level": "Unknown",
    "country_iso3_code": "PAN",
    "giga_id_school": "32c0bab9-ebf0-37b3-b016-0cbbb5f654ed",
    "school_data_source": null
  },
  {
    "school_name": "ESC. MIRAFLORES",
    "longitude": -82.83052062988281,
    "latitude": 8.843964576721191,
    "education_level": "Unknown",
    "country_iso3_code": "PAN",
    "giga_id_school": "2bbb00ff-6d4c-36cb-95cf-a461246acd2c",
    "school_data_source": null
  },
  {
    "school_name": "ESC. COLORADO CENTRO",
    "longitude": -82.82771301269531,
    "latitude": 8.422221183776855,
    "education_level": "Unknown",
    "country_iso3_code": "PAN",
    "giga_id_school": "31792e45-d099-357c-a2a7-5ab1c56c2c94",
    "school_data_source": null
  },
  {
    "school_name": "ESC. PALMAR SUR",
    "longitude": -82.82728576660156,
    "latitude": 8.30061149597168,
    "education_level": "Unknown",
    "country_iso3_code": "PAN",
    "giga_id_school": "f4d6d10e-3c97-3813-9786-d40291946205",
    "school_data_source": null
  },
  {
    "school_name": "ESC. JOCOTE",
    "longitude": -82.82608032226562,
    "latitude": 8.374805450439453,
    "education_level": "Unknown",
    "country_iso3_code": "PAN",
    "giga_id_school": "7787b1f8-1485-3acb-a25a-659d38de4e0a",
    "school_data_source": null
  },
  {
    "school_name": "I.P.T. MONTE LIRIO",
    "longitude": -82.82363891601562,
    "latitude": 8.79378604888916,
    "education_level": "Unknown",
    "country_iso3_code": "PAN",
    "giga_id_school": "7d47959c-b21e-3381-896b-e3a88ee9d6f4",
    "school_data_source": null
  },
  {
    "school_name": "ESC. PALMARITO",
    "longitude": -82.82283782958984,
    "latitude": 8.823409080505371,
    "education_level": "Unknown",
    "country_iso3_code": "PAN",
    "giga_id_school": "4ab84eee-f659-3e63-a81b-483b6f998af4",
    "school_data_source": null
  },
  {
    "school_name": "ESC. AGUA SALUD",
    "longitude": -82.82191467285156,
    "latitude": 9.507301330566406,
    "education_level": "Unknown",
    "country_iso3_code": "PAN",
    "giga_id_school": "d65771a2-4f55-3663-8cec-620746c19477",
    "school_data_source": null
  },
  {
    "school_name": "ESC. BERBA",
    "longitude": -82.82080841064453,
    "latitude": 8.386380195617676,
    "education_level": "Unknown",
    "country_iso3_code": "PAN",
    "giga_id_school": "b8f7b495-38fb-3a07-994a-40be5ea9ed04",
    "school_data_source": null
  },
  {
    "school_name": "C.E.B.G. CAIZAN FUERTES CAMINOS",
    "longitude": -82.8199691772461,
    "latitude": 8.74313735961914,
    "education_level": "Unknown",
    "country_iso3_code": "PAN",
    "giga_id_school": "5acdace8-05b4-3b79-b01a-e0751db7bd42",
    "school_data_source": null
  },
  {
    "school_name": "ESC. MALAGUETO",
    "longitude": -82.8185806274414,
    "latitude": 8.349528312683105,
    "education_level": "Unknown",
    "country_iso3_code": "PAN",
    "giga_id_school": "57fea4a4-3d06-35a9-aae7-23476da3ad5a",
    "school_data_source": null
  },
  {
    "school_name": "ESC. MANACA CIVIL",
    "longitude": -82.81784057617188,
    "latitude": 8.32585334777832,
    "education_level": "Unknown",
    "country_iso3_code": "PAN",
    "giga_id_school": "28ef0de1-0ec7-3ebe-918d-67207ed61138",
    "school_data_source": null
  },
  {
    "school_name": "ESC. QUEBRADA GRANDE",
    "longitude": -82.81747436523438,
    "latitude": 8.515360832214355,
    "education_level": "Unknown",
    "country_iso3_code": "PAN",
    "giga_id_school": "c1b05918-ab86-307f-b5d4-72ff0cac92b5",
    "school_data_source": null
  },
  {
    "school_name": "ESC. KILOMETRO 24",
    "longitude": -82.81636047363281,
    "latitude": 8.326194763183594,
    "education_level": "Unknown",
    "country_iso3_code": "PAN",
    "giga_id_school": "1ebe2c10-f0f8-3ea3-a1c9-3db49580f9f2",
    "school_data_source": null
  },
  {
    "school_name": "ESC. JACU",
    "longitude": -82.81607818603516,
    "latitude": 8.478693962097168,
    "education_level": "Unknown",
    "country_iso3_code": "PAN",
    "giga_id_school": "17f106ae-b2c9-3ff3-838d-5f36678888ea",
    "school_data_source": null
  },
  {
    "school_name": "ESC. BREÑON",
    "longitude": -82.81564331054688,
    "latitude": 8.628752708435059,
    "education_level": "Unknown",
    "country_iso3_code": "PAN",
    "giga_id_school": "96010209-dc1d-3002-9ed6-6429fe95f98f",
    "school_data_source": null
  },
  {
    "school_name": "I.P.T. BARU",
    "longitude": -82.8130874633789,
    "latitude": 8.339387893676758,
    "education_level": "Unknown",
    "country_iso3_code": "PAN",
    "giga_id_school": "d72f0d27-58c1-3734-a534-eeb60828cc86",
    "school_data_source": null
  },
  {
    "school_name": "ESC. ALTO LA MINA",
    "longitude": -82.81243133544922,
    "latitude": 8.705276489257812,
    "education_level": "Unknown",
    "country_iso3_code": "PAN",
    "giga_id_school": "7cd876d3-ed53-3fc6-b1bb-863f032a4f9f",
    "school_data_source": null
  },
  {
    "school_name": "C.E.B.G. MADRE VIEJA",
    "longitude": -82.80963897705078,
    "latitude": 8.41055965423584,
    "education_level": "Unknown",
    "country_iso3_code": "PAN",
    "giga_id_school": "73d1bfea-c1e7-3a9a-9b12-c8bb7c3d66db",
    "school_data_source": null
  },
  {
    "school_name": "ESC. MANACA NORTE",
    "longitude": -82.80691528320312,
    "latitude": 8.339805603027344,
    "education_level": "Unknown",
    "country_iso3_code": "PAN",
    "giga_id_school": "5d04faf6-cd55-3813-97e8-bfc9410e077e",
    "school_data_source": null
  },
  {
    "school_name": "ESC. RIO GUISADO ANEXA SANTA CLARA",
    "longitude": -82.80538177490234,
    "latitude": 8.827718734741211,
    "education_level": "Unknown",
    "country_iso3_code": "PAN",
    "giga_id_school": "4dbab8b4-524b-35d2-a3bc-05e777810ce8",
    "school_data_source": null
  },
  {
    "school_name": "ESC. CELMIRA",
    "longitude": -82.80191802978516,
    "latitude": 8.548693656921387,
    "education_level": "Unknown",
    "country_iso3_code": "PAN",
    "giga_id_school": "08f34a5a-62c1-3ad8-a3a9-d17e2ad9426a",
    "school_data_source": null
  },
  {
    "school_name": "ESC. SAN PEDRO",
    "longitude": -82.80136108398438,
    "latitude": 8.562582969665527,
    "education_level": "Unknown",
    "country_iso3_code": "PAN",
    "giga_id_school": "e131012d-9945-3e27-93c0-2c0e7e0b0609",
    "school_data_source": null
  },
  {
    "school_name": "ESC. AGUACATON",
    "longitude": -82.80107879638672,
    "latitude": 8.347583770751953,
    "education_level": "Unknown",
    "country_iso3_code": "PAN",
    "giga_id_school": "4f7c3691-e2d6-3690-ae21-36f90298aae7",
    "school_data_source": null
  },
  {
    "school_name": "ESC. DOMINICAL",
    "longitude": -82.79969787597656,
    "latitude": 8.671048164367676,
    "education_level": "Unknown",
    "country_iso3_code": "PAN",
    "giga_id_school": "82b6810f-18ab-3085-b35b-ca18e682a051",
    "school_data_source": null
  },
  {
    "school_name": "ESC. SALSIPUEDES",
    "longitude": -82.79849243164062,
    "latitude": 8.585392951965332,
    "education_level": "Unknown",
    "country_iso3_code": "PAN",
    "giga_id_school": "573214bb-0158-3d56-97b7-cda972321b40",
    "school_data_source": null
  },
  {
    "school_name": "ESC. LAS AZULES",
    "longitude": -82.79206085205078,
    "latitude": 8.456544876098633,
    "education_level": "Unknown",
    "country_iso3_code": "PAN",
    "giga_id_school": "c08f9362-ef64-3a02-95ea-0f9dac74cc5e",
    "school_data_source": null
  },
  {
    "school_name": "ESC. LA ESPERANZA",
    "longitude": -82.7896957397461,
    "latitude": 8.406472206115723,
    "education_level": "Unknown",
    "country_iso3_code": "PAN",
    "giga_id_school": "b44bfd7e-265a-3776-9bd1-fb48d8b0c6fc",
    "school_data_source": null
  },
  {
    "school_name": "ESC. ASERRIO",
    "longitude": -82.7880859375,
    "latitude": 8.489694595336914,
    "education_level": "Unknown",
    "country_iso3_code": "PAN",
    "giga_id_school": "fdf1c5b7-6542-3c3c-95cb-96292c1d641f",
    "school_data_source": null
  },
  {
    "school_name": "ESC. SAN ANTONIO ABAJO",
    "longitude": -82.78804016113281,
    "latitude": 8.794288635253906,
    "education_level": "Unknown",
    "country_iso3_code": "PAN",
    "giga_id_school": "c2a723ac-fd11-3319-bf08-a089913e0162",
    "school_data_source": null
  },
  {
    "school_name": "ESC. LA LIBERTAD",
    "longitude": -82.7879409790039,
    "latitude": 8.512529373168945,
    "education_level": "Unknown",
    "country_iso3_code": "PAN",
    "giga_id_school": "21e74030-301e-3bce-b265-fed46bcef6ff",
    "school_data_source": null
  },
  {
    "school_name": "ESC. CAISAN ARRIBA",
    "longitude": -82.78768157958984,
    "latitude": 8.768773078918457,
    "education_level": "Unknown",
    "country_iso3_code": "PAN",
    "giga_id_school": "f87228b2-4f0b-3b87-a981-ed7ed841685b",
    "school_data_source": null
  },
  {
    "school_name": "ESC. SECUNDARIA DE ASERRIO",
    "longitude": -82.78730773925781,
    "latitude": 8.490163803100586,
    "education_level": "Unknown",
    "country_iso3_code": "PAN",
    "giga_id_school": "b2f04e30-7e0c-3b30-aa40-e271a790b436",
    "school_data_source": null
  },
  {
    "school_name": "ESC. BAITUN ABAJO",
    "longitude": -82.78719329833984,
    "latitude": 8.645915985107422,
    "education_level": "Unknown",
    "country_iso3_code": "PAN",
    "giga_id_school": "43b094ca-3a09-36d2-b6ca-3dba827eb857",
    "school_data_source": null
  },
  {
    "school_name": "ESC. EL PORTON",
    "longitude": -82.78636169433594,
    "latitude": 8.565361022949219,
    "education_level": "Unknown",
    "country_iso3_code": "PAN",
    "giga_id_school": "e038873e-71b3-3717-824a-491906bff5e5",
    "school_data_source": null
  },
  {
    "school_name": "ESC. DOS CAÑOS",
    "longitude": -82.78385925292969,
    "latitude": 9.580634117126465,
    "education_level": "Unknown",
    "country_iso3_code": "PAN",
    "giga_id_school": "5b0ecaf2-94e9-370a-a271-2657341448d9",
    "school_data_source": null
  },
  {
    "school_name": "ESC. ALTO CHIRIQUI",
    "longitude": -82.78302764892578,
    "latitude": 8.578971862792969,
    "education_level": "Unknown",
    "country_iso3_code": "PAN",
    "giga_id_school": "17ced77c-ec46-304b-b2b4-524474229c2d",
    "school_data_source": null
  },
  {
    "school_name": "ESC. BAITUN ARRIBA",
    "longitude": -82.78168487548828,
    "latitude": 8.653583526611328,
    "education_level": "Unknown",
    "country_iso3_code": "PAN",
    "giga_id_school": "ef963973-fe89-377e-9a4f-2f670d176508",
    "school_data_source": null
  },
  {
    "school_name": "ESC. SANTA CLARA",
    "longitude": -82.78009033203125,
    "latitude": 8.836501121520996,
    "education_level": "Unknown",
    "country_iso3_code": "PAN",
    "giga_id_school": "d46ff409-2771-33cf-a9d1-6b54b46627d6",
    "school_data_source": null
  },
  {
    "school_name": "ESC. GARICHE",
    "longitude": -82.77969360351562,
    "latitude": 8.487027168273926,
    "education_level": "Unknown",
    "country_iso3_code": "PAN",
    "giga_id_school": "45161aa4-e49e-31b5-a587-58d0a05cf2f7",
    "school_data_source": null
  },
  {
    "school_name": "ESC. LOS OLIVOS",
    "longitude": -82.7794189453125,
    "latitude": 8.326194763183594,
    "education_level": "Unknown",
    "country_iso3_code": "PAN",
    "giga_id_school": "c944f4b8-4a3b-3f96-9aaf-5c6b85450f0f",
    "school_data_source": null
  },
  {
    "school_name": "ESC. PIEDRA DE CANDELA",
    "longitude": -82.77851867675781,
    "latitude": 8.87509536743164,
    "education_level": "Unknown",
    "country_iso3_code": "PAN",
    "giga_id_school": "654d50cf-8272-37c7-8605-7bc6c47b580e",
    "school_data_source": null
  },
  {
    "school_name": "ESC. EL ROBLE",
    "longitude": -82.77608489990234,
    "latitude": 8.512582778930664,
    "education_level": "Unknown",
    "country_iso3_code": "PAN",
    "giga_id_school": "1a672d72-632f-3119-a889-729d6c636064",
    "school_data_source": null
  },
  {
    "school_name": "ESC. CERRO PAJA",
    "longitude": -82.77605438232422,
    "latitude": 8.721617698669434,
    "education_level": "Unknown",
    "country_iso3_code": "PAN",
    "giga_id_school": "4d7db035-0fdf-3b8e-9152-e6ccf1623462",
    "school_data_source": null
  },
  {
    "school_name": "ESC. SANTA CLARA ABAJO",
    "longitude": -82.77552795410156,
    "latitude": 8.815637588500977,
    "education_level": "Unknown",
    "country_iso3_code": "PAN",
    "giga_id_school": "ed5fb15b-8454-318d-9ebf-d95b4fb9529b",
    "school_data_source": null
  },
  {
    "school_name": "ESC. EXQUISITO",
    "longitude": -82.77246856689453,
    "latitude": 8.53980541229248,
    "education_level": "Unknown",
    "country_iso3_code": "PAN",
    "giga_id_school": "d287bc16-85d1-3a47-b383-8aeceed406c1",
    "school_data_source": null
  },
  {
    "school_name": "ESC. SAN ANTONIO ARRIBA",
    "longitude": -82.77166748046875,
    "latitude": 8.799487113952637,
    "education_level": "Unknown",
    "country_iso3_code": "PAN",
    "giga_id_school": "c26ab06a-a930-303f-ba3c-5e498fd6abd0",
    "school_data_source": null
  },
  {
    "school_name": "ESC. ALTO DOS CAÑOS ANEXA",
    "longitude": -82.77052307128906,
    "latitude": 9.550911903381348,
    "education_level": "Unknown",
    "country_iso3_code": "PAN",
    "giga_id_school": "9a95b7c2-5eed-373e-91f9-c223c6c50dce",
    "school_data_source": null
  },
  {
    "school_name": "ESC. TECA",
    "longitude": -82.76714324951172,
    "latitude": 8.362600326538086,
    "education_level": "Unknown",
    "country_iso3_code": "PAN",
    "giga_id_school": "a310b70a-688f-303c-9a22-db1331154d2c",
    "school_data_source": null
  },
  {
    "school_name": "ESC. GARICHE ABAJO",
    "longitude": -82.76496887207031,
    "latitude": 8.455916404724121,
    "education_level": "Unknown",
    "country_iso3_code": "PAN",
    "giga_id_school": "84ae05f4-28ae-34d6-be41-393b6e61e7e1",
    "school_data_source": null
  },
  {
    "school_name": "ESC. COROTU CIVIL",
    "longitude": -82.7624740600586,
    "latitude": 8.377861022949219,
    "education_level": "Unknown",
    "country_iso3_code": "PAN",
    "giga_id_school": "bfe85a3a-1552-3d45-be13-88b05df803a9",
    "school_data_source": null
  },
  {
    "school_name": "ESC. CIPRES",
    "longitude": -82.76231384277344,
    "latitude": 8.330159187316895,
    "education_level": "Unknown",
    "country_iso3_code": "PAN",
    "giga_id_school": "2e4b427f-9425-355d-bb86-96b747357bc7",
    "school_data_source": null
  },
  {
    "school_name": "ESC. SANTA CLARA",
    "longitude": -82.76024627685547,
    "latitude": 9.49813461303711,
    "education_level": "Unknown",
    "country_iso3_code": "PAN",
    "giga_id_school": "d2c06cc6-c5c9-3082-b671-b9f8a8476995",
    "school_data_source": null
  },
  {
    "school_name": "ESC. SANTA CRUZ",
    "longitude": -82.76018524169922,
    "latitude": 8.645856857299805,
    "education_level": "Unknown",
    "country_iso3_code": "PAN",
    "giga_id_school": "3a402db0-33cb-31d5-874b-e59403b4c69d",
    "school_data_source": null
  },
  {
    "school_name": "ESC. SAN MIGUEL DE EXQUISITO",
    "longitude": -82.75775146484375,
    "latitude": 8.55008316040039,
    "education_level": "Unknown",
    "country_iso3_code": "PAN",
    "giga_id_school": "5fd5074d-c412-31f5-a711-844fc6ebefd4",
    "school_data_source": null
  },
  {
    "school_name": "ESC. BONITA",
    "longitude": -82.7554702758789,
    "latitude": 8.615467071533203,
    "education_level": "Unknown",
    "country_iso3_code": "PAN",
    "giga_id_school": "d6c10a09-2501-329a-8e83-526f4ad81792",
    "school_data_source": null
  },
  {
    "school_name": "ESC. SALITRAL",
    "longitude": -82.75239562988281,
    "latitude": 8.667351722717285,
    "education_level": "Unknown",
    "country_iso3_code": "PAN",
    "giga_id_school": "d88f7003-38d0-3c2b-b0c4-fb870e78e777",
    "school_data_source": null
  },
  {
    "school_name": "C.E.B.G. BILINGÜE NIEVECITA",
    "longitude": -82.75080108642578,
    "latitude": 9.546822547912598,
    "education_level": "Unknown",
    "country_iso3_code": "PAN",
    "giga_id_school": "49006d77-6fe2-3960-8baa-82942601d020",
    "school_data_source": null
  },
  {
    "school_name": "ESC. LAS PALMITAS",
    "longitude": -82.75061798095703,
    "latitude": 9.547786712646484,
    "education_level": "Unknown",
    "country_iso3_code": "PAN",
    "giga_id_school": "2b094e52-05f9-3d9f-b83b-720c5e17fac0",
    "school_data_source": null
  },
  {
    "school_name": "ESC. BACO",
    "longitude": -82.7494125366211,
    "latitude": 8.358695030212402,
    "education_level": "Unknown",
    "country_iso3_code": "PAN",
    "giga_id_school": "8af9a8c1-f928-35e6-9253-3f31de645737",
    "school_data_source": null
  },
  {
    "school_name": "ESC. ALTO GARICHE",
    "longitude": -82.74774932861328,
    "latitude": 8.52591609954834,
    "education_level": "Unknown",
    "country_iso3_code": "PAN",
    "giga_id_school": "0b8e5486-30b2-35cb-b484-697b4d869c60",
    "school_data_source": null
  },
  {
    "school_name": "ESC. ALTO BONITO",
    "longitude": -82.74607849121094,
    "latitude": 8.713971138000488,
    "education_level": "Unknown",
    "country_iso3_code": "PAN",
    "giga_id_school": "dc8128d9-bf2b-33c6-9a70-5ad763f02631",
    "school_data_source": null
  },
  {
    "school_name": "ESC. DOS CAÑOS ABAJO",
    "longitude": -82.74536895751953,
    "latitude": 9.546407699584961,
    "education_level": "Unknown",
    "country_iso3_code": "PAN",
    "giga_id_school": "60af6cfb-3018-3f67-aacb-51836a73f375",
    "school_data_source": null
  },
  {
    "school_name": "COL. NIEVECITA",
    "longitude": -82.7392807006836,
    "latitude": 9.543403625488281,
    "education_level": "Unknown",
    "country_iso3_code": "PAN",
    "giga_id_school": "dc58c452-ccf0-3168-9ff0-1a36073ecaa7",
    "school_data_source": null
  },
  {
    "school_name": "ESC. CAIZAN PRIMAVERA",
    "longitude": -82.73774719238281,
    "latitude": 8.782859802246094,
    "education_level": "Unknown",
    "country_iso3_code": "PAN",
    "giga_id_school": "1386e351-ea65-3a4d-8934-dd52845fc952",
    "school_data_source": null
  },
  {
    "school_name": "ESC. QUEBRADA NEGRA",
    "longitude": -82.73191833496094,
    "latitude": 8.481194496154785,
    "education_level": "Unknown",
    "country_iso3_code": "PAN",
    "giga_id_school": "23cb0c2c-1fd3-34b9-93b2-d721c81c9988",
    "school_data_source": null
  },
  {
    "school_name": "ESC. SAN FRANCISCO",
    "longitude": -82.72997283935547,
    "latitude": 8.63619327545166,
    "education_level": "Unknown",
    "country_iso3_code": "PAN",
    "giga_id_school": "6b2e56a3-afb6-35a3-a7f0-7f520c046755",
    "school_data_source": null
  },
  {
    "school_name": "ESC. GOMEZ",
    "longitude": -82.72865295410156,
    "latitude": 8.559433937072754,
    "education_level": "Unknown",
    "country_iso3_code": "PAN",
    "giga_id_school": "1439ba3c-69da-3419-8e5a-e64593ba8d6d",
    "school_data_source": null
  },
  {
    "school_name": "ESC. BILINGÜE BARRANCO ADENTRO",
    "longitude": -82.72858428955078,
    "latitude": 9.533411979675293,
    "education_level": "Unknown",
    "country_iso3_code": "PAN",
    "giga_id_school": "a3da87d2-6fd8-3287-88fd-b4f68b240272",
    "school_data_source": null
  },
  {
    "school_name": "ESC. SAN ANDRES",
    "longitude": -82.72802734375,
    "latitude": 8.604249000549316,
    "education_level": "Unknown",
    "country_iso3_code": "PAN",
    "giga_id_school": "4740f37f-e413-3fdd-a240-3f65e69bbd80",
    "school_data_source": null
  },
  {
    "school_name": "ESC. GOMEZ ABAJO",
    "longitude": -82.7221908569336,
    "latitude": 8.55341625213623,
    "education_level": "Unknown",
    "country_iso3_code": "PAN",
    "giga_id_school": "f945ee07-04b1-3c1a-91aa-2b4edb442f92",
    "school_data_source": null
  },
  {
    "school_name": "ESC. CHIRIQUI VIEJO",
    "longitude": -82.71858215332031,
    "latitude": 8.354528427124023,
    "education_level": "Unknown",
    "country_iso3_code": "PAN",
    "giga_id_school": "dc0d2245-9c2b-367e-bc0d-954d3d331081",
    "school_data_source": null
  },
  {
    "school_name": "ESC. BARRANCO MEDIO",
    "longitude": -82.71607971191406,
    "latitude": 9.526745796203613,
    "education_level": "Unknown",
    "country_iso3_code": "PAN",
    "giga_id_school": "0f2441ef-42a1-3c62-aba9-0f446916f056",
    "school_data_source": null
  },
  {
    "school_name": "P.C. DIVALA",
    "longitude": -82.7159194946289,
    "latitude": 8.412074089050293,
    "education_level": "Unknown",
    "country_iso3_code": "PAN",
    "giga_id_school": "80db922e-d4c9-3af5-84a4-c4af2fc6b231",
    "school_data_source": null
  },
  {
    "school_name": "ESC.BIL. DIVALA",
    "longitude": -82.71552276611328,
    "latitude": 8.413416862487793,
    "education_level": "Unknown",
    "country_iso3_code": "PAN",
    "giga_id_school": "bd8fa2f0-b6b5-3054-a814-ce100ef87f96",
    "school_data_source": null
  },
  {
    "school_name": "ESC. LAS MERCEDES",
    "longitude": -82.71395874023438,
    "latitude": 8.444249153137207,
    "education_level": "Unknown",
    "country_iso3_code": "PAN",
    "giga_id_school": "55768acd-c758-3a34-9b58-934c7f91224c",
    "school_data_source": null
  },
  {
    "school_name": "ESC. LA ESPERANZA",
    "longitude": -82.71358489990234,
    "latitude": 8.64063835144043,
    "education_level": "Unknown",
    "country_iso3_code": "PAN",
    "giga_id_school": "1b2119fc-c3c0-3e06-b998-3f3297a77087",
    "school_data_source": null
  },
  {
    "school_name": "ESC. MANCHUILA",
    "longitude": -82.71219635009766,
    "latitude": 8.478416442871094,
    "education_level": "Unknown",
    "country_iso3_code": "PAN",
    "giga_id_school": "3fba4707-45a5-3a2e-bb71-8c1c320a588a",
    "school_data_source": null
  },
  {
    "school_name": "ESC. OJO DE AGUA",
    "longitude": -82.71163940429688,
    "latitude": 8.477027893066406,
    "education_level": "Unknown",
    "country_iso3_code": "PAN",
    "giga_id_school": "3823ea86-3692-361b-b1b6-4a846d94e192",
    "school_data_source": null
  },
  {
    "school_name": "CTRO. EDUCATIVO SANTO DOMINGO",
    "longitude": -82.71135711669922,
    "latitude": 8.513416290283203,
    "education_level": "Unknown",
    "country_iso3_code": "PAN",
    "giga_id_school": "946a864d-7640-3452-ba72-94b2306ef264",
    "school_data_source": null
  },
  {
    "school_name": "ESC. SANTO DOMINGO",
    "longitude": -82.71080780029297,
    "latitude": 8.510360717773438,
    "education_level": "Unknown",
    "country_iso3_code": "PAN",
    "giga_id_school": "b431ca4c-779c-38c2-9088-263925f1eb60",
    "school_data_source": null
  },
  {
    "school_name": "ESC. FINCA 54",
    "longitude": -82.70774841308594,
    "latitude": 9.494523048400879,
    "education_level": "Unknown",
    "country_iso3_code": "PAN",
    "giga_id_school": "506426b7-8153-3a70-9405-db5028bc26bf",
    "school_data_source": null
  },
  {
    "school_name": "ESC. BIJAGUAL Nº 1",
    "longitude": -82.70747375488281,
    "latitude": 8.55758285522461,
    "education_level": "Unknown",
    "country_iso3_code": "PAN",
    "giga_id_school": "e79a6acd-b451-3db1-8dc2-0f9cc0d0669d",
    "school_data_source": null
  },
  {
    "school_name": "ESC. QUEBRADA LLANA",
    "longitude": -82.70580291748047,
    "latitude": 8.678415298461914,
    "education_level": "Unknown",
    "country_iso3_code": "PAN",
    "giga_id_school": "38dc8239-3573-3b6f-9f33-f83a975be729",
    "school_data_source": null
  },
  {
    "school_name": "ESC. QUEBRADA CANELA",
    "longitude": -82.70311737060547,
    "latitude": 9.496466636657715,
    "education_level": "Unknown",
    "country_iso3_code": "PAN",
    "giga_id_school": "ed55db2f-55a5-3907-9701-f7464c614f7d",
    "school_data_source": null
  },
  {
    "school_name": "ESC. SANTA MARTA",
    "longitude": -82.69969177246094,
    "latitude": 8.520360946655273,
    "education_level": "Unknown",
    "country_iso3_code": "PAN",
    "giga_id_school": "9a01cb8f-2468-368a-80b2-4c5be148ef52",
    "school_data_source": null
  },
  {
    "school_name": "ESC. BIJAGUAL Nº 2",
    "longitude": -82.6985855102539,
    "latitude": 8.549527168273926,
    "education_level": "Unknown",
    "country_iso3_code": "PAN",
    "giga_id_school": "e108d010-e6d8-3dbf-b598-4ec6362e885b",
    "school_data_source": null
  },
  {
    "school_name": "ESC. CAÑA BLANCA ARRIBA",
    "longitude": -82.69580078125,
    "latitude": 8.75091552734375,
    "education_level": "Unknown",
    "country_iso3_code": "PAN",
    "giga_id_school": "c673fb88-4757-3262-a8e4-221f18b58d46",
    "school_data_source": null
  },
  {
    "school_name": "ESC. SANTA ROSA",
    "longitude": -82.68496704101562,
    "latitude": 8.602582931518555,
    "education_level": "Unknown",
    "country_iso3_code": "PAN",
    "giga_id_school": "86f1af51-e020-3395-b588-2912d102e878",
    "school_data_source": null
  },
  {
    "school_name": "ESC. EL SANTO",
    "longitude": -82.67886352539062,
    "latitude": 8.567304611206055,
    "education_level": "Unknown",
    "country_iso3_code": "PAN",
    "giga_id_school": "0a9ad526-bc84-37f6-bce3-ca45a973c5c0",
    "school_data_source": null
  },
  {
    "school_name": "ESC. SAN SAN",
    "longitude": -82.6774673461914,
    "latitude": 9.449801445007324,
    "education_level": "Unknown",
    "country_iso3_code": "PAN",
    "giga_id_school": "f1b5033b-b00f-3e96-85db-9c418e28570a",
    "school_data_source": null
  },
  {
    "school_name": "ESC. SAN SAN DRURY",
    "longitude": -82.6774673461914,
    "latitude": 9.441468238830566,
    "education_level": "Unknown",
    "country_iso3_code": "PAN",
    "giga_id_school": "12dc048a-0414-3d93-9045-41ba4da1cb5e",
    "school_data_source": null
  },
  {
    "school_name": "ESC. SIOGUI ARRIBA",
    "longitude": -82.6758041381836,
    "latitude": 8.542027473449707,
    "education_level": "Unknown",
    "country_iso3_code": "PAN",
    "giga_id_school": "73bafe44-e64b-3954-910d-0b63e36b8b29",
    "school_data_source": null
  },
  {
    "school_name": "ESC. LA TRANCA",
    "longitude": -82.67564392089844,
    "latitude": 8.46768856048584,
    "education_level": "Unknown",
    "country_iso3_code": "PAN",
    "giga_id_school": "a1b105a7-fd60-37ed-ac28-b8023f1c1525",
    "school_data_source": null
  },
  {
    "school_name": "ESC. LOS LIMONES",
    "longitude": -82.67385864257812,
    "latitude": 8.415361404418945,
    "education_level": "Unknown",
    "country_iso3_code": "PAN",
    "giga_id_school": "b83b75a2-bbc6-3186-ad36-866346d4c922",
    "school_data_source": null
  },
  {
    "school_name": "ESC. LA ESTRELLA",
    "longitude": -82.6727523803711,
    "latitude": 8.518138885498047,
    "education_level": "Unknown",
    "country_iso3_code": "PAN",
    "giga_id_school": "17ed6c75-edca-3740-b771-f6e8f62a5e08",
    "school_data_source": null
  },
  {
    "school_name": "ESC. CAMARON ARRIBA",
    "longitude": -82.67191314697266,
    "latitude": 8.638416290283203,
    "education_level": "Unknown",
    "country_iso3_code": "PAN",
    "giga_id_school": "3e6fc6cc-b272-310a-9d1f-a150ba83d1d2",
    "school_data_source": null
  },
  {
    "school_name": "ESC. BRAZOS DE GARICHE",
    "longitude": -82.67135620117188,
    "latitude": 8.6995267868042,
    "education_level": "Unknown",
    "country_iso3_code": "PAN",
    "giga_id_school": "b584affc-6dc2-376f-bdf9-64c08b148caa",
    "school_data_source": null
  },
  {
    "school_name": "ESC. VOLANTE",
    "longitude": -82.66719055175781,
    "latitude": 8.586471557617188,
    "education_level": "Unknown",
    "country_iso3_code": "PAN",
    "giga_id_school": "e17c116a-c983-3577-89cd-eaedfdaf8951",
    "school_data_source": null
  },
  {
    "school_name": "ESC. SIOGUI ABAJO N°2",
    "longitude": -82.66358184814453,
    "latitude": 8.493416786193848,
    "education_level": "Unknown",
    "country_iso3_code": "PAN",
    "giga_id_school": "69fb71d7-d4fc-3be5-b636-519661909816",
    "school_data_source": null
  },
  {
    "school_name": "ESC. LOMA BANDERA",
    "longitude": -82.6633071899414,
    "latitude": 9.411190032958984,
    "education_level": "Unknown",
    "country_iso3_code": "PAN",
    "giga_id_school": "d5d27aa9-3f19-3012-9698-f785f4ed8156",
    "school_data_source": null
  },
  {
    "school_name": "ESC. SIEKING",
    "longitude": -82.66302490234375,
    "latitude": 9.395357131958008,
    "education_level": "Unknown",
    "country_iso3_code": "PAN",
    "giga_id_school": "d342ccf4-c0ed-3a0d-8b06-6a9eb0a7a91d",
    "school_data_source": null
  },
  {
    "school_name": "ESC. BAJO FRIO",
    "longitude": -82.65941619873047,
    "latitude": 8.626471519470215,
    "education_level": "Unknown",
    "country_iso3_code": "PAN",
    "giga_id_school": "fc80141f-9101-3ee7-b558-1f0375ed9a9f",
    "school_data_source": null
  },
  {
    "school_name": "ESC. SIOGUI ABAJO N°1",
    "longitude": -82.65635681152344,
    "latitude": 8.492304801940918,
    "education_level": "Unknown",
    "country_iso3_code": "PAN",
    "giga_id_school": "2c0d59b8-7033-3e40-b46f-3219611240d5",
    "school_data_source": null
  },
  {
    "school_name": "ESC. LA COLONIA",
    "longitude": -82.65357971191406,
    "latitude": 8.565638542175293,
    "education_level": "Unknown",
    "country_iso3_code": "PAN",
    "giga_id_school": "d47e7e4a-f295-3fc8-9f48-e33dedc8f109",
    "school_data_source": null
  },
  {
    "school_name": "ESC. SORTOVA",
    "longitude": -82.65135955810547,
    "latitude": 8.551194190979004,
    "education_level": "Unknown",
    "country_iso3_code": "PAN",
    "giga_id_school": "eb4c4c52-bffc-3bb5-a153-40ccf90fbd9d",
    "school_data_source": null
  },
  {
    "school_name": "ESC. SANTO TOMAS",
    "longitude": -82.64997100830078,
    "latitude": 8.39175033569336,
    "education_level": "Unknown",
    "country_iso3_code": "PAN",
    "giga_id_school": "454865bf-9b18-3210-af5d-8c3aca4670d5",
    "school_data_source": null
  },
  {
    "school_name": "ESC. LAS PERLAS",
    "longitude": -82.64969635009766,
    "latitude": 8.791193008422852,
    "education_level": "Unknown",
    "country_iso3_code": "PAN",
    "giga_id_school": "4f336475-ec98-33f2-a962-bc54b6f1a762",
    "school_data_source": null
  },
  {
    "school_name": "ESC. SAN SAN TIGRA",
    "longitude": -82.6494140625,
    "latitude": 9.43924617767334,
    "education_level": "Unknown",
    "country_iso3_code": "PAN",
    "giga_id_school": "0beb5c5b-9d2a-33a1-8d83-6409b3657c8f",
    "school_data_source": null
  },
  {
    "school_name": "ESC. EL VALLE",
    "longitude": -82.64927673339844,
    "latitude": 8.772600173950195,
    "education_level": "Unknown",
    "country_iso3_code": "PAN",
    "giga_id_school": "327760d0-b81a-302a-a09f-b55dd55a2046",
    "school_data_source": null
  },
  {
    "school_name": "ESC. NUEVA CALIFORNIA",
    "longitude": -82.64746856689453,
    "latitude": 8.786748886108398,
    "education_level": "Unknown",
    "country_iso3_code": "PAN",
    "giga_id_school": "cfe2a12d-6d33-3dcb-8313-67c0f5443f52",
    "school_data_source": null
  },
  {
    "school_name": "ESC. CHATAL",
    "longitude": -82.6463623046875,
    "latitude": 8.623693466186523,
    "education_level": "Unknown",
    "country_iso3_code": "PAN",
    "giga_id_school": "2d3ae774-26ae-3b48-b145-25a3751fd551",
    "school_data_source": null
  },
  {
    "school_name": "ESC. SAN MARTIN",
    "longitude": -82.64611053466797,
    "latitude": 8.449921607971191,
    "education_level": "Unknown",
    "country_iso3_code": "PAN",
    "giga_id_school": "309c49b7-193e-3ad3-b1fc-71636e638d00",
    "school_data_source": null
  },
  {
    "school_name": "E.S.N.O. DE TIERRAS ALTAS EXT.",
    "longitude": -82.63941192626953,
    "latitude": 8.774249076843262,
    "education_level": "Unknown",
    "country_iso3_code": "PAN",
    "giga_id_school": "7eadc09d-accb-3506-a557-30027c0ea3ec",
    "school_data_source": null
  },
  {
    "school_name": "ESC. BUGABITA",
    "longitude": -82.63941192626953,
    "latitude": 8.520082473754883,
    "education_level": "Unknown",
    "country_iso3_code": "PAN",
    "giga_id_school": "6b6392ed-8698-33d5-a869-7b8946dfca37",
    "school_data_source": null
  },
  {
    "school_name": "ESC.PRIM.BIL. DE VOLCAN",
    "longitude": -82.63865661621094,
    "latitude": 8.774949073791504,
    "education_level": "Unknown",
    "country_iso3_code": "PAN",
    "giga_id_school": "b0c0e1d9-2b68-3fc0-b3c3-3e8d3a9139fc",
    "school_data_source": null
  },
  {
    "school_name": "ESC. BRISAS DEL RIO",
    "longitude": -82.6383056640625,
    "latitude": 8.49424934387207,
    "education_level": "Unknown",
    "country_iso3_code": "PAN",
    "giga_id_school": "1069c069-9e34-3ed3-b97c-3d9e156ff005",
    "school_data_source": null
  },
  {
    "school_name": "ESC. SAN VICENTE",
    "longitude": -82.63663482666016,
    "latitude": 8.592582702636719,
    "education_level": "Unknown",
    "country_iso3_code": "PAN",
    "giga_id_school": "ef37ceed-b244-365f-9d1a-a6052fa7f268",
    "school_data_source": null
  },
  {
    "school_name": "ESC. SECUNDARIA DE VOLCAN",
    "longitude": -82.63341522216797,
    "latitude": 8.790034294128418,
    "education_level": "Unknown",
    "country_iso3_code": "PAN",
    "giga_id_school": "8826427d-02dd-33cd-a19f-ea338729b24e",
    "school_data_source": null
  },
  {
    "school_name": "C.E.B.G. TRES PIEDRAS",
    "longitude": -82.63070678710938,
    "latitude": 9.372411727905273,
    "education_level": "Unknown",
    "country_iso3_code": "PAN",
    "giga_id_school": "d3fec222-0a79-3ae8-8760-3e36047775db",
    "school_data_source": null
  },
  {
    "school_name": "ESC. CUN KING",
    "longitude": -82.62997436523438,
    "latitude": 9.380356788635254,
    "education_level": "Unknown",
    "country_iso3_code": "PAN",
    "giga_id_school": "b1c184e8-6ffe-3a0e-9ec9-ba9b4f74ad1c",
    "school_data_source": null
  },
  {
    "school_name": "ESC.BIL. BELEN",
    "longitude": -82.62830352783203,
    "latitude": 8.51563835144043,
    "education_level": "Unknown",
    "country_iso3_code": "PAN",
    "giga_id_school": "2971d48f-42e3-3277-8735-31ec8a8a1d99",
    "school_data_source": null
  },
  {
    "school_name": "COL. DANIEL O. CRESPO",
    "longitude": -82.62747192382812,
    "latitude": 8.520638465881348,
    "education_level": "Unknown",
    "country_iso3_code": "PAN",
    "giga_id_school": "99d5bb08-32a0-3d88-8c07-14571a38fc43",
    "school_data_source": null
  },
  {
    "school_name": "ESC. FINCA 41 ANEXA GUABITO",
    "longitude": -82.62552642822266,
    "latitude": 9.492300987243652,
    "education_level": "Unknown",
    "country_iso3_code": "PAN",
    "giga_id_school": "7dc98454-522c-38f6-a6f0-d80347642d91",
    "school_data_source": null
  },
  {
    "school_name": "ESC. SAN MIGUEL DEL YUCO",
    "longitude": -82.62458801269531,
    "latitude": 8.5449800491333,
    "education_level": "Unknown",
    "country_iso3_code": "PAN",
    "giga_id_school": "c4a32c5b-0be7-3ba9-91a9-f25e67bc5a9d",
    "school_data_source": null
  },
  {
    "school_name": "ESC. BIJAO",
    "longitude": -82.6244125366211,
    "latitude": 8.709527015686035,
    "education_level": "Unknown",
    "country_iso3_code": "PAN",
    "giga_id_school": "230042a9-a329-33e2-96e0-e146015c04a2",
    "school_data_source": null
  },
  {
    "school_name": "ESC. CUESTA DE PIEDRA",
    "longitude": -82.62393188476562,
    "latitude": 8.677419662475586,
    "education_level": "Unknown",
    "country_iso3_code": "PAN",
    "giga_id_school": "bf5bf7f1-37ae-3088-83bf-8d1f70ee00fa",
    "school_data_source": null
  },
  {
    "school_name": "ESC. SAN SAN MEDIO",
    "longitude": -82.62358093261719,
    "latitude": 9.420079231262207,
    "education_level": "Unknown",
    "country_iso3_code": "PAN",
    "giga_id_school": "06d93597-0773-3681-b725-6f08878bf89c",
    "school_data_source": null
  },
  {
    "school_name": "ESC. BONGO ARRIBA",
    "longitude": -82.6235580444336,
    "latitude": 8.591469764709473,
    "education_level": "Unknown",
    "country_iso3_code": "PAN",
    "giga_id_school": "6937df5e-06e4-3061-9c7f-bcf46ca8740d",
    "school_data_source": null
  },
  {
    "school_name": "ESC.BIL. PASO ANCHO",
    "longitude": -82.62318420410156,
    "latitude": 8.81536865234375,
    "education_level": "Unknown",
    "country_iso3_code": "PAN",
    "giga_id_school": "d845b775-1c35-328b-b668-70bbc4b352b7",
    "school_data_source": null
  },
  {
    "school_name": "ESC. EL PORVENIR",
    "longitude": -82.6230697631836,
    "latitude": 8.52931022644043,
    "education_level": "Unknown",
    "country_iso3_code": "PAN",
    "giga_id_school": "0504ee9f-067f-3f9a-9d40-8dac05536b28",
    "school_data_source": null
  },
  {
    "school_name": "ESC. CANTA  GALLO",
    "longitude": -82.6213607788086,
    "latitude": 8.367583274841309,
    "education_level": "Unknown",
    "country_iso3_code": "PAN",
    "giga_id_school": "45fe35b6-3112-3c89-bf1f-f8340a82e35a",
    "school_data_source": null
  },
  {
    "school_name": "ESC. BUGABA",
    "longitude": -82.62052917480469,
    "latitude": 8.483694076538086,
    "education_level": "Unknown",
    "country_iso3_code": "PAN",
    "giga_id_school": "f2deff0a-c087-3069-bffa-aff49c692a33",
    "school_data_source": null
  },
  {
    "school_name": "ESC. JUSTO ABEL CASTILLO",
    "longitude": -82.61830139160156,
    "latitude": 8.522027015686035,
    "education_level": "Unknown",
    "country_iso3_code": "PAN",
    "giga_id_school": "180a44e7-c8ac-3f9c-9bd2-fc9c9dcf0bd5",
    "school_data_source": null
  },
  {
    "school_name": "C.E.B.G. BONGO ABAJO",
    "longitude": -82.61775207519531,
    "latitude": 8.572860717773438,
    "education_level": "Unknown",
    "country_iso3_code": "PAN",
    "giga_id_school": "49c6fcb0-f19e-3441-af63-27307d76279e",
    "school_data_source": null
  },
  {
    "school_name": "ESC. EL CALVARIO",
    "longitude": -82.61719512939453,
    "latitude": 8.55674934387207,
    "education_level": "Unknown",
    "country_iso3_code": "PAN",
    "giga_id_school": "3c02acf5-e1bc-3cf7-a65c-1655ada43e2f",
    "school_data_source": null
  },
  {
    "school_name": "ESC. MATA DE BUGABA",
    "longitude": -82.61441802978516,
    "latitude": 8.502305030822754,
    "education_level": "Unknown",
    "country_iso3_code": "PAN",
    "giga_id_school": "7435f77a-14c6-318f-aed7-ba7b6959426d",
    "school_data_source": null
  },
  {
    "school_name": "I.P.T. LA CONCEPCION",
    "longitude": -82.61357879638672,
    "latitude": 8.521194458007812,
    "education_level": "Unknown",
    "country_iso3_code": "PAN",
    "giga_id_school": "986d3a21-b846-3e33-ab55-7ada5a48288e",
    "school_data_source": null
  },
  {
    "school_name": "C.E.B.G. BILINGÜE GUABITO",
    "longitude": -82.61164093017578,
    "latitude": 9.492023468017578,
    "education_level": "Unknown",
    "country_iso3_code": "PAN",
    "giga_id_school": "9b657624-f7dc-3f85-a020-408b978e64e9",
    "school_data_source": null
  },
  {
    "school_name": "ESC. LAS TUMBAS",
    "longitude": -82.61106872558594,
    "latitude": 8.626049995422363,
    "education_level": "Unknown",
    "country_iso3_code": "PAN",
    "giga_id_school": "6d471f22-80a5-37c7-908a-5bef2ad16d3f",
    "school_data_source": null
  },
  {
    "school_name": "ESC. SOLANO",
    "longitude": -82.61080169677734,
    "latitude": 8.51480484008789,
    "education_level": "Unknown",
    "country_iso3_code": "PAN",
    "giga_id_school": "8749bb33-3324-3b05-8bff-b356a604cb39",
    "school_data_source": null
  },
  {
    "school_name": "E.S.N.O. GUABITO (EXT)",
    "longitude": -82.60858917236328,
    "latitude": 9.491307258605957,
    "education_level": "Unknown",
    "country_iso3_code": "PAN",
    "giga_id_school": "c2265d0a-de8b-3861-a6f2-2007c9ccd551",
    "school_data_source": null
  },
  {
    "school_name": "COL. SECUNDARIO DE GUABITO",
    "longitude": -82.60858154296875,
    "latitude": 9.491467475891113,
    "education_level": "Unknown",
    "country_iso3_code": "PAN",
    "giga_id_school": "9c7d8b7e-79c9-3b0a-8d42-2733ce212e8f",
    "school_data_source": null
  },
  {
    "school_name": "ESC. SOLON",
    "longitude": -82.60636138916016,
    "latitude": 9.360913276672363,
    "education_level": "Unknown",
    "country_iso3_code": "PAN",
    "giga_id_school": "42b43f69-4401-3e3a-be9f-8937d84bdd5b",
    "school_data_source": null
  },
  {
    "school_name": "ESC. LA CUCHILLA",
    "longitude": -82.60552978515625,
    "latitude": 8.602860450744629,
    "education_level": "Unknown",
    "country_iso3_code": "PAN",
    "giga_id_school": "d81bba1a-e72b-3c55-8a9f-0a306040dc08",
    "school_data_source": null
  },
  {
    "school_name": "ESC. PALO GRANDE",
    "longitude": -82.6052474975586,
    "latitude": 8.349249839782715,
    "education_level": "Unknown",
    "country_iso3_code": "PAN",
    "giga_id_school": "58416242-d96f-3e08-8ace-6da767ab7119",
    "school_data_source": null
  },
  {
    "school_name": "ESC. NUEVA SUIZA",
    "longitude": -82.60469055175781,
    "latitude": 8.846470832824707,
    "education_level": "Unknown",
    "country_iso3_code": "PAN",
    "giga_id_school": "7d60385c-274b-3c1a-bbf9-b9d5572cd587",
    "school_data_source": null
  },
  {
    "school_name": "ESC. LA CORDILLERA",
    "longitude": -82.60358428955078,
    "latitude": 8.715638160705566,
    "education_level": "Unknown",
    "country_iso3_code": "PAN",
    "giga_id_school": "f5f2c107-860e-3029-ab1c-e2a9002f15e4",
    "school_data_source": null
  },
  {
    "school_name": "ESC. BONYICK",
    "longitude": -82.59996795654297,
    "latitude": 9.34952449798584,
    "education_level": "Unknown",
    "country_iso3_code": "PAN",
    "giga_id_school": "12b589a0-f54b-3923-8a6f-dd064dbf4b80",
    "school_data_source": null
  },
  {
    "school_name": "ESC. LA VICTORIA",
    "longitude": -82.59941864013672,
    "latitude": 8.493694305419922,
    "education_level": "Unknown",
    "country_iso3_code": "PAN",
    "giga_id_school": "6bc1e0e8-7c6a-3812-9ef7-7a63434ae64f",
    "school_data_source": null
  },
  {
    "school_name": "ESC. ISLA VENADO",
    "longitude": -82.59679412841797,
    "latitude": 9.410874366760254,
    "education_level": "Unknown",
    "country_iso3_code": "PAN",
    "giga_id_school": "2a211023-b8ed-394e-b350-9e0055759319",
    "school_data_source": null
  },
  {
    "school_name": "ESC. LAS NUBES",
    "longitude": -82.59663391113281,
    "latitude": 8.88508129119873,
    "education_level": "Unknown",
    "country_iso3_code": "PAN",
    "giga_id_school": "5c7021a4-1778-384c-90a9-39b638cee433",
    "school_data_source": null
  },
  {
    "school_name": "ESC. FINCA 43",
    "longitude": -82.59527587890625,
    "latitude": 9.480278015136719,
    "education_level": "Unknown",
    "country_iso3_code": "PAN",
    "giga_id_school": "4aab2a27-2edf-3232-b6ee-6b0d92a210d7",
    "school_data_source": null
  },
  {
    "school_name": "ESC. DEBORAH",
    "longitude": -82.594970703125,
    "latitude": 9.514801025390625,
    "education_level": "Unknown",
    "country_iso3_code": "PAN",
    "giga_id_school": "9ff6d979-04fb-34b8-a82b-a857223c0384",
    "school_data_source": null
  },
  {
    "school_name": "ESC. PUENTE BLANCO",
    "longitude": -82.59493255615234,
    "latitude": 9.482990264892578,
    "education_level": "Unknown",
    "country_iso3_code": "PAN",
    "giga_id_school": "ac47e4d0-0877-3304-8d37-342ed145e114",
    "school_data_source": null
  },
  {
    "school_name": "ESC. LA MESETA",
    "longitude": -82.5945816040039,
    "latitude": 8.554010391235352,
    "education_level": "Unknown",
    "country_iso3_code": "PAN",
    "giga_id_school": "51c9ce9a-64c8-3bca-a4fe-5a5a08d6d7ef",
    "school_data_source": null
  },
  {
    "school_name": "ESC. PEDREGALITO",
    "longitude": -82.59302520751953,
    "latitude": 8.471750259399414,
    "education_level": "Unknown",
    "country_iso3_code": "PAN",
    "giga_id_school": "13e491d7-04f7-3976-ac60-a89841e7386d",
    "school_data_source": null
  },
  {
    "school_name": "ESC. ALTO PITA",
    "longitude": -82.59280395507812,
    "latitude": 9.411589622497559,
    "education_level": "Unknown",
    "country_iso3_code": "PAN",
    "giga_id_school": "df1641a9-e5c4-3c47-9e9c-50d688a0274a",
    "school_data_source": null
  },
  {
    "school_name": "ESC. LA MESETA",
    "longitude": -82.59244537353516,
    "latitude": 8.55260181427002,
    "education_level": "Unknown",
    "country_iso3_code": "PAN",
    "giga_id_school": "f346d3aa-7039-3141-a099-dd01d3a56a03",
    "school_data_source": null
  },
  {
    "school_name": "ESC. DOS CAÑOS ANEXA",
    "longitude": -82.5924301147461,
    "latitude": 9.480076789855957,
    "education_level": "Unknown",
    "country_iso3_code": "PAN",
    "giga_id_school": "f1b609f7-f2b4-37ad-bb7d-3f17f478d5e5",
    "school_data_source": null
  },
  {
    "school_name": "ESC. CABLE VIA",
    "longitude": -82.5921859741211,
    "latitude": 9.411348342895508,
    "education_level": "Unknown",
    "country_iso3_code": "PAN",
    "giga_id_school": "30aed64d-f849-3b3e-9f20-bb7abc796676",
    "school_data_source": null
  },
  {
    "school_name": "ESC. LA GUINEA",
    "longitude": -82.5919189453125,
    "latitude": 8.499249458312988,
    "education_level": "Unknown",
    "country_iso3_code": "PAN",
    "giga_id_school": "81689ea0-481b-363b-aca8-3ab7c7dd251c",
    "school_data_source": null
  },
  {
    "school_name": "ESC. PARAISO",
    "longitude": -82.59080505371094,
    "latitude": 8.66452693939209,
    "education_level": "Unknown",
    "country_iso3_code": "PAN",
    "giga_id_school": "a927e177-5969-3153-94e7-1edae665525e",
    "school_data_source": null
  },
  {
    "school_name": "ESC. FINCA CALIFORNIA",
    "longitude": -82.59024810791016,
    "latitude": 9.540079116821289,
    "education_level": "Unknown",
    "country_iso3_code": "PAN",
    "giga_id_school": "f27bc1d5-e35b-32df-9ba3-d2ef64d7e810",
    "school_data_source": null
  },
  {
    "school_name": "ESC. SANTA MARTA",
    "longitude": -82.58958435058594,
    "latitude": 8.700118064880371,
    "education_level": "Unknown",
    "country_iso3_code": "PAN",
    "giga_id_school": "b8f9369e-7b5a-3111-9b52-18f0911fb69f",
    "school_data_source": null
  },
  {
    "school_name": "ESC. LA PITA",
    "longitude": -82.58747100830078,
    "latitude": 8.435916900634766,
    "education_level": "Unknown",
    "country_iso3_code": "PAN",
    "giga_id_school": "876c04ff-30f8-31eb-bd19-64fbc96fcfeb",
    "school_data_source": null
  },
  {
    "school_name": "ESC. BOCALATUN",
    "longitude": -82.58496856689453,
    "latitude": 8.593138694763184,
    "education_level": "Unknown",
    "country_iso3_code": "PAN",
    "giga_id_school": "c1d041b9-70fb-3562-bd5b-c86a6e031309",
    "school_data_source": null
  },
  {
    "school_name": "ESC. SANTA MARTA ARRIBA",
    "longitude": -82.58135986328125,
    "latitude": 9.415356636047363,
    "education_level": "Unknown",
    "country_iso3_code": "PAN",
    "giga_id_school": "650fe519-a307-3e67-92cd-d5f1d8f9cec8",
    "school_data_source": null
  },
  {
    "school_name": "ESC. GUAYABAL",
    "longitude": -82.58135986328125,
    "latitude": 8.612860679626465,
    "education_level": "Unknown",
    "country_iso3_code": "PAN",
    "giga_id_school": "cc92f457-1456-3bdb-9f6e-a531adefcad5",
    "school_data_source": null
  },
  {
    "school_name": "ESC. SANTA MARTA ANEXA",
    "longitude": -82.58108520507812,
    "latitude": 9.415356636047363,
    "education_level": "Unknown",
    "country_iso3_code": "PAN",
    "giga_id_school": "bc53ddbf-95ae-3395-bd11-bb373b7a35a1",
    "school_data_source": null
  },
  {
    "school_name": "C.E.B.G. CERRO PUNTA",
    "longitude": -82.578857421875,
    "latitude": 8.862303733825684,
    "education_level": "Unknown",
    "country_iso3_code": "PAN",
    "giga_id_school": "dca1decb-31c8-3320-9a4b-ee441a606fcc",
    "school_data_source": null
  },
  {
    "school_name": "ESC. SITIO LAZARO",
    "longitude": -82.57830047607422,
    "latitude": 8.46702766418457,
    "education_level": "Unknown",
    "country_iso3_code": "PAN",
    "giga_id_school": "8b33b72a-72b8-3aa6-98d8-00364e7731a5",
    "school_data_source": null
  },
  {
    "school_name": "ESC. QUEBRADA PUERCO",
    "longitude": -82.57552337646484,
    "latitude": 9.29035758972168,
    "education_level": "Unknown",
    "country_iso3_code": "PAN",
    "giga_id_school": "fdd51bb4-cdbe-3cb7-af78-adf390eb9edd",
    "school_data_source": null
  },
  {
    "school_name": "ESC. EL TEJAR",
    "longitude": -82.57441711425781,
    "latitude": 8.4353609085083,
    "education_level": "Unknown",
    "country_iso3_code": "PAN",
    "giga_id_school": "939a7cbe-d7c2-3af7-8199-d65e715a6cb2",
    "school_data_source": null
  },
  {
    "school_name": "ESC. GUASIMO",
    "longitude": -82.5735855102539,
    "latitude": 8.36008358001709,
    "education_level": "Unknown",
    "country_iso3_code": "PAN",
    "giga_id_school": "a61ec18a-1d87-327f-9541-1c7efde67c54",
    "school_data_source": null
  },
  {
    "school_name": "ESC. MACANO ARRIBA",
    "longitude": -82.57274627685547,
    "latitude": 8.59536075592041,
    "education_level": "Unknown",
    "country_iso3_code": "PAN",
    "giga_id_school": "5cef7e21-eb67-3029-8482-bfdaff166f79",
    "school_data_source": null
  },
  {
    "school_name": "ESC. BILINGÜE TEOBROMA",
    "longitude": -82.57160949707031,
    "latitude": 9.42855167388916,
    "education_level": "Unknown",
    "country_iso3_code": "PAN",
    "giga_id_school": "f6dbceb5-8a9a-3fec-85ac-107feb33cd74",
    "school_data_source": null
  },
  {
    "school_name": "ESC. MACANO",
    "longitude": -82.57157897949219,
    "latitude": 8.571760177612305,
    "education_level": "Unknown",
    "country_iso3_code": "PAN",
    "giga_id_school": "8f064f6a-3d55-37d1-ba52-494a682e30e6",
    "school_data_source": null
  },
  {
    "school_name": "ESC. SEC. EL MACANO",
    "longitude": -82.57157135009766,
    "latitude": 8.571128845214844,
    "education_level": "Unknown",
    "country_iso3_code": "PAN",
    "giga_id_school": "28049d5b-23ac-35e8-ac4c-6af9bacbf76a",
    "school_data_source": null
  },
  {
    "school_name": "ESC. MOSTRENCO",
    "longitude": -82.57080078125,
    "latitude": 8.392583847045898,
    "education_level": "Unknown",
    "country_iso3_code": "PAN",
    "giga_id_school": "0f1bbd40-599b-37e3-86c1-e755eff80941",
    "school_data_source": null
  },
  {
    "school_name": "ESC. LOS POCITOS",
    "longitude": -82.5699691772461,
    "latitude": 8.33174991607666,
    "education_level": "Unknown",
    "country_iso3_code": "PAN",
    "giga_id_school": "1db41806-4a1a-337c-b4cf-fd340d6c1e9a",
    "school_data_source": null
  },
  {
    "school_name": "ESC. SAN VALENTIN",
    "longitude": -82.56830596923828,
    "latitude": 8.503138542175293,
    "education_level": "Unknown",
    "country_iso3_code": "PAN",
    "giga_id_school": "ea0e019e-e706-3964-8add-69e1bf624eb8",
    "school_data_source": null
  },
  {
    "school_name": "CTRO. FERNANDO ELETA ALMARAN",
    "longitude": -82.56414031982422,
    "latitude": 8.869248390197754,
    "education_level": "Unknown",
    "country_iso3_code": "PAN",
    "giga_id_school": "c569c31d-359a-359c-9d2d-8c74fd7214da",
    "school_data_source": null
  },
  {
    "school_name": "ESC. CHARAGRE",
    "longitude": -82.56330108642578,
    "latitude": 9.388968467712402,
    "education_level": "Unknown",
    "country_iso3_code": "PAN",
    "giga_id_school": "c597dfd3-85ad-3f5a-9db2-4bcc560a3b3e",
    "school_data_source": null
  },
  {
    "school_name": "ESC. SANTA RITA",
    "longitude": -82.5605239868164,
    "latitude": 8.658693313598633,
    "education_level": "Unknown",
    "country_iso3_code": "PAN",
    "giga_id_school": "d7890ffa-98ff-3394-be80-403c527af0f6",
    "school_data_source": null
  },
  {
    "school_name": "C.E.B.G. BILINGÜE FINCA 32",
    "longitude": -82.55680847167969,
    "latitude": 9.427339553833008,
    "education_level": "Unknown",
    "country_iso3_code": "PAN",
    "giga_id_school": "f4d2f80e-90f9-337c-9448-67946c9bda41",
    "school_data_source": null
  },
  {
    "school_name": "ESC. ALANJE",
    "longitude": -82.55608367919922,
    "latitude": 8.403139114379883,
    "education_level": "Unknown",
    "country_iso3_code": "PAN",
    "giga_id_school": "6d0eafa5-718b-3065-8b34-949971bdabfa",
    "school_data_source": null
  },
  {
    "school_name": "ESC. BAJO SORI",
    "longitude": -82.55552673339844,
    "latitude": 9.362579345703125,
    "education_level": "Unknown",
    "country_iso3_code": "PAN",
    "giga_id_school": "b8251622-f70e-3aa8-9bfa-81fec02e338c",
    "school_data_source": null
  },
  {
    "school_name": "ESC. TIJERA",
    "longitude": -82.55525207519531,
    "latitude": 8.466750144958496,
    "education_level": "Unknown",
    "country_iso3_code": "PAN",
    "giga_id_school": "efb8361e-09ad-32f1-9f05-7d35f93883a1",
    "school_data_source": null
  },
  {
    "school_name": "E.S.N.O. DE ALANJE EXT.",
    "longitude": -82.55512237548828,
    "latitude": 8.411919593811035,
    "education_level": "Unknown",
    "country_iso3_code": "PAN",
    "giga_id_school": "9d54ae66-66ee-380a-8124-d08d9789dd93",
    "school_data_source": null
  },
  {
    "school_name": "ESC. LAS HUACAS",
    "longitude": -82.55441284179688,
    "latitude": 8.567304611206055,
    "education_level": "Unknown",
    "country_iso3_code": "PAN",
    "giga_id_school": "a86aefd0-7ce8-3506-be45-e2fc930bb05c",
    "school_data_source": null
  },
  {
    "school_name": "ESC. ALTO SORI",
    "longitude": -82.55191802978516,
    "latitude": 9.34591293334961,
    "education_level": "Unknown",
    "country_iso3_code": "PAN",
    "giga_id_school": "ae73a7fb-cdc2-31fb-8850-a98dd5cd5719",
    "school_data_source": null
  },
  {
    "school_name": "ESC. LOMA DE SAN PEDRO",
    "longitude": -82.55136108398438,
    "latitude": 8.431471824645996,
    "education_level": "Unknown",
    "country_iso3_code": "PAN",
    "giga_id_school": "cd7c2448-7680-343c-a1fc-ef55b43da6db",
    "school_data_source": null
  },
  {
    "school_name": "ESC. CERRO CABUYA",
    "longitude": -82.548583984375,
    "latitude": 8.545083045959473,
    "education_level": "Unknown",
    "country_iso3_code": "PAN",
    "giga_id_school": "aace486f-3c02-3bc7-8bae-1b3dd9b56fb1",
    "school_data_source": null
  },
  {
    "school_name": "ESC. QUEBRADA GUABO",
    "longitude": -82.54496765136719,
    "latitude": 9.298413276672363,
    "education_level": "Unknown",
    "country_iso3_code": "PAN",
    "giga_id_school": "16cc12bc-c54b-3e10-9023-a7efd6a0c743",
    "school_data_source": null
  },
  {
    "school_name": "ESC. AGUACATE",
    "longitude": -82.54441833496094,
    "latitude": 8.630915641784668,
    "education_level": "Unknown",
    "country_iso3_code": "PAN",
    "giga_id_school": "900782c3-da1e-3517-aac2-41941fbc5818",
    "school_data_source": null
  },
  {
    "school_name": "ESC. ZEGLA",
    "longitude": -82.5435791015625,
    "latitude": 9.377023696899414,
    "education_level": "Unknown",
    "country_iso3_code": "PAN",
    "giga_id_school": "77cb8175-adbc-36bc-809a-b9010d05b6b0",
    "school_data_source": null
  },
  {
    "school_name": "ESC. SURSUBA",
    "longitude": -82.54247283935547,
    "latitude": 9.335079193115234,
    "education_level": "Unknown",
    "country_iso3_code": "PAN",
    "giga_id_school": "9e0bdebe-e366-37d7-a029-7a29a888f2cd",
    "school_data_source": null
  },
  {
    "school_name": "ESC. OJO DE AGUA",
    "longitude": -82.53941345214844,
    "latitude": 8.492304801940918,
    "education_level": "Unknown",
    "country_iso3_code": "PAN",
    "giga_id_school": "c1073683-ebee-3036-973d-a91c8fb7c0b2",
    "school_data_source": null
  },
  {
    "school_name": "ESC. PALMIRA DEL BANCO",
    "longitude": -82.5383071899414,
    "latitude": 8.691471099853516,
    "education_level": "Unknown",
    "country_iso3_code": "PAN",
    "giga_id_school": "d9843c25-935b-3e07-af0b-d1dcd26bd44c",
    "school_data_source": null
  },
  {
    "school_name": "ESC. CORRIENTE GRANDE",
    "longitude": -82.53802490234375,
    "latitude": 9.30424690246582,
    "education_level": "Unknown",
    "country_iso3_code": "PAN",
    "giga_id_school": "d7d4f5b4-9dfd-3792-98bd-69df20858cf8",
    "school_data_source": null
  },
  {
    "school_name": "ESC. GUABAL",
    "longitude": -82.53775024414062,
    "latitude": 8.591471672058105,
    "education_level": "Unknown",
    "country_iso3_code": "PAN",
    "giga_id_school": "4ba68d07-7104-31ff-96cd-1466229085b7",
    "school_data_source": null
  },
  {
    "school_name": "ESC. BONILLA",
    "longitude": -82.53746795654297,
    "latitude": 8.60563850402832,
    "education_level": "Unknown",
    "country_iso3_code": "PAN",
    "giga_id_school": "89372248-3f15-3223-b97a-7278807c3c3b",
    "school_data_source": null
  },
  {
    "school_name": "ESC. CERRO COLORADO",
    "longitude": -82.53553009033203,
    "latitude": 8.509249687194824,
    "education_level": "Unknown",
    "country_iso3_code": "PAN",
    "giga_id_school": "fd9f7618-6da0-3889-a3b6-0480d5a2eb15",
    "school_data_source": null
  },
  {
    "school_name": "C.E.B.G. SIEYICK",
    "longitude": -82.5347900390625,
    "latitude": 9.370759963989258,
    "education_level": "Unknown",
    "country_iso3_code": "PAN",
    "giga_id_school": "16339ba6-248f-3877-9df7-86bdf921a940",
    "school_data_source": null
  },
  {
    "school_name": "ESC. BILINGÜE EL SILENCIO",
    "longitude": -82.53441619873047,
    "latitude": 9.390913009643555,
    "education_level": "Unknown",
    "country_iso3_code": "PAN",
    "giga_id_school": "71abc528-cfca-3505-bd6d-8f2219e080f6",
    "school_data_source": null
  },
  {
    "school_name": "ESC. GUARUMAL",
    "longitude": -82.53052520751953,
    "latitude": 8.351750373840332,
    "education_level": "Unknown",
    "country_iso3_code": "PAN",
    "giga_id_school": "acff6807-7ba5-3681-8bd1-b5bae3a1bbe4",
    "school_data_source": null
  },
  {
    "school_name": "I.P.T. EL SILENCIO",
    "longitude": -82.5289535522461,
    "latitude": 9.375646591186523,
    "education_level": "Unknown",
    "country_iso3_code": "PAN",
    "giga_id_school": "df806e5e-6fbd-3246-ac24-9f2ddac9b159",
    "school_data_source": null
  },
  {
    "school_name": "ESC. BANCO DE PALMIRA",
    "longitude": -82.52802276611328,
    "latitude": 8.706192970275879,
    "education_level": "Unknown",
    "country_iso3_code": "PAN",
    "giga_id_school": "ec325b6b-0d9d-3eb0-abb7-d410a02e1b68",
    "school_data_source": null
  },
  {
    "school_name": "ESC. NANCE BONITO",
    "longitude": -82.52794647216797,
    "latitude": 8.638114929199219,
    "education_level": "Unknown",
    "country_iso3_code": "PAN",
    "giga_id_school": "59a5c215-6d75-3f9a-9586-b8f9fd95075f",
    "school_data_source": null
  },
  {
    "school_name": "ESC. MIGUEL P. SANCHEZ",
    "longitude": -82.52774810791016,
    "latitude": 8.467582702636719,
    "education_level": "Unknown",
    "country_iso3_code": "PAN",
    "giga_id_school": "a034af3d-043b-3923-8832-37ea124e24d8",
    "school_data_source": null
  },
  {
    "school_name": "ESC. QUEREVALOS",
    "longitude": -82.52330780029297,
    "latitude": 8.374527931213379,
    "education_level": "Unknown",
    "country_iso3_code": "PAN",
    "giga_id_school": "ddc632b9-a9dc-3a15-b963-632c54f96b08",
    "school_data_source": null
  },
  {
    "school_name": "ESC. SANTA ROSA",
    "longitude": -82.52191162109375,
    "latitude": 9.346746444702148,
    "education_level": "Unknown",
    "country_iso3_code": "PAN",
    "giga_id_school": "c710c57d-ea2c-34be-a050-75c4ba37db30",
    "school_data_source": null
  },
  {
    "school_name": "C.E.B.G. BILINGÜE MARIANO THOMAS",
    "longitude": -82.52165985107422,
    "latitude": 9.437281608581543,
    "education_level": "Unknown",
    "country_iso3_code": "PAN",
    "giga_id_school": "d54610c0-c743-3c43-982e-0e7724ffb479",
    "school_data_source": null
  },
  {
    "school_name": "ESC. MARGARITA BERMAN",
    "longitude": -82.5201644897461,
    "latitude": 8.417889595031738,
    "education_level": "Unknown",
    "country_iso3_code": "PAN",
    "giga_id_school": "e9f21d04-d073-3f73-a842-dabfbeceecec",
    "school_data_source": null
  },
  {
    "school_name": "C.E.B.G. BILINGÜE EL EMPALME",
    "longitude": -82.52001953125,
    "latitude": 9.42116928100586,
    "education_level": "Unknown",
    "country_iso3_code": "PAN",
    "giga_id_school": "9e97b3fa-42e6-31f1-bff9-5b290ee4ba8f",
    "school_data_source": null
  },
  {
    "school_name": "ESC. BAJO CULUBRE",
    "longitude": -82.51941680908203,
    "latitude": 9.44102954864502,
    "education_level": "Unknown",
    "country_iso3_code": "PAN",
    "giga_id_school": "2b47833d-482a-330d-b7bb-9d75109d7e6f",
    "school_data_source": null
  },
  {
    "school_name": "ESC. FINCA 15",
    "longitude": -82.5191879272461,
    "latitude": 9.41355037689209,
    "education_level": "Unknown",
    "country_iso3_code": "PAN",
    "giga_id_school": "c936287d-7263-3e8e-82e0-cbf7c3d8a731",
    "school_data_source": null
  },
  {
    "school_name": "C.O.I.F. FROEBELIN",
    "longitude": -82.51860046386719,
    "latitude": 9.445394515991211,
    "education_level": "Unknown",
    "country_iso3_code": "PAN",
    "giga_id_school": "b9b177d5-ba0e-3de2-949e-1cd1547d3691",
    "school_data_source": null
  },
  {
    "school_name": "ESC. SAN SAN MONA",
    "longitude": -82.51856994628906,
    "latitude": 9.445131301879883,
    "education_level": "Unknown",
    "country_iso3_code": "PAN",
    "giga_id_school": "8b58797b-893e-3401-b3a9-5577e298e02f",
    "school_data_source": null
  },
  {
    "school_name": "ESC. SAN JUAN",
    "longitude": -82.51830291748047,
    "latitude": 9.369524002075195,
    "education_level": "Unknown",
    "country_iso3_code": "PAN",
    "giga_id_school": "e2c1062d-aaa2-3ca6-b8b9-bcb04b19e468",
    "school_data_source": null
  },
  {
    "school_name": "ESC. FINCA 11",
    "longitude": -82.5177001953125,
    "latitude": 9.463231086730957,
    "education_level": "Unknown",
    "country_iso3_code": "PAN",
    "giga_id_school": "08d11614-5228-3bd2-8697-7a212977164f",
    "school_data_source": null
  },
  {
    "school_name": "ESC. PALMA REAL",
    "longitude": -82.51757049560547,
    "latitude": 8.658503532409668,
    "education_level": "Unknown",
    "country_iso3_code": "PAN",
    "giga_id_school": "10707ba5-8816-34ed-a3a3-b66a8382abfa",
    "school_data_source": null
  },
  {
    "school_name": "ESC. BILINGÜE 4 DE ABRIL",
    "longitude": -82.51722717285156,
    "latitude": 9.483492851257324,
    "education_level": "Unknown",
    "country_iso3_code": "PAN",
    "giga_id_school": "0453917e-8aae-3fe1-bf56-22469fc79761",
    "school_data_source": null
  },
  {
    "school_name": "ESC. BILINGÜE FINCA 66",
    "longitude": -82.51691436767578,
    "latitude": 9.445357322692871,
    "education_level": "Unknown",
    "country_iso3_code": "PAN",
    "giga_id_school": "e17a0760-cb4d-3f26-97d5-8e8f5020f318",
    "school_data_source": null
  },
  {
    "school_name": "ESC. SABANA BONITA",
    "longitude": -82.51688385009766,
    "latitude": 8.555425643920898,
    "education_level": "Unknown",
    "country_iso3_code": "PAN",
    "giga_id_school": "4d42af3e-94c6-38a0-9761-9a73314bb229",
    "school_data_source": null
  },
  {
    "school_name": "E.S.N.O. DE CHANGUINOLA (EXT/CP)",
    "longitude": -82.51625061035156,
    "latitude": 9.471409797668457,
    "education_level": "Unknown",
    "country_iso3_code": "PAN",
    "giga_id_school": "6222cb11-44df-3615-a845-75faab237349",
    "school_data_source": null
  },
  {
    "school_name": "I.P.T. BOCAS DEL TORO",
    "longitude": -82.5155258178711,
    "latitude": 9.471467971801758,
    "education_level": "Unknown",
    "country_iso3_code": "PAN",
    "giga_id_school": "89c011d3-192c-326e-b783-ad917a0eb7ce",
    "school_data_source": null
  },
  {
    "school_name": "ESC. BILINGÜE CHANGUINOLA",
    "longitude": -82.51386260986328,
    "latitude": 9.45619010925293,
    "education_level": "Unknown",
    "country_iso3_code": "PAN",
    "giga_id_school": "8bd1b80f-f63f-398b-b726-8a4005294f16",
    "school_data_source": null
  },
  {
    "school_name": "ESC. BILINGÜE FINCA 41",
    "longitude": -82.51386260986328,
    "latitude": 9.471467971801758,
    "education_level": "Unknown",
    "country_iso3_code": "PAN",
    "giga_id_school": "95146a4f-d394-3166-afb0-85d1e7a3ef82",
    "school_data_source": null
  },
  {
    "school_name": "ESC. LA CEIBA",
    "longitude": -82.51219177246094,
    "latitude": 9.015913963317871,
    "education_level": "Unknown",
    "country_iso3_code": "PAN",
    "giga_id_school": "9efd56e9-afda-388f-b7ce-1e297c73b940",
    "school_data_source": null
  },
  {
    "school_name": "C.E.B.G. ELEFIA MARTINEZ SERRANO",
    "longitude": -82.51080322265625,
    "latitude": 8.688693046569824,
    "education_level": "Unknown",
    "country_iso3_code": "PAN",
    "giga_id_school": "2afcef21-5cbb-3490-a662-9976b60bf0a4",
    "school_data_source": null
  },
  {
    "school_name": "ESC. BUENA SELVA",
    "longitude": -82.50830078125,
    "latitude": 9.345356941223145,
    "education_level": "Unknown",
    "country_iso3_code": "PAN",
    "giga_id_school": "a4c51f9f-ba57-389f-9b01-d08e1601d60a",
    "school_data_source": null
  },
  {
    "school_name": "ESC. EL RODEO",
    "longitude": -82.50830078125,
    "latitude": 8.569204330444336,
    "education_level": "Unknown",
    "country_iso3_code": "PAN",
    "giga_id_school": "342df638-9f28-3a0e-8110-a6430023a4c6",
    "school_data_source": null
  },
  {
    "school_name": "ESC. BAJO LA ESPERANZA",
    "longitude": -82.50636291503906,
    "latitude": 9.28369140625,
    "education_level": "Unknown",
    "country_iso3_code": "PAN",
    "giga_id_school": "28326e66-122a-3f28-99a5-4f6db8116f35",
    "school_data_source": null
  },
  {
    "school_name": "ESC. AURA ROSA AGUILAR",
    "longitude": -82.5053939819336,
    "latitude": 8.52198314666748,
    "education_level": "Unknown",
    "country_iso3_code": "PAN",
    "giga_id_school": "9dcca1aa-99e1-390e-9e84-0f050edee7d3",
    "school_data_source": null
  },
  {
    "school_name": "ESC. SAN PABLO VIEJO ARRIBA",
    "longitude": -82.50483703613281,
    "latitude": 8.483877182006836,
    "education_level": "Unknown",
    "country_iso3_code": "PAN",
    "giga_id_school": "27c0a4ce-b4a3-3a54-8b30-d1e50f0fd54e",
    "school_data_source": null
  },
  {
    "school_name": "ESC. ORILLA DEL RIO",
    "longitude": -82.50330352783203,
    "latitude": 8.360639572143555,
    "education_level": "Unknown",
    "country_iso3_code": "PAN",
    "giga_id_school": "92749bd5-005c-3b75-b942-dd9013070f1e",
    "school_data_source": null
  },
  {
    "school_name": "C.E.B.G. VIDAL B. DE BARROSO",
    "longitude": -82.50196838378906,
    "latitude": 8.458269119262695,
    "education_level": "Unknown",
    "country_iso3_code": "PAN",
    "giga_id_school": "df2ae156-d6cf-38db-aa94-1321bd4813d6",
    "school_data_source": null
  },
  {
    "school_name": "ESC. ROVIRA ARRIBA",
    "longitude": -82.50064849853516,
    "latitude": 8.63784408569336,
    "education_level": "Unknown",
    "country_iso3_code": "PAN",
    "giga_id_school": "f4b0ad81-9012-36a7-ae7d-ec32bcfd7a6f",
    "school_data_source": null
  },
  {
    "school_name": "C.E.B.G. BILINGÜE FINCA 04",
    "longitude": -82.50025177001953,
    "latitude": 9.402301788330078,
    "education_level": "Unknown",
    "country_iso3_code": "PAN",
    "giga_id_school": "fea289ae-60b5-3b82-aea7-7a544004f486",
    "school_data_source": null
  },
  {
    "school_name": "C.E.B.G. AMADA GONZALEZ DE MORALES",
    "longitude": -82.49993133544922,
    "latitude": 8.42834186553955,
    "education_level": "Unknown",
    "country_iso3_code": "PAN",
    "giga_id_school": "ff3b3a7c-3192-344b-9d9e-8d298aca18c7",
    "school_data_source": null
  },
  {
    "school_name": "ESC. BISIRA Nº3 ANEXA QDA. CANELA",
    "longitude": -82.49858093261719,
    "latitude": 9.475634574890137,
    "education_level": "Unknown",
    "country_iso3_code": "PAN",
    "giga_id_school": "b9f52bc4-0872-3e82-970a-5794ad303059",
    "school_data_source": null
  },
  {
    "school_name": "ESC. BAJO GAVILAN",
    "longitude": -82.49813842773438,
    "latitude": 9.274886131286621,
    "education_level": "Unknown",
    "country_iso3_code": "PAN",
    "giga_id_school": "2036417d-788c-34ab-93e1-b5dc7eb69652",
    "school_data_source": null
  },
  {
    "school_name": "ESC. FINCA 67",
    "longitude": -82.49691772460938,
    "latitude": 9.436468124389648,
    "education_level": "Unknown",
    "country_iso3_code": "PAN",
    "giga_id_school": "2ac66c70-2234-3da6-86e5-ef5824336076",
    "school_data_source": null
  },
  {
    "school_name": "ESC. CABECERA DE COCHEA",
    "longitude": -82.49625396728516,
    "latitude": 8.716462135314941,
    "education_level": "Unknown",
    "country_iso3_code": "PAN",
    "giga_id_school": "4a5c027d-2d8e-3a9b-b84d-131122059937",
    "school_data_source": null
  },
  {
    "school_name": "ESC. FINCA 64",
    "longitude": -82.49607849121094,
    "latitude": 9.458968162536621,
    "education_level": "Unknown",
    "country_iso3_code": "PAN",
    "giga_id_school": "a4a39859-0e70-39b6-9f35-822a79e06aa1",
    "school_data_source": null
  },
  {
    "school_name": "ESC. CHARCO LA PAVA",
    "longitude": -82.49580383300781,
    "latitude": 9.232024192810059,
    "education_level": "Unknown",
    "country_iso3_code": "PAN",
    "giga_id_school": "194d9b67-5e21-3a6c-9aa8-a09a0f4a6531",
    "school_data_source": null
  },
  {
    "school_name": "C.E.B.G. COROZAL",
    "longitude": -82.49568176269531,
    "latitude": 8.387041091918945,
    "education_level": "Unknown",
    "country_iso3_code": "PAN",
    "giga_id_school": "4fc5d35b-1e19-3745-9c4a-c34c1dc47380",
    "school_data_source": null
  },
  {
    "school_name": "ESC. LOMA ALTA",
    "longitude": -82.49444580078125,
    "latitude": 8.60737419128418,
    "education_level": "Unknown",
    "country_iso3_code": "PAN",
    "giga_id_school": "269b4872-992e-3350-b234-fa0a887343f9",
    "school_data_source": null
  },
  {
    "school_name": "E.S.N.O. DE DOLEGA (CP)",
    "longitude": -82.49320220947266,
    "latitude": 8.55840015411377,
    "education_level": "Unknown",
    "country_iso3_code": "PAN",
    "giga_id_school": "e677c7ef-e4cf-3c5d-88dd-2a5b31fc32b2",
    "school_data_source": null
  },
  {
    "school_name": "ESC. CHANGUINOLA ARRIBA",
    "longitude": -82.49302673339844,
    "latitude": 9.17674732208252,
    "education_level": "Unknown",
    "country_iso3_code": "PAN",
    "giga_id_school": "d81b8b80-27db-3fdc-be0b-df74324505e9",
    "school_data_source": null
  },
  {
    "school_name": "ESC. FELIX A. LARA",
    "longitude": -82.49258422851562,
    "latitude": 8.687708854675293,
    "education_level": "Unknown",
    "country_iso3_code": "PAN",
    "giga_id_school": "a22660f5-b903-3e46-ae9f-07214851d99f",
    "school_data_source": null
  },
  {
    "school_name": "ESC. MAYOR MARTIN GONZALEZ",
    "longitude": -82.49105834960938,
    "latitude": 8.627283096313477,
    "education_level": "Unknown",
    "country_iso3_code": "PAN",
    "giga_id_school": "5214c63a-2755-30f2-bed4-174ca084bd5b",
    "school_data_source": null
  },
  {
    "school_name": "ESC. LOMA BONITA",
    "longitude": -82.49080657958984,
    "latitude": 9.374524116516113,
    "education_level": "Unknown",
    "country_iso3_code": "PAN",
    "giga_id_school": "b19a2815-7849-3304-ac54-60e1b0b688ca",
    "school_data_source": null
  },
  {
    "school_name": "ESC. GUACA ARRIBA",
    "longitude": -82.490478515625,
    "latitude": 8.550130844116211,
    "education_level": "Unknown",
    "country_iso3_code": "PAN",
    "giga_id_school": "99dd5976-cd87-3890-95b2-266da4115252",
    "school_data_source": null
  },
  {
    "school_name": "ESC. ARTURO MIRO",
    "longitude": -82.48934173583984,
    "latitude": 8.670228958129883,
    "education_level": "Unknown",
    "country_iso3_code": "PAN",
    "giga_id_school": "7183e5d6-b953-3845-8709-199c8e7d3fdd",
    "school_data_source": null
  },
  {
    "school_name": "ESC. COCHIGRO",
    "longitude": -82.4882583618164,
    "latitude": 9.29302978515625,
    "education_level": "Unknown",
    "country_iso3_code": "PAN",
    "giga_id_school": "8889a6ef-1253-30cc-ad22-dc0c69107db1",
    "school_data_source": null
  },
  {
    "school_name": "ESC. VALLE JUNQUITO",
    "longitude": -82.48664093017578,
    "latitude": 9.368135452270508,
    "education_level": "Unknown",
    "country_iso3_code": "PAN",
    "giga_id_school": "3b245cd4-4955-35a1-9c09-816ed4e0da1d",
    "school_data_source": null
  },
  {
    "school_name": "ESC. LA GLORIA",
    "longitude": -82.4852523803711,
    "latitude": 9.33480167388916,
    "education_level": "Unknown",
    "country_iso3_code": "PAN",
    "giga_id_school": "bb08d113-b41e-3cbb-be56-20d301d9f1ba",
    "school_data_source": null
  },
  {
    "school_name": "ESC. LOS PALOMOS",
    "longitude": -82.48497009277344,
    "latitude": 8.596883773803711,
    "education_level": "Unknown",
    "country_iso3_code": "PAN",
    "giga_id_school": "debd256d-d4a5-35c6-b623-b262850b9390",
    "school_data_source": null
  },
  {
    "school_name": "ESC. SAN JUAN DE DAVID",
    "longitude": -82.48472595214844,
    "latitude": 8.482253074645996,
    "education_level": "Unknown",
    "country_iso3_code": "PAN",
    "giga_id_school": "d8317e89-e3bc-3fa1-a26d-f132dc464421",
    "school_data_source": null
  },
  {
    "school_name": "C.E.B.G. BILINGÜE FINCA 62",
    "longitude": -82.48441314697266,
    "latitude": 9.449801445007324,
    "education_level": "Unknown",
    "country_iso3_code": "PAN",
    "giga_id_school": "5ee9eded-53c0-360e-9be1-ba9074388101",
    "school_data_source": null
  },
  {
    "school_name": "ESC. ELIFENIA STAFF",
    "longitude": -82.48331451416016,
    "latitude": 8.643593788146973,
    "education_level": "Unknown",
    "country_iso3_code": "PAN",
    "giga_id_school": "4aedbbd2-2af6-3885-b7e5-fb4ea6bbcd79",
    "school_data_source": null
  },
  {
    "school_name": "ESC. FINCA 44",
    "longitude": -82.48274993896484,
    "latitude": 9.47424602508545,
    "education_level": "Unknown",
    "country_iso3_code": "PAN",
    "giga_id_school": "513baa8d-25b3-3036-b1e3-d44827f4b619",
    "school_data_source": null
  },
  {
    "school_name": "ESC. FINCA 02",
    "longitude": -82.48136138916016,
    "latitude": 9.417301177978516,
    "education_level": "Unknown",
    "country_iso3_code": "PAN",
    "giga_id_school": "ec85c4be-e1dc-3c79-a744-52d68938a0f7",
    "school_data_source": null
  },
  {
    "school_name": "ESC. MONTILLA",
    "longitude": -82.47935485839844,
    "latitude": 8.468132019042969,
    "education_level": "Unknown",
    "country_iso3_code": "PAN",
    "giga_id_school": "d53d3075-6f9f-32e8-a842-29cdf8851e51",
    "school_data_source": null
  },
  {
    "school_name": "ESC. ALTO QUIEL",
    "longitude": -82.47802734375,
    "latitude": 8.815359115600586,
    "education_level": "Unknown",
    "country_iso3_code": "PAN",
    "giga_id_school": "01e2bc11-485e-38f0-aca5-75eecb4053a7",
    "school_data_source": null
  },
  {
    "school_name": "ESC. FINCA 03",
    "longitude": -82.4771957397461,
    "latitude": 9.427301406860352,
    "education_level": "Unknown",
    "country_iso3_code": "PAN",
    "giga_id_school": "1cd4ee0f-38fe-37a8-9c28-303eb07bf601",
    "school_data_source": null
  },
  {
    "school_name": "ESC. FINCA 61",
    "longitude": -82.47608947753906,
    "latitude": 9.454580307006836,
    "education_level": "Unknown",
    "country_iso3_code": "PAN",
    "giga_id_school": "e2510339-dea8-3f8f-808c-fbefcbf91df7",
    "school_data_source": null
  },
  {
    "school_name": "ESC. ALTO MAJAGUA",
    "longitude": -82.47544860839844,
    "latitude": 8.551159858703613,
    "education_level": "Unknown",
    "country_iso3_code": "PAN",
    "giga_id_school": "71f0cbb1-7540-337a-8279-ddd51553ee06",
    "school_data_source": null
  },
  {
    "school_name": "ESC. MILLA 10",
    "longitude": -82.47357940673828,
    "latitude": 9.38702392578125,
    "education_level": "Unknown",
    "country_iso3_code": "PAN",
    "giga_id_school": "048b6ede-d811-3413-9f62-a602cad645bf",
    "school_data_source": null
  },
  {
    "school_name": "ESC. VALLE LIBRE",
    "longitude": -82.4732894897461,
    "latitude": 8.977970123291016,
    "education_level": "Unknown",
    "country_iso3_code": "PAN",
    "giga_id_school": "e12ab8fa-3a9f-3f86-aa78-967f9948e72e",
    "school_data_source": null
  },
  {
    "school_name": "ESC. SANTO DOMINGO DE GUZMÁN",
    "longitude": -82.47308349609375,
    "latitude": 8.428299903869629,
    "education_level": "Unknown",
    "country_iso3_code": "PAN",
    "giga_id_school": "463b8f0a-800d-36b2-9fb6-aad67e9577d1",
    "school_data_source": null
  },
  {
    "school_name": "ESC. BRAZOS DE COCHEA",
    "longitude": -82.47289276123047,
    "latitude": 8.705349922180176,
    "education_level": "Unknown",
    "country_iso3_code": "PAN",
    "giga_id_school": "c41ced5b-6e0f-3e22-9722-5334254ad372",
    "school_data_source": null
  },
  {
    "school_name": "ESC. LOMA MULETO",
    "longitude": -82.4708023071289,
    "latitude": 9.3628568649292,
    "education_level": "Unknown",
    "country_iso3_code": "PAN",
    "giga_id_school": "e2a6536a-c6e3-3ca0-a680-ad0a5d5198e2",
    "school_data_source": null
  },
  {
    "school_name": "ESC. NANCE DE RISCO",
    "longitude": -82.469970703125,
    "latitude": 9.266746520996094,
    "education_level": "Unknown",
    "country_iso3_code": "PAN",
    "giga_id_school": "f65fc628-b1b6-392e-912b-99f00fa3a34b",
    "school_data_source": null
  },
  {
    "school_name": "ESC. GUAYACAN",
    "longitude": -82.4677505493164,
    "latitude": 9.072858810424805,
    "education_level": "Unknown",
    "country_iso3_code": "PAN",
    "giga_id_school": "c1bf2c3e-f7d0-3330-8d2f-6849feb7e216",
    "school_data_source": null
  },
  {
    "school_name": "ESC. BELLA VISTA",
    "longitude": -82.46746826171875,
    "latitude": 9.34591293334961,
    "education_level": "Unknown",
    "country_iso3_code": "PAN",
    "giga_id_school": "f778912a-0ea1-3a4f-8a85-a93247b7866b",
    "school_data_source": null
  },
  {
    "school_name": "ESC. PALMIRA ABAJO",
    "longitude": -82.46636199951172,
    "latitude": 8.72952651977539,
    "education_level": "Unknown",
    "country_iso3_code": "PAN",
    "giga_id_school": "865ecbe9-fa76-32fe-88fc-2ea47eb5e839",
    "school_data_source": null
  },
  {
    "school_name": "ESC. GUACA ABAJO",
    "longitude": -82.46410369873047,
    "latitude": 8.522589683532715,
    "education_level": "Unknown",
    "country_iso3_code": "PAN",
    "giga_id_school": "834ac930-c0d8-3c94-a872-2642e15bb6be",
    "school_data_source": null
  },
  {
    "school_name": "ESC. LOS BEJUCOS",
    "longitude": -82.46284484863281,
    "latitude": 8.585575103759766,
    "education_level": "Unknown",
    "country_iso3_code": "PAN",
    "giga_id_school": "2dd82da4-cfd5-3a81-a6b4-e7772f845a27",
    "school_data_source": null
  },
  {
    "school_name": "ESC. SOLEDAD DEL VALLE DE RISCO",
    "longitude": -82.46219635009766,
    "latitude": 9.24507999420166,
    "education_level": "Unknown",
    "country_iso3_code": "PAN",
    "giga_id_school": "08c2bc68-b4c8-3d93-998e-2e01b8cbecc3",
    "school_data_source": null
  },