[
  {
    "school_name": "Павле Поповић",
    "longitude": 20.334266662597656,
    "latitude": 44.564300537109375,
    "education_level": "Unknown",
    "country_iso3_code": "SRB",
    "giga_id_school": "dfe66f63-2eeb-32d7-81fc-1d8db3da9a74",
    "school_data_source": null
  },
  {
    "school_name": "Павле Поповић",
    "longitude": 20.35964012145996,
    "latitude": 44.61223220825195,
    "education_level": "Unknown",
    "country_iso3_code": "SRB",
    "giga_id_school": "3b20b58b-f3a2-376e-a8b3-60a15c80faf1",
    "school_data_source": null
  },
  {
    "school_name": "Павле Поповић",
    "longitude": 20.334287643432617,
    "latitude": 44.56427001953125,
    "education_level": "Unknown",
    "country_iso3_code": "SRB",
    "giga_id_school": "0f0ae304-e1bd-33b4-b08d-33bbecccf9ee",
    "school_data_source": null
  },
  {
    "school_name": "Кнез Сима Марковић",
    "longitude": 20.3302001953125,
    "latitude": 44.5748176574707,
    "education_level": "Unknown",
    "country_iso3_code": "SRB",
    "giga_id_school": "c01ec9ca-d481-396a-a518-958ee19e4f3f",
    "school_data_source": null
  },
  {
    "school_name": "Кнез Сима Марковић",
    "longitude": 20.46478271484375,
    "latitude": 44.54145050048828,
    "education_level": "Unknown",
    "country_iso3_code": "SRB",
    "giga_id_school": "4cbee424-5e57-3436-8258-5004b1c2b199",
    "school_data_source": null
  },
  {
    "school_name": "Кнез Сима Марковић",
    "longitude": 20.391311645507812,
    "latitude": 44.60943603515625,
    "education_level": "Unknown",
    "country_iso3_code": "SRB",
    "giga_id_school": "0cb1e0ab-f925-34f4-9ec1-fc2e070a3229",
    "school_data_source": null
  },
  {
    "school_name": "Кнез Сима Марковић",
    "longitude": 20.43628692626953,
    "latitude": 44.553489685058594,
    "education_level": "Unknown",
    "country_iso3_code": "SRB",
    "giga_id_school": "70276efb-d179-3a7b-990f-bcc94fea0b50",
    "school_data_source": null
  },
  {
    "school_name": "Кнез Сима Марковић",
    "longitude": 20.436630249023438,
    "latitude": 44.55275344848633,
    "education_level": "Unknown",
    "country_iso3_code": "SRB",
    "giga_id_school": "28c7643a-09fd-31a2-b28c-cc9ccb783e74",
    "school_data_source": null
  },
  {
    "school_name": "Кнез Сима Марковић",
    "longitude": 19.8700008392334,
    "latitude": 43.970001220703125,
    "education_level": "Unknown",
    "country_iso3_code": "SRB",
    "giga_id_school": "fc06574a-ce37-3e56-9eaa-e8378620cffa",
    "school_data_source": null
  },
  {
    "school_name": "Кнез Сима Марковић",
    "longitude": 20.446500778198242,
    "latitude": 44.59907150268555,
    "education_level": "Unknown",
    "country_iso3_code": "SRB",
    "giga_id_school": "7733a37d-11f6-39d5-ad49-b124a646711c",
    "school_data_source": null
  },
  {
    "school_name": "Кнез Сима Марковић",
    "longitude": 20.373458862304688,
    "latitude": 44.58381652832031,
    "education_level": "Unknown",
    "country_iso3_code": "SRB",
    "giga_id_school": "25254363-f5a7-3e0a-9901-770d18e6bcc0",
    "school_data_source": null
  },
  {
    "school_name": "Кнез Сима Марковић",
    "longitude": 20.39234161376953,
    "latitude": 44.55177688598633,
    "education_level": "Unknown",
    "country_iso3_code": "SRB",
    "giga_id_school": "8510a318-c721-3fdc-af1c-9ab9c78de338",
    "school_data_source": null
  },
  {
    "school_name": "Кнез Сима Марковић",
    "longitude": 20.447444915771484,
    "latitude": 44.61305236816406,
    "education_level": "Unknown",
    "country_iso3_code": "SRB",
    "giga_id_school": "f99c77e3-2a16-32e4-9c69-dfc1fd60a7ae",
    "school_data_source": null
  },
  {
    "school_name": "Кнез Сима Марковић",
    "longitude": 20.422210693359375,
    "latitude": 44.50815963745117,
    "education_level": "Unknown",
    "country_iso3_code": "SRB",
    "giga_id_school": "4a6f22dd-9a42-3ab8-8074-01adec2323c6",
    "school_data_source": null
  },
  {
    "school_name": "Кнез Сима Марковић",
    "longitude": 20.39783477783203,
    "latitude": 44.48323059082031,
    "education_level": "Unknown",
    "country_iso3_code": "SRB",
    "giga_id_school": "431d8f8f-da86-35a4-967e-01d039321677",
    "school_data_source": null
  },
  {
    "school_name": "Кнез Сима Марковић",
    "longitude": 20.367279052734375,
    "latitude": 44.49895477294922,
    "education_level": "Unknown",
    "country_iso3_code": "SRB",
    "giga_id_school": "4ab3ce15-d7ec-378f-bcf5-8c4c08be4880",
    "school_data_source": null
  },
  {
    "school_name": "Кнез Сима Марковић",
    "longitude": 20.39234161376953,
    "latitude": 44.51310729980469,
    "education_level": "Unknown",
    "country_iso3_code": "SRB",
    "giga_id_school": "4b4ca48f-d1f3-3353-b742-3fa6c9ed238c",
    "school_data_source": null
  },
  {
    "school_name": "Кнез Сима Марковић",
    "longitude": 20.35491943359375,
    "latitude": 44.5390510559082,
    "education_level": "Unknown",
    "country_iso3_code": "SRB",
    "giga_id_school": "2723cb10-423b-378c-a42f-fb0cd787d4c0",
    "school_data_source": null
  },
  {
    "school_name": "Бора Станковић",
    "longitude": 20.477474212646484,
    "latitude": 44.7579345703125,
    "education_level": "Unknown",
    "country_iso3_code": "SRB",
    "giga_id_school": "de0e1b7b-c669-3757-96a6-d65fd0bde9bd",
    "school_data_source": null
  },
  {
    "school_name": "Змај Јова Јовановић",
    "longitude": 20.4906063079834,
    "latitude": 44.770748138427734,
    "education_level": "Unknown",
    "country_iso3_code": "SRB",
    "giga_id_school": "dc06706a-284e-3bcc-8ef3-98013dce3f32",
    "school_data_source": null
  },
  {
    "school_name": "Ђура Даничић",
    "longitude": 20.4620361328125,
    "latitude": 44.74205017089844,
    "education_level": "Unknown",
    "country_iso3_code": "SRB",
    "giga_id_school": "6721d700-33da-34ab-a90f-9b99d53e0983",
    "school_data_source": null
  },
  {
    "school_name": "Карађорђе",
    "longitude": 20.467052459716797,
    "latitude": 44.78459167480469,
    "education_level": "Unknown",
    "country_iso3_code": "SRB",
    "giga_id_school": "722516c2-cb2b-363c-be6e-a161e4182d76",
    "school_data_source": null
  },
  {
    "school_name": "Милан Ђ. Милићевић",
    "longitude": 20.504779815673828,
    "latitude": 44.7751350402832,
    "education_level": "Unknown",
    "country_iso3_code": "SRB",
    "giga_id_school": "622eef63-a094-3b34-9428-75c271d0f291",
    "school_data_source": null
  },
  {
    "school_name": "Јанко Веселиновић",
    "longitude": 20.498451232910156,
    "latitude": 44.78631591796875,
    "education_level": "Unknown",
    "country_iso3_code": "SRB",
    "giga_id_school": "7a590967-43c4-3b9e-83c2-6597c36fc145",
    "school_data_source": null
  },
  {
    "school_name": "Доситеј Обрадовић",
    "longitude": 20.479646682739258,
    "latitude": 44.788719177246094,
    "education_level": "Unknown",
    "country_iso3_code": "SRB",
    "giga_id_school": "9f89e345-3479-3d26-8ef7-bdaec3c25732",
    "school_data_source": null
  },
  {
    "school_name": "Веселин Маслеша",
    "longitude": 20.478546142578125,
    "latitude": 44.78020095825195,
    "education_level": "Unknown",
    "country_iso3_code": "SRB",
    "giga_id_school": "bec8b421-e927-3c09-9c42-ccdd3fa0e015",
    "school_data_source": null
  },
  {
    "school_name": "Филип Филиповић",
    "longitude": 20.479507446289062,
    "latitude": 44.76337814331055,
    "education_level": "Unknown",
    "country_iso3_code": "SRB",
    "giga_id_school": "127c0675-ea28-35cb-b876-5e04daa7beb8",
    "school_data_source": null
  },
  {
    "school_name": "Бранислав Нушић",
    "longitude": 20.478515625,
    "latitude": 44.7740364074707,
    "education_level": "Unknown",
    "country_iso3_code": "SRB",
    "giga_id_school": "89058e6a-1a73-3e99-bf77-f884416ca9c0",
    "school_data_source": null
  },
  {
    "school_name": "Војвода Степа",
    "longitude": 20.504436492919922,
    "latitude": 44.738258361816406,
    "education_level": "Unknown",
    "country_iso3_code": "SRB",
    "giga_id_school": "1ba639a7-5c4c-32c4-b3d0-c8268a40e476",
    "school_data_source": null
  },
  {
    "school_name": "Јајинци",
    "longitude": 20.486780166625977,
    "latitude": 44.736328125,
    "education_level": "Unknown",
    "country_iso3_code": "SRB",
    "giga_id_school": "bf1498be-8e60-3bd3-9231-b90a2c33d673",
    "school_data_source": null
  },
  {
    "school_name": "Јајинци",
    "longitude": 20.496572494506836,
    "latitude": 44.721588134765625,
    "education_level": "Unknown",
    "country_iso3_code": "SRB",
    "giga_id_school": "9a45f2ee-9867-3fef-81c0-a30a8a8b143e",
    "school_data_source": null
  },
  {
    "school_name": "Вук Караџић",
    "longitude": 20.521041870117188,
    "latitude": 44.64049530029297,
    "education_level": "Unknown",
    "country_iso3_code": "SRB",
    "giga_id_school": "d1de835c-8727-3289-ad75-89c25a2de8f3",
    "school_data_source": null
  },
  {
    "school_name": "Вук Караџић",
    "longitude": 20.511005401611328,
    "latitude": 44.61933898925781,
    "education_level": "Unknown",
    "country_iso3_code": "SRB",
    "giga_id_school": "10245067-a9bc-3ef5-81f9-2e57f5402e6b",
    "school_data_source": null
  },
  {
    "school_name": "Вук Караџић",
    "longitude": 20.553211212158203,
    "latitude": 44.633636474609375,
    "education_level": "Unknown",
    "country_iso3_code": "SRB",
    "giga_id_school": "dffb63f7-86e2-310c-b3ac-5a1b9b83d549",
    "school_data_source": null
  },
  {
    "school_name": "Васа Чарапић",
    "longitude": 20.50875473022461,
    "latitude": 44.70216751098633,
    "education_level": "Unknown",
    "country_iso3_code": "SRB",
    "giga_id_school": "e4777c5c-847d-394d-8a5c-b1e83eb6eaf3",
    "school_data_source": null
  },
  {
    "school_name": "Васа Чарапић",
    "longitude": 20.555097579956055,
    "latitude": 44.700599670410156,
    "education_level": "Unknown",
    "country_iso3_code": "SRB",
    "giga_id_school": "523c55e3-d09e-3aef-ba4a-c1935548edb0",
    "school_data_source": null
  },
  {
    "school_name": "Васа Чарапић",
    "longitude": 20.489315032958984,
    "latitude": 44.6949462890625,
    "education_level": "Unknown",
    "country_iso3_code": "SRB",
    "giga_id_school": "8fb6209f-a53b-3caa-9ae1-7c8e6bd299b9",
    "school_data_source": null
  },
  {
    "school_name": "Свети Сава",
    "longitude": 20.470083236694336,
    "latitude": 44.80009460449219,
    "education_level": "Unknown",
    "country_iso3_code": "SRB",
    "giga_id_school": "e35e7ccc-5bd1-38ee-ad0a-62f3179fc7ba",
    "school_data_source": null
  },
  {
    "school_name": "Јован Миодраговић",
    "longitude": 20.479082107543945,
    "latitude": 44.799842834472656,
    "education_level": "Unknown",
    "country_iso3_code": "SRB",
    "giga_id_school": "af19d247-1c5b-39ec-a2db-43e637213b35",
    "school_data_source": null
  },
  {
    "school_name": "Краљ Петар II Карађорђевић",
    "longitude": 20.48046875,
    "latitude": 44.79495620727539,
    "education_level": "Unknown",
    "country_iso3_code": "SRB",
    "giga_id_school": "538cc733-1b66-3d7e-99b0-b93d2db320e8",
    "school_data_source": null
  },
  {
    "school_name": "НХ Синиша Николајевић",
    "longitude": 20.486888885498047,
    "latitude": 44.7957763671875,
    "education_level": "Unknown",
    "country_iso3_code": "SRB",
    "giga_id_school": "1b301099-57b7-35aa-8c06-fa03df81d1f5",
    "school_data_source": null
  },
  {
    "school_name": "Светозар Марковић",
    "longitude": 20.47439956665039,
    "latitude": 44.79383087158203,
    "education_level": "Unknown",
    "country_iso3_code": "SRB",
    "giga_id_school": "d174fc44-a2cd-3a98-be90-7f1f793829f4",
    "school_data_source": null
  },
  {
    "school_name": "Владислав Рибникар",
    "longitude": 20.467668533325195,
    "latitude": 44.80595397949219,
    "education_level": "Unknown",
    "country_iso3_code": "SRB",
    "giga_id_school": "0f51d60a-12a9-3962-ac1b-d0e8fbd445f4",
    "school_data_source": null
  },
  {
    "school_name": "Алекса Шантић",
    "longitude": 20.55665397644043,
    "latitude": 44.76485824584961,
    "education_level": "Unknown",
    "country_iso3_code": "SRB",
    "giga_id_school": "09d15a96-e4eb-3853-8e3b-251ec528cd15",
    "school_data_source": null
  },
  {
    "school_name": "Алекса Шантић",
    "longitude": 20.552640914916992,
    "latitude": 44.755123138427734,
    "education_level": "Unknown",
    "country_iso3_code": "SRB",
    "giga_id_school": "05c59317-a089-3fa3-888f-2e25a3953d60",
    "school_data_source": null
  },
  {
    "school_name": "Никола Тесла",
    "longitude": 20.599483489990234,
    "latitude": 44.747676849365234,
    "education_level": "Unknown",
    "country_iso3_code": "SRB",
    "giga_id_school": "049326d7-b8fa-36b4-af0a-3f7f3d1afa58",
    "school_data_source": null
  },
  {
    "school_name": "Никола Тесла",
    "longitude": 20.649147033691406,
    "latitude": 44.72697830200195,
    "education_level": "Unknown",
    "country_iso3_code": "SRB",
    "giga_id_school": "34dd4717-3682-3e71-831c-0a5483daacfb",
    "school_data_source": null
  },
  {
    "school_name": "Илија Гарашанин",
    "longitude": 20.714828491210938,
    "latitude": 44.67344284057617,
    "education_level": "Unknown",
    "country_iso3_code": "SRB",
    "giga_id_school": "429fc56f-3c89-378b-9206-e20ad68c4cca",
    "school_data_source": null
  },
  {
    "school_name": "Илија Гарашанин",
    "longitude": 20.768108367919922,
    "latitude": 44.645450592041016,
    "education_level": "Unknown",
    "country_iso3_code": "SRB",
    "giga_id_school": "a90c03ac-f153-3b5d-81c2-bae8295d01bf",
    "school_data_source": null
  },
  {
    "school_name": "Илија Гарашанин",
    "longitude": 20.62550163269043,
    "latitude": 44.67708969116211,
    "education_level": "Unknown",
    "country_iso3_code": "SRB",
    "giga_id_school": "f529d539-268a-3ffb-be66-be54d906cfa5",
    "school_data_source": null
  },
  {
    "school_name": "Свети Сава",
    "longitude": 20.533447265625,
    "latitude": 44.73502731323242,
    "education_level": "Unknown",
    "country_iso3_code": "SRB",
    "giga_id_school": "53af4905-4d3a-3845-99ae-ed8de131fcbb",
    "school_data_source": null
  },
  {
    "school_name": "Свети Сава",
    "longitude": 20.533447265625,
    "latitude": 44.74283218383789,
    "education_level": "Unknown",
    "country_iso3_code": "SRB",
    "giga_id_school": "fbfa2159-d89d-3922-8aa5-b683181e8035",
    "school_data_source": null
  },
  {
    "school_name": "Свети Сава",
    "longitude": 20.5499267578125,
    "latitude": 44.73502731323242,
    "education_level": "Unknown",
    "country_iso3_code": "SRB",
    "giga_id_school": "b1a5f778-9fdc-3742-b007-54ceae281c41",
    "school_data_source": null
  },
  {
    "school_name": "Мића Стојковић",
    "longitude": 20.502479553222656,
    "latitude": 44.64018249511719,
    "education_level": "Unknown",
    "country_iso3_code": "SRB",
    "giga_id_school": "426056e0-01cf-3bce-bdcc-da10c5c60cb8",
    "school_data_source": null
  },
  {
    "school_name": "Мића Стојковић",
    "longitude": 20.715482711791992,
    "latitude": 44.61090087890625,
    "education_level": "Unknown",
    "country_iso3_code": "SRB",
    "giga_id_school": "cbb8cf4d-319d-36f0-9179-b4f90325b1ad",
    "school_data_source": null
  },
  {
    "school_name": "Мића Стојковић",
    "longitude": 20.591886520385742,
    "latitude": 44.567256927490234,
    "education_level": "Unknown",
    "country_iso3_code": "SRB",
    "giga_id_school": "eb35560c-39ec-3e59-b37e-20738fbf677d",
    "school_data_source": null
  },
  {
    "school_name": "Мића Стојковић",
    "longitude": 20.800447463989258,
    "latitude": 44.595359802246094,
    "education_level": "Unknown",
    "country_iso3_code": "SRB",
    "giga_id_school": "18b84fa7-1c11-3833-beb7-47d49bb2becc",
    "school_data_source": null
  },
  {
    "school_name": "Мића Стојковић",
    "longitude": 20.479610443115234,
    "latitude": 44.77104568481445,
    "education_level": "Unknown",
    "country_iso3_code": "SRB",
    "giga_id_school": "ed4d7932-e98e-3e93-9192-712c94fe0b26",
    "school_data_source": null
  },
  {
    "school_name": "Иво Лола Рибар",
    "longitude": 20.694765090942383,
    "latitude": 44.63228988647461,
    "education_level": "Unknown",
    "country_iso3_code": "SRB",
    "giga_id_school": "880488b7-27c4-3bcf-8141-d8fc4c62fd5f",
    "school_data_source": null
  },
  {
    "school_name": "Десанка Максимовић",
    "longitude": 20.515958786010742,
    "latitude": 44.782779693603516,
    "education_level": "Unknown",
    "country_iso3_code": "SRB",
    "giga_id_school": "b7be5e53-ccc3-350b-b39d-b3397a190547",
    "school_data_source": null
  },
  {
    "school_name": "Вељко Дугошевић",
    "longitude": 20.501258850097656,
    "latitude": 44.797607421875,
    "education_level": "Unknown",
    "country_iso3_code": "SRB",
    "giga_id_school": "e8f98719-7286-3f97-8d7e-cf1a5edd592a",
    "school_data_source": null
  },
  {
    "school_name": "Владислав Петковић ДИС",
    "longitude": 20.529016494750977,
    "latitude": 44.75876235961914,
    "education_level": "Unknown",
    "country_iso3_code": "SRB",
    "giga_id_school": "982bdfc3-cae3-3dd7-bbc3-d90726e88bd7",
    "school_data_source": null
  },
  {
    "school_name": "Драгојло Дудић",
    "longitude": 20.534793853759766,
    "latitude": 44.77593994140625,
    "education_level": "Unknown",
    "country_iso3_code": "SRB",
    "giga_id_school": "88fe338d-fdc7-3230-b843-8dd707f89974",
    "school_data_source": null
  },
  {
    "school_name": "Иван Горан Ковачић",
    "longitude": 20.484878540039062,
    "latitude": 44.8038444519043,
    "education_level": "Unknown",
    "country_iso3_code": "SRB",
    "giga_id_school": "26a63a74-2895-3572-8e90-6ecfaad4fe4e",
    "school_data_source": null
  },
  {
    "school_name": "Јелена Ћетковић",
    "longitude": 20.495616912841797,
    "latitude": 44.79535675048828,
    "education_level": "Unknown",
    "country_iso3_code": "SRB",
    "giga_id_school": "e443d5d4-9047-3360-9f1e-9aa7b7636e5d",
    "school_data_source": null
  },
  {
    "school_name": "Марија Бурсаћ",
    "longitude": 20.510229110717773,
    "latitude": 44.79546356201172,
    "education_level": "Unknown",
    "country_iso3_code": "SRB",
    "giga_id_school": "6b6c544d-d952-3bf2-a046-a7f6e8074854",
    "school_data_source": null
  },
  {
    "school_name": "Деспот Стефан Лазаревић",
    "longitude": 20.52821159362793,
    "latitude": 44.79258728027344,
    "education_level": "Unknown",
    "country_iso3_code": "SRB",
    "giga_id_school": "3baadb02-a456-31e5-a518-c779de5f990d",
    "school_data_source": null
  },
  {
    "school_name": "Стеван Синђелић",
    "longitude": 20.46855926513672,
    "latitude": 44.78695297241211,
    "education_level": "Unknown",
    "country_iso3_code": "SRB",
    "giga_id_school": "1b703438-dfc1-3d27-bd4b-c4cb3a8a25b9",
    "school_data_source": null
  },
  {
    "school_name": "Ћирило и Методије",
    "longitude": 20.507827758789062,
    "latitude": 44.786617279052734,
    "education_level": "Unknown",
    "country_iso3_code": "SRB",
    "giga_id_school": "027ee898-a075-3797-8cb3-a7ae333dd559",
    "school_data_source": null
  },
  {
    "school_name": "1300 каплара",
    "longitude": 20.49825668334961,
    "latitude": 44.80458450317383,
    "education_level": "Unknown",
    "country_iso3_code": "SRB",
    "giga_id_school": "d7bcf3d2-1448-3a6b-a682-6b9d9df2dfc6",
    "school_data_source": null
  },
  {
    "school_name": "Павле Савић",
    "longitude": 20.540903091430664,
    "latitude": 44.7918815612793,
    "education_level": "Unknown",
    "country_iso3_code": "SRB",
    "giga_id_school": "9c0c7fde-8d75-3254-9e3d-439d38829567",
    "school_data_source": null
  },
  {
    "school_name": "Мајка Југовића",
    "longitude": 20.41089630126953,
    "latitude": 44.84085464477539,
    "education_level": "Unknown",
    "country_iso3_code": "SRB",
    "giga_id_school": "9e7f54ca-e473-3739-bab0-d9cb8a85c50c",
    "school_data_source": null
  },
  {
    "school_name": "Светозар Милетић",
    "longitude": 20.41324234008789,
    "latitude": 44.8401985168457,
    "education_level": "Unknown",
    "country_iso3_code": "SRB",
    "giga_id_school": "10eebbc0-4ea9-32c9-9dba-f8bbda68ce37",
    "school_data_source": null
  },
  {
    "school_name": "Лазар Саватић",
    "longitude": 20.414968490600586,
    "latitude": 44.8455924987793,
    "education_level": "Unknown",
    "country_iso3_code": "SRB",
    "giga_id_school": "679c3bc3-1d5b-30d3-b3cb-5342c792ac37",
    "school_data_source": null
  },
  {
    "school_name": "Раде Кончар",
    "longitude": 20.394390106201172,
    "latitude": 44.839168548583984,
    "education_level": "Unknown",
    "country_iso3_code": "SRB",
    "giga_id_school": "f45f948f-24d5-3e5b-9045-01961075ea7c",
    "school_data_source": null
  },
  {
    "school_name": "Сутјеска",
    "longitude": 20.381141662597656,
    "latitude": 44.842647552490234,
    "education_level": "Unknown",
    "country_iso3_code": "SRB",
    "giga_id_school": "01b57374-3a0b-3064-af22-b8efd66077ac",
    "school_data_source": null
  },
  {
    "school_name": "Петар Кочић",
    "longitude": 20.38517189025879,
    "latitude": 44.84089279174805,
    "education_level": "Unknown",
    "country_iso3_code": "SRB",
    "giga_id_school": "45b8d67b-4edd-3db7-818b-bfd83952d106",
    "school_data_source": null
  },
  {
    "school_name": "Гаврило Принцип",
    "longitude": 20.372621536254883,
    "latitude": 44.84012222290039,
    "education_level": "Unknown",
    "country_iso3_code": "SRB",
    "giga_id_school": "75e8bebb-de6a-382e-8ca6-f6bcd05f64b6",
    "school_data_source": null
  },
  {
    "school_name": "Соња Маринковић",
    "longitude": 20.388690948486328,
    "latitude": 44.85102844238281,
    "education_level": "Unknown",
    "country_iso3_code": "SRB",
    "giga_id_school": "91d3dc1e-f6d6-3f8b-8438-ee70e3863bb7",
    "school_data_source": null
  },
  {
    "school_name": "Горња Варош",
    "longitude": 20.39528465270996,
    "latitude": 44.850337982177734,
    "education_level": "Unknown",
    "country_iso3_code": "SRB",
    "giga_id_school": "fe175926-9332-3cf4-adb5-bfabb58b0286",
    "school_data_source": null
  },
  {
    "school_name": "Сава Јовановић Сирогојно",
    "longitude": 20.384075164794922,
    "latitude": 44.8533821105957,
    "education_level": "Unknown",
    "country_iso3_code": "SRB",
    "giga_id_school": "5f06f200-23bc-3293-93dc-ccb95dd3e1e4",
    "school_data_source": null
  },
  {
    "school_name": "Сава Јовановић Сирогојно",
    "longitude": 20.381364822387695,
    "latitude": 44.84367370605469,
    "education_level": "Unknown",
    "country_iso3_code": "SRB",
    "giga_id_school": "f5e9722c-74f1-3427-94f4-a92b8d68dad1",
    "school_data_source": null
  },
  {
    "school_name": "Сава Јовановић Сирогојно",
    "longitude": 20.29131507873535,
    "latitude": 44.79734420776367,
    "education_level": "Unknown",
    "country_iso3_code": "SRB",
    "giga_id_school": "1a571a76-e42d-39ab-938d-57207584ec57",
    "school_data_source": null
  },
  {
    "school_name": "Сава Јовановић Сирогојно",
    "longitude": 20.234840393066406,
    "latitude": 44.81634521484375,
    "education_level": "Unknown",
    "country_iso3_code": "SRB",
    "giga_id_school": "051a161b-f94b-3d6f-85cc-93965e056320",
    "school_data_source": null
  },
  {
    "school_name": "Сава Јовановић Сирогојно",
    "longitude": 20.279666900634766,
    "latitude": 44.91023254394531,
    "education_level": "Unknown",
    "country_iso3_code": "SRB",
    "giga_id_school": "e87218cd-c28e-35b7-b0c5-6f4318ff9fc3",
    "school_data_source": null
  },
  {
    "school_name": "Сава Јовановић Сирогојно",
    "longitude": 20.258485794067383,
    "latitude": 44.754093170166016,
    "education_level": "Unknown",
    "country_iso3_code": "SRB",
    "giga_id_school": "0654de8b-554d-3071-8580-103a8c7b1608",
    "school_data_source": null
  },
  {
    "school_name": "Илија Бирчанин",
    "longitude": 20.324159622192383,
    "latitude": 44.868873596191406,
    "education_level": "Unknown",
    "country_iso3_code": "SRB",
    "giga_id_school": "d9192ce2-fd07-32de-a924-63a9f30962e3",
    "school_data_source": null
  },
  {
    "school_name": "Бошко Палковљевић Пинки",
    "longitude": 20.273895263671875,
    "latitude": 44.906227111816406,
    "education_level": "Unknown",
    "country_iso3_code": "SRB",
    "giga_id_school": "c0a1225c-bdf2-35a5-a491-d5475defe45e",
    "school_data_source": null
  },
  {
    "school_name": "Бранко Радичевић",
    "longitude": 20.2812557220459,
    "latitude": 44.900569915771484,
    "education_level": "Unknown",
    "country_iso3_code": "SRB",
    "giga_id_school": "b66fd576-59fb-359b-8753-736c4ae0d5b2",
    "school_data_source": null
  },
  {
    "school_name": "Светислав Голубовић Митраљета",
    "longitude": 20.288915634155273,
    "latitude": 44.90114974975586,
    "education_level": "Unknown",
    "country_iso3_code": "SRB",
    "giga_id_school": "0bb2c636-6681-3ab1-888e-6d7a01ccdf7c",
    "school_data_source": null
  },
  {
    "school_name": "Вук Караџић",
    "longitude": 20.290876388549805,
    "latitude": 44.79570007324219,
    "education_level": "Unknown",
    "country_iso3_code": "SRB",
    "giga_id_school": "2de7f21a-71d3-393c-8036-d5f641144be6",
    "school_data_source": null
  },
  {
    "school_name": "22. октобар",
    "longitude": 20.28076171875,
    "latitude": 44.69989776611328,
    "education_level": "Unknown",
    "country_iso3_code": "SRB",
    "giga_id_school": "ea1651ed-100e-3966-a864-625389c2e47a",
    "school_data_source": null
  },
  {
    "school_name": "Стеван Сремац",
    "longitude": 20.222911834716797,
    "latitude": 44.82586669921875,
    "education_level": "Unknown",
    "country_iso3_code": "SRB",
    "giga_id_school": "033c6c1e-1d87-3beb-8b1b-16089e0323c9",
    "school_data_source": null
  },
  {
    "school_name": "Станко Марић",
    "longitude": 20.191110610961914,
    "latitude": 44.87648391723633,
    "education_level": "Unknown",
    "country_iso3_code": "SRB",
    "giga_id_school": "0a9a20bc-fb08-318e-8486-2a2abad75393",
    "school_data_source": null
  },
  {
    "school_name": "Вожд Карађорђе",
    "longitude": 20.256879806518555,
    "latitude": 44.75407791137695,
    "education_level": "Unknown",
    "country_iso3_code": "SRB",
    "giga_id_school": "f986c458-4ed3-31ae-bc94-ac609d34b2a6",
    "school_data_source": null
  },
  {
    "school_name": "Бранко Радичевић",
    "longitude": 20.216703414916992,
    "latitude": 44.723567962646484,
    "education_level": "Unknown",
    "country_iso3_code": "SRB",
    "giga_id_school": "c7e068e7-c1ef-388e-ad16-b7d0188b18d9",
    "school_data_source": null
  },
  {
    "school_name": "Бранко Радичевић",
    "longitude": 20.153217315673828,
    "latitude": 44.73514938354492,
    "education_level": "Unknown",
    "country_iso3_code": "SRB",
    "giga_id_school": "4081a620-bb03-380d-ae33-9cf13683b03e",
    "school_data_source": null
  },
  {
    "school_name": "Душан Вукасовић Диоген",
    "longitude": 20.20660400390625,
    "latitude": 44.77973175048828,
    "education_level": "Unknown",
    "country_iso3_code": "SRB",
    "giga_id_school": "68b49c9d-e5fb-3caf-ae40-12d95512b3a2",
    "school_data_source": null
  },
  {
    "school_name": "Душан Вукасовић Диоген",
    "longitude": 20.145320892333984,
    "latitude": 44.79475021362305,
    "education_level": "Unknown",
    "country_iso3_code": "SRB",
    "giga_id_school": "6a6c4189-dabe-3956-9d5d-c9664979e0a7",
    "school_data_source": null
  },
  {
    "school_name": "Кнез Лазар",
    "longitude": 20.261085510253906,
    "latitude": 44.37660217285156,
    "education_level": "Unknown",
    "country_iso3_code": "SRB",
    "giga_id_school": "bfe641ba-1bf0-3f08-81ff-a3150f1989ab",
    "school_data_source": null
  },
  {
    "school_name": "Свети Сава",
    "longitude": 20.291458129882812,
    "latitude": 44.474239349365234,
    "education_level": "Unknown",
    "country_iso3_code": "SRB",
    "giga_id_school": "4b5ea4c5-5021-3288-9cf3-c5e34bc9d98e",
    "school_data_source": null
  },
  {
    "school_name": "Свети Сава",
    "longitude": 20.33763885498047,
    "latitude": 44.48441696166992,
    "education_level": "Unknown",
    "country_iso3_code": "SRB",
    "giga_id_school": "e47fd87d-c013-3363-9557-6058ce9e622c",
    "school_data_source": null
  },
  {
    "school_name": "Слободан Пенезић Крцун",
    "longitude": 20.383024215698242,
    "latitude": 44.45627212524414,
    "education_level": "Unknown",
    "country_iso3_code": "SRB",
    "giga_id_school": "c927231b-3ee7-3790-82ca-172c68468a68",
    "school_data_source": null
  },
  {
    "school_name": "Слободан Пенезић Крцун",
    "longitude": 20.383033752441406,
    "latitude": 44.456298828125,
    "education_level": "Unknown",
    "country_iso3_code": "SRB",
    "giga_id_school": "e41d70d3-7c03-37a7-9211-f4cb05c94505",
    "school_data_source": null
  },
  {
    "school_name": "Слободан Пенезић Крцун",
    "longitude": 20.412940979003906,
    "latitude": 44.43794631958008,
    "education_level": "Unknown",
    "country_iso3_code": "SRB",
    "giga_id_school": "f6d82a27-4dbc-3fd3-a7a8-2b94611ff4b8",
    "school_data_source": null
  },
  {
    "school_name": "Вук Караџић",
    "longitude": 20.296091079711914,
    "latitude": 44.51108932495117,
    "education_level": "Unknown",
    "country_iso3_code": "SRB",
    "giga_id_school": "ee966598-bfd0-3c32-9c03-b042d1e7edb9",
    "school_data_source": null
  },
  {
    "school_name": "Вук Караџић",
    "longitude": 20.4510498046875,
    "latitude": 44.84418487548828,
    "education_level": "Unknown",
    "country_iso3_code": "SRB",
    "giga_id_school": "96fe68d8-0061-380c-9856-5b561bc79a47",
    "school_data_source": null
  },
  {
    "school_name": "Вук Караџић",
    "longitude": 20.227134704589844,
    "latitude": 44.51102828979492,
    "education_level": "Unknown",
    "country_iso3_code": "SRB",
    "giga_id_school": "8eae2621-f8aa-3045-baa5-5272c516caff",
    "school_data_source": null
  },
  {
    "school_name": "Рудовци",
    "longitude": 20.407297134399414,
    "latitude": 44.383270263671875,
    "education_level": "Unknown",
    "country_iso3_code": "SRB",
    "giga_id_school": "ddbd8c06-6ec8-3fab-8fc8-932562f11473",
    "school_data_source": null
  },
  {
    "school_name": "Рудовци",
    "longitude": 20.410173416137695,
    "latitude": 44.37391662597656,
    "education_level": "Unknown",
    "country_iso3_code": "SRB",
    "giga_id_school": "d7f146df-4c78-3c3d-9702-14e7a9877a56",
    "school_data_source": null
  },
  {
    "school_name": "Рудовци",
    "longitude": 20.39552879333496,
    "latitude": 44.34785079956055,
    "education_level": "Unknown",
    "country_iso3_code": "SRB",
    "giga_id_school": "794a870e-2493-39aa-a17c-3903c1235148",
    "school_data_source": null
  },
  {
    "school_name": "Рудовци",
    "longitude": 20.372955322265625,
    "latitude": 44.35348892211914,
    "education_level": "Unknown",
    "country_iso3_code": "SRB",
    "giga_id_school": "e5b2f936-60d1-3c99-af91-b9266c56d524",
    "school_data_source": null
  },
  {
    "school_name": "Рудовци",
    "longitude": 20.393468856811523,
    "latitude": 44.38857650756836,
    "education_level": "Unknown",
    "country_iso3_code": "SRB",
    "giga_id_school": "73b36363-f5d6-37d9-9c83-c6380faa9504",
    "school_data_source": null
  },
  {
    "school_name": "Рудовци",
    "longitude": 20.4276065826416,
    "latitude": 44.394569396972656,
    "education_level": "Unknown",
    "country_iso3_code": "SRB",
    "giga_id_school": "48d29bbd-5375-38dd-84d2-9b39aa1c6cb3",
    "school_data_source": null
  },
  {
    "school_name": "Дуле Караклајић",
    "longitude": 20.254497528076172,
    "latitude": 44.38282775878906,
    "education_level": "Unknown",
    "country_iso3_code": "SRB",
    "giga_id_school": "6376a62a-3993-3976-b99f-cacf0342a93d",
    "school_data_source": null
  },
  {
    "school_name": "Дуле Караклајић",
    "longitude": 20.229177474975586,
    "latitude": 44.375282287597656,
    "education_level": "Unknown",
    "country_iso3_code": "SRB",
    "giga_id_school": "054c88bc-ab07-370e-a270-376be1b7b424",
    "school_data_source": null
  },
  {
    "school_name": "Михаило Младеновић Сеља",
    "longitude": 20.261547088623047,
    "latitude": 44.2977294921875,
    "education_level": "Unknown",
    "country_iso3_code": "SRB",
    "giga_id_school": "88563efb-de42-39e5-ad18-ce05cd04e979",
    "school_data_source": null
  },
  {
    "school_name": "Михаило Младеновић Сеља",
    "longitude": 20.32893943786621,
    "latitude": 44.29573440551758,
    "education_level": "Unknown",
    "country_iso3_code": "SRB",
    "giga_id_school": "34e63ca6-462e-3c60-a1e4-023bb7dc4af4",
    "school_data_source": null
  },
  {
    "school_name": "Михаило Младеновић Сеља",
    "longitude": 20.24479866027832,
    "latitude": 44.321075439453125,
    "education_level": "Unknown",
    "country_iso3_code": "SRB",
    "giga_id_school": "6ca20c43-2437-35a9-a1b0-625c5cc42dbd",
    "school_data_source": null
  },
  {
    "school_name": "Михаило Младеновић Сеља",
    "longitude": 20.21238136291504,
    "latitude": 44.33719253540039,
    "education_level": "Unknown",
    "country_iso3_code": "SRB",
    "giga_id_school": "3aab6095-d013-3be5-91c1-ce477e52a443",
    "school_data_source": null
  },
  {
    "school_name": "Диша Ђурђевић",
    "longitude": 20.28264808654785,
    "latitude": 44.45073318481445,
    "education_level": "Unknown",
    "country_iso3_code": "SRB",
    "giga_id_school": "58312190-c6dd-37ad-81df-277e9ecd6690",
    "school_data_source": null
  },
  {
    "school_name": "Диша Ђурђевић",
    "longitude": 20.306360244750977,
    "latitude": 44.425960540771484,
    "education_level": "Unknown",
    "country_iso3_code": "SRB",
    "giga_id_school": "5b18dba7-e652-3808-9dd2-ba7a7bacd5a4",
    "school_data_source": null
  },
  {
    "school_name": "Војислав Вока Савић",
    "longitude": 20.26224708557129,
    "latitude": 44.38361358642578,
    "education_level": "Unknown",
    "country_iso3_code": "SRB",
    "giga_id_school": "6810be6a-fc03-34b8-9db0-9abc92e90a8d",
    "school_data_source": null
  },
  {
    "school_name": "Војислав Вока Савић",
    "longitude": 20.262165069580078,
    "latitude": 44.38385772705078,
    "education_level": "Unknown",
    "country_iso3_code": "SRB",
    "giga_id_school": "53e9c533-c1bf-38eb-af1c-2ccad1141775",
    "school_data_source": null
  },
  {
    "school_name": "Милорад Лабудовић Лабуд",
    "longitude": 20.36487579345703,
    "latitude": 44.40533447265625,
    "education_level": "Unknown",
    "country_iso3_code": "SRB",
    "giga_id_school": "779e82c2-c59e-31d3-92cc-3d1f4ce0595a",
    "school_data_source": null
  },
  {
    "school_name": "Милорад Лабудовић Лабуд",
    "longitude": 20.321916580200195,
    "latitude": 44.411739349365234,
    "education_level": "Unknown",
    "country_iso3_code": "SRB",
    "giga_id_school": "77e9d5bd-359b-3aae-98e8-4e2d052af3b9",
    "school_data_source": null
  },
  {
    "school_name": "Милорад Лабудовић Лабуд",
    "longitude": 20.34146499633789,
    "latitude": 44.36717987060547,
    "education_level": "Unknown",
    "country_iso3_code": "SRB",
    "giga_id_school": "ff0de6d8-9ccc-353f-a611-b1f2b083ecc2",
    "school_data_source": null
  },
  {
    "school_name": "Бора Лазић",
    "longitude": 20.679201126098633,
    "latitude": 44.498321533203125,
    "education_level": "Unknown",
    "country_iso3_code": "SRB",
    "giga_id_school": "7a600a7b-fdcd-3f08-b28c-922ade79c772",
    "school_data_source": null
  },
  {
    "school_name": "Бора Лазић",
    "longitude": 20.667057037353516,
    "latitude": 44.54632568359375,
    "education_level": "Unknown",
    "country_iso3_code": "SRB",
    "giga_id_school": "16358fb7-d906-3924-801c-44daac720769",
    "school_data_source": null
  },
  {
    "school_name": "Биса Симић",
    "longitude": 20.801918029785156,
    "latitude": 44.478065490722656,
    "education_level": "Unknown",
    "country_iso3_code": "SRB",
    "giga_id_school": "c20a58fb-1199-339d-a810-9f53b1dcc62c",
    "school_data_source": null
  },
  {
    "school_name": "Живомир Савковић",
    "longitude": 20.739654541015625,
    "latitude": 44.43733596801758,
    "education_level": "Unknown",
    "country_iso3_code": "SRB",
    "giga_id_school": "18199a4c-676f-31c3-9205-64082bb2f830",
    "school_data_source": null
  },
  {
    "school_name": "Живомир Савковић",
    "longitude": 20.73969841003418,
    "latitude": 44.42188262939453,
    "education_level": "Unknown",
    "country_iso3_code": "SRB",
    "giga_id_school": "a8adcfee-771d-3d79-bac1-31f9b49b739f",
    "school_data_source": null
  },
  {
    "school_name": "Милица Милошевић",
    "longitude": 20.759109497070312,
    "latitude": 44.35823440551758,
    "education_level": "Unknown",
    "country_iso3_code": "SRB",
    "giga_id_school": "dc7604d5-6d1d-3108-b686-f20a12921ba6",
    "school_data_source": null
  },
  {
    "school_name": "Момчило Живојиновић",
    "longitude": 20.692974090576172,
    "latitude": 44.443660736083984,
    "education_level": "Unknown",
    "country_iso3_code": "SRB",
    "giga_id_school": "8dbaf265-a460-315e-ac13-06db5d450f3e",
    "school_data_source": null
  },
  {
    "school_name": "Момчило Живојиновић",
    "longitude": 20.686569213867188,
    "latitude": 44.471519470214844,
    "education_level": "Unknown",
    "country_iso3_code": "SRB",
    "giga_id_school": "ee58aac5-b2dd-3ee1-a735-493b81eb39cd",
    "school_data_source": null
  },
  {
    "school_name": "Момчило Живојиновић",
    "longitude": 20.696182250976562,
    "latitude": 44.551822662353516,
    "education_level": "Unknown",
    "country_iso3_code": "SRB",
    "giga_id_school": "1e162cc5-131a-36c6-9984-041a4652a32e",
    "school_data_source": null
  },
  {
    "school_name": "Момчило Живојиновић",
    "longitude": 20.74665069580078,
    "latitude": 44.52955627441406,
    "education_level": "Unknown",
    "country_iso3_code": "SRB",
    "giga_id_school": "4cde1967-02dd-3d65-8d51-9079833bbe36",
    "school_data_source": null
  },
  {
    "school_name": "Свети Сава",
    "longitude": 20.697599411010742,
    "latitude": 44.434730529785156,
    "education_level": "Unknown",
    "country_iso3_code": "SRB",
    "giga_id_school": "cfc6526c-b81b-35bc-af6e-8ed7ba8dbae9",
    "school_data_source": null
  },
  {
    "school_name": "Свети Сава",
    "longitude": 20.71575164794922,
    "latitude": 44.4453010559082,
    "education_level": "Unknown",
    "country_iso3_code": "SRB",
    "giga_id_school": "2cab7920-cecc-3a79-afc8-ba0e08123164",
    "school_data_source": null
  },
  {
    "school_name": "Свети Сава",
    "longitude": 20.711288452148438,
    "latitude": 44.470542907714844,
    "education_level": "Unknown",
    "country_iso3_code": "SRB",
    "giga_id_school": "da34664a-cf76-3395-9619-5964d7173ec6",
    "school_data_source": null
  },
  {
    "school_name": "Коста Ђукић",
    "longitude": 20.684226989746094,
    "latitude": 44.4255485534668,
    "education_level": "Unknown",
    "country_iso3_code": "SRB",
    "giga_id_school": "16e73a70-62e7-3a2b-8628-05320226f090",
    "school_data_source": null
  },
  {
    "school_name": "Коста Ђукић",
    "longitude": 20.688413619995117,
    "latitude": 44.409542083740234,
    "education_level": "Unknown",
    "country_iso3_code": "SRB",
    "giga_id_school": "32844ddf-9a2d-3505-ad82-1f93047d4dc8",
    "school_data_source": null
  },
  {
    "school_name": "Коста Ђукић",
    "longitude": 20.64844512939453,
    "latitude": 44.37267303466797,
    "education_level": "Unknown",
    "country_iso3_code": "SRB",
    "giga_id_school": "317f8fe5-2c8d-382e-9dab-0051a8cf571e",
    "school_data_source": null
  },
  {
    "school_name": "Коста Ђукић",
    "longitude": 20.631122589111328,
    "latitude": 44.41248321533203,
    "education_level": "Unknown",
    "country_iso3_code": "SRB",
    "giga_id_school": "c5e4742e-8e18-39ed-bc9a-80bd0d10283a",
    "school_data_source": null
  },
  {
    "school_name": "Коста Ђукић",
    "longitude": 20.57741355895996,
    "latitude": 44.42912292480469,
    "education_level": "Unknown",
    "country_iso3_code": "SRB",
    "giga_id_school": "2479de96-a32b-3212-952f-067d0c6efb50",
    "school_data_source": null
  },
  {
    "school_name": "Коста Ђукић",
    "longitude": 20.609439849853516,
    "latitude": 44.4459228515625,
    "education_level": "Unknown",
    "country_iso3_code": "SRB",
    "giga_id_school": "45862b14-4f68-32e3-9e38-7ee72673d9ac",
    "school_data_source": null
  },
  {
    "school_name": "Коста Ђукић",
    "longitude": 20.65852928161621,
    "latitude": 44.435142517089844,
    "education_level": "Unknown",
    "country_iso3_code": "SRB",
    "giga_id_school": "da3e28d1-7e14-3923-be4f-bc532597eae2",
    "school_data_source": null
  },
  {
    "school_name": "Надежда Петровић",
    "longitude": 20.406517028808594,
    "latitude": 44.83089065551758,
    "education_level": "Unknown",
    "country_iso3_code": "SRB",
    "giga_id_school": "d7ba6ee9-968e-3705-b8d0-4b021fd4c5b4",
    "school_data_source": null
  },
  {
    "school_name": "Марко Орешковић",
    "longitude": 20.40813446044922,
    "latitude": 44.83110809326172,
    "education_level": "Unknown",
    "country_iso3_code": "SRB",
    "giga_id_school": "2be981f7-7362-375f-88d7-2c34427c402e",
    "school_data_source": null
  },
  {
    "school_name": "Краљ Александар I",
    "longitude": 20.4730224609375,
    "latitude": 44.8160514831543,
    "education_level": "Unknown",
    "country_iso3_code": "SRB",
    "giga_id_school": "176ea5f0-9e6e-3d76-9731-274f3f081461",
    "school_data_source": null
  },
  {
    "school_name": "Борислав Пекић",
    "longitude": 20.388198852539062,
    "latitude": 44.81648254394531,
    "education_level": "Unknown",
    "country_iso3_code": "SRB",
    "giga_id_school": "2b8ca858-a8ed-34af-9b61-32a959f7d51f",
    "school_data_source": null
  },
  {
    "school_name": "Душко Радовић",
    "longitude": 20.4400634765625,
    "latitude": 44.77793502807617,
    "education_level": "Unknown",
    "country_iso3_code": "SRB",
    "giga_id_school": "0ea73356-4d49-3276-96d4-aafef5aac387",
    "school_data_source": null
  },
  {
    "school_name": "Ратко Митровић",
    "longitude": 20.40335464477539,
    "latitude": 44.818119049072266,
    "education_level": "Unknown",
    "country_iso3_code": "SRB",
    "giga_id_school": "1413d2e8-fabb-35dc-b972-f79a4721c479",
    "school_data_source": null
  },
  {
    "school_name": "Ђуро Стругар",
    "longitude": 20.399898529052734,
    "latitude": 44.81937789916992,
    "education_level": "Unknown",
    "country_iso3_code": "SRB",
    "giga_id_school": "25039301-c3e0-3eff-b738-d4abd33371b9",
    "school_data_source": null
  },
  {
    "school_name": "Иван Гундулић",
    "longitude": 20.401611328125,
    "latitude": 44.836395263671875,
    "education_level": "Unknown",
    "country_iso3_code": "SRB",
    "giga_id_school": "741582c7-73df-30a7-b6bb-230422c650d2",
    "school_data_source": null
  },
  {
    "school_name": "Лаза Костић",
    "longitude": 20.427444458007812,
    "latitude": 44.806663513183594,
    "education_level": "Unknown",
    "country_iso3_code": "SRB",
    "giga_id_school": "c0028a99-04ef-3349-8aa6-9ac04bd25a60",
    "school_data_source": null
  },
  {
    "school_name": "Јован Дучић",
    "longitude": 20.431554794311523,
    "latitude": 44.81318283081055,
    "education_level": "Unknown",
    "country_iso3_code": "SRB",
    "giga_id_school": "de19d4ab-6142-3143-9d67-fbebcdae3959",
    "school_data_source": null
  },
  {
    "school_name": "Радоје Домановић",
    "longitude": 20.413074493408203,
    "latitude": 44.814144134521484,
    "education_level": "Unknown",
    "country_iso3_code": "SRB",
    "giga_id_school": "85231728-1283-39d1-949e-3901d24dc772",
    "school_data_source": null
  },
  {
    "school_name": "Влада Обрадовић Камени",
    "longitude": 20.346508026123047,
    "latitude": 44.80335235595703,
    "education_level": "Unknown",
    "country_iso3_code": "SRB",
    "giga_id_school": "2edaf98e-a885-3b72-aa6c-efb46245abdd",
    "school_data_source": null
  },
  {
    "school_name": "Јован Стерија Поповић",
    "longitude": 20.37712860107422,
    "latitude": 44.8075065612793,
    "education_level": "Unknown",
    "country_iso3_code": "SRB",
    "giga_id_school": "8b58f07e-95fe-3c6c-acc6-1b3e1e48bd47",
    "school_data_source": null
  },
  {
    "school_name": "Милан Ракић",
    "longitude": 20.375106811523438,
    "latitude": 44.808311462402344,
    "education_level": "Unknown",
    "country_iso3_code": "SRB",
    "giga_id_school": "dff13bdb-aab3-3753-8de0-36de8a8c28ca",
    "school_data_source": null
  },
  {
    "school_name": "Кнегиња Милица",
    "longitude": 20.378881454467773,
    "latitude": 44.80180358886719,
    "education_level": "Unknown",
    "country_iso3_code": "SRB",
    "giga_id_school": "a1fa51a7-b42e-3279-8b79-19f0e149fa54",
    "school_data_source": null
  },
  {
    "school_name": "Младост",
    "longitude": 20.23263931274414,
    "latitude": 44.481849670410156,
    "education_level": "Unknown",
    "country_iso3_code": "SRB",
    "giga_id_school": "a7d23769-6f52-3764-8252-9b6d4c299b8e",
    "school_data_source": null
  },
  {
    "school_name": "Бранко Радичевић",
    "longitude": 20.37563705444336,
    "latitude": 44.79978942871094,
    "education_level": "Unknown",
    "country_iso3_code": "SRB",
    "giga_id_school": "3369c8d0-e4b4-3b1d-975c-749bffb9cff1",
    "school_data_source": null
  },
  {
    "school_name": "Драган Лукић",
    "longitude": 20.370380401611328,
    "latitude": 44.81407928466797,
    "education_level": "Unknown",
    "country_iso3_code": "SRB",
    "giga_id_school": "36045641-8f33-36a8-89d1-935fb14d3578",
    "school_data_source": null
  },
  {
    "school_name": "20. октобар",
    "longitude": 20.396085739135742,
    "latitude": 44.80000305175781,
    "education_level": "Unknown",
    "country_iso3_code": "SRB",
    "giga_id_school": "26397e39-9a48-30ba-b779-817533d94a90",
    "school_data_source": null
  },
  {
    "school_name": "Јован Јовановић Змај",
    "longitude": 20.193031311035156,
    "latitude": 44.65095520019531,
    "education_level": "Unknown",
    "country_iso3_code": "SRB",
    "giga_id_school": "472d5cbe-8651-30af-9c0b-d6a8ec3a4cdb",
    "school_data_source": null
  },
  {
    "school_name": "Јован Јовановић Змај",
    "longitude": 20.16408920288086,
    "latitude": 44.638938903808594,
    "education_level": "Unknown",
    "country_iso3_code": "SRB",
    "giga_id_school": "27c39655-2783-31d8-a3b2-c72f10006ef6",
    "school_data_source": null
  },
  {
    "school_name": "Посавски партизани",
    "longitude": 20.205543518066406,
    "latitude": 44.662418365478516,
    "education_level": "Unknown",
    "country_iso3_code": "SRB",
    "giga_id_school": "27b7f3ee-e5df-364e-bba2-928a70ac6ff6",
    "school_data_source": null
  },
  {
    "school_name": "Прва обреновачка основна школа",
    "longitude": 20.204748153686523,
    "latitude": 44.65513610839844,
    "education_level": "Unknown",
    "country_iso3_code": "SRB",
    "giga_id_school": "5815d3f1-8d2b-3aa5-bb23-ddcb402aa024",
    "school_data_source": null
  },
  {
    "school_name": "Прва обреновачка основна школа",
    "longitude": 20.14617919921875,
    "latitude": 44.66230392456055,
    "education_level": "Unknown",
    "country_iso3_code": "SRB",
    "giga_id_school": "98fde36d-7ddc-3427-b95c-950863497133",
    "school_data_source": null
  },
  {
    "school_name": "Прва обреновачка основна школа",
    "longitude": 20.116138458251953,
    "latitude": 44.6834602355957,
    "education_level": "Unknown",
    "country_iso3_code": "SRB",
    "giga_id_school": "6f42497a-b158-3691-8ee7-abd323bdf244",
    "school_data_source": null
  },
  {
    "school_name": "Никола Тесла",
    "longitude": 20.054243087768555,
    "latitude": 44.68185043334961,
    "education_level": "Unknown",
    "country_iso3_code": "SRB",
    "giga_id_school": "00f9e308-caa9-3959-95e9-9b2a397234d6",
    "school_data_source": null
  },
  {
    "school_name": "Никола Тесла",
    "longitude": 20.008346557617188,
    "latitude": 44.62861251831055,
    "education_level": "Unknown",
    "country_iso3_code": "SRB",
    "giga_id_school": "6bd42827-210c-3c2c-a0bb-6c8f0b1240ab",
    "school_data_source": null
  },
  {
    "school_name": "Никола Тесла",
    "longitude": 20.106826782226562,
    "latitude": 44.656497955322266,
    "education_level": "Unknown",
    "country_iso3_code": "SRB",
    "giga_id_school": "8e2cabc6-8994-3571-8835-e7794786d914",
    "school_data_source": null
  },
  {
    "school_name": "ОШ Грабовац",
    "longitude": 20.093307495117188,
    "latitude": 44.610267639160156,
    "education_level": "Unknown",
    "country_iso3_code": "SRB",
    "giga_id_school": "d3fe1bf2-6e2f-3e6f-9d5a-682765bf2af5",
    "school_data_source": null
  },
  {
    "school_name": "ОШ Грабовац",
    "longitude": 20.05657196044922,
    "latitude": 44.54301452636719,
    "education_level": "Unknown",
    "country_iso3_code": "SRB",
    "giga_id_school": "ab860a53-6818-3431-9fe9-ef3b5e2438f2",
    "school_data_source": null
  },
  {
    "school_name": "ОШ Грабовац",
    "longitude": 20.0225830078125,
    "latitude": 44.597801208496094,
    "education_level": "Unknown",
    "country_iso3_code": "SRB",
    "giga_id_school": "e61b4734-1a61-32a3-bd50-508635a29351",
    "school_data_source": null
  },
  {
    "school_name": "ОШ Грабовац",
    "longitude": 20.0225830078125,
    "latitude": 44.597068786621094,
    "education_level": "Unknown",
    "country_iso3_code": "SRB",
    "giga_id_school": "995acbc2-df39-3e22-acca-4e37520fb0ca",
    "school_data_source": null
  },
  {
    "school_name": "ОШ Грабовац",
    "longitude": 20.01760482788086,
    "latitude": 44.54864501953125,
    "education_level": "Unknown",
    "country_iso3_code": "SRB",
    "giga_id_school": "0ea99acd-75ec-346e-8197-9f252a03fd79",
    "school_data_source": null
  },
  {
    "school_name": "ОШ Грабовац",
    "longitude": 20.032882690429688,
    "latitude": 44.57212829589844,
    "education_level": "Unknown",
    "country_iso3_code": "SRB",
    "giga_id_school": "2df1b2ce-da11-3875-a05f-cb59b5717a73",
    "school_data_source": null
  },
  {
    "school_name": "Дражевац",
    "longitude": 20.231290817260742,
    "latitude": 44.57472610473633,
    "education_level": "Unknown",
    "country_iso3_code": "SRB",
    "giga_id_school": "28813891-d078-3ce7-9b4c-7478af7a4ce3",
    "school_data_source": null
  },
  {
    "school_name": "Дражевац",
    "longitude": 20.27008056640625,
    "latitude": 44.56802749633789,
    "education_level": "Unknown",
    "country_iso3_code": "SRB",
    "giga_id_school": "91872e1c-0d3a-3fdb-892c-bd7b5f4428ca",
    "school_data_source": null
  },
  {
    "school_name": "Дражевац",
    "longitude": 20.25057029724121,
    "latitude": 44.6153564453125,
    "education_level": "Unknown",
    "country_iso3_code": "SRB",
    "giga_id_school": "c507d471-66fd-31e3-bb59-485937f22804",
    "school_data_source": null
  },
  {
    "school_name": "Дражевац",
    "longitude": 20.247589111328125,
    "latitude": 44.55438995361328,
    "education_level": "Unknown",
    "country_iso3_code": "SRB",
    "giga_id_school": "62b87d0e-3e0c-3bbe-81ce-0dd0252399a1",
    "school_data_source": null
  },
  {
    "school_name": "Дражевац",
    "longitude": 20.23961639404297,
    "latitude": 44.524078369140625,
    "education_level": "Unknown",
    "country_iso3_code": "SRB",
    "giga_id_school": "27ca936a-e016-3f9a-a57e-d4d57dc21fee",
    "school_data_source": null
  },
  {
    "school_name": "Живојин Перић",
    "longitude": 20.15143585205078,
    "latitude": 44.574520111083984,
    "education_level": "Unknown",
    "country_iso3_code": "SRB",
    "giga_id_school": "fbd9cee1-231d-3c41-b441-9dfa975f79c5",
    "school_data_source": null
  },
  {
    "school_name": "Живојин Перић",
    "longitude": 20.137554168701172,
    "latitude": 44.54777526855469,
    "education_level": "Unknown",
    "country_iso3_code": "SRB",
    "giga_id_school": "4a303cff-840b-31e4-91c2-69a8b9c28925",
    "school_data_source": null
  },
  {
    "school_name": "Живојин Перић",
    "longitude": 20.10942840576172,
    "latitude": 44.56080627441406,
    "education_level": "Unknown",
    "country_iso3_code": "SRB",
    "giga_id_school": "aaf4e7a7-c760-3d96-8269-48d95fd93f32",
    "school_data_source": null
  },
  {
    "school_name": "Живојин Перић",
    "longitude": 20.175743103027344,
    "latitude": 44.59648132324219,
    "education_level": "Unknown",
    "country_iso3_code": "SRB",
    "giga_id_school": "4e022d6e-ad99-3a05-9825-7877a3ff68ba",
    "school_data_source": null
  },
  {
    "school_name": "14. октобар",
    "longitude": 20.25981903076172,
    "latitude": 44.64923858642578,
    "education_level": "Unknown",
    "country_iso3_code": "SRB",
    "giga_id_school": "0bf314d7-4f4c-3010-8204-af05356908b1",
    "school_data_source": null
  },
  {
    "school_name": "14. октобар",
    "longitude": 20.304222106933594,
    "latitude": 44.637840270996094,
    "education_level": "Unknown",
    "country_iso3_code": "SRB",
    "giga_id_school": "0568bb83-29d9-3a05-901d-494021c3e87d",
    "school_data_source": null
  },
  {
    "school_name": "Ослободиоци Београда",
    "longitude": 20.484067916870117,
    "latitude": 44.812557220458984,
    "education_level": "Unknown",
    "country_iso3_code": "SRB",
    "giga_id_school": "c9d430e9-3d0c-3678-862f-38582bc4faf9",
    "school_data_source": null
  },
  {
    "school_name": "Влада Аксентијевић",
    "longitude": 20.475831985473633,
    "latitude": 44.81911849975586,
    "education_level": "Unknown",
    "country_iso3_code": "SRB",
    "giga_id_school": "4354b158-f879-3105-b320-b44317b971df",
    "school_data_source": null
  },
  {
    "school_name": "Старина Новак",
    "longitude": 20.477861404418945,
    "latitude": 44.80946731567383,
    "education_level": "Unknown",
    "country_iso3_code": "SRB",
    "giga_id_school": "2aad3874-7d8e-3be0-bdec-73a62a106aed",
    "school_data_source": null
  },
  {
    "school_name": "Јован Цвијић",
    "longitude": 20.500391006469727,
    "latitude": 44.81678771972656,
    "education_level": "Unknown",
    "country_iso3_code": "SRB",
    "giga_id_school": "eccfa3bb-3bf6-3a9c-a6a9-4b51b086288b",
    "school_data_source": null
  },
  {
    "school_name": "др. Арчибалд Рајс",
    "longitude": 20.51348304748535,
    "latitude": 44.81491470336914,
    "education_level": "Unknown",
    "country_iso3_code": "SRB",
    "giga_id_school": "bc6045f5-d651-378d-8737-6dd72e193bd8",
    "school_data_source": null
  },
  {
    "school_name": "Јован Поповић",
    "longitude": 20.51250457763672,
    "latitude": 44.8150749206543,
    "education_level": "Unknown",
    "country_iso3_code": "SRB",
    "giga_id_school": "207801ca-5733-398b-9982-b0a550ebe264",
    "school_data_source": null
  },
  {
    "school_name": "Стеван Дукић",
    "longitude": 20.41259765625,
    "latitude": 44.82470703125,
    "education_level": "Unknown",
    "country_iso3_code": "SRB",
    "giga_id_school": "4fc7c99b-2c39-30a3-a0e9-912f4663c964",
    "school_data_source": null
  },
  {
    "school_name": "Филип Вишњић",
    "longitude": 20.44281005859375,
    "latitude": 44.784759521484375,
    "education_level": "Unknown",
    "country_iso3_code": "SRB",
    "giga_id_school": "d1637a8f-03a9-3c58-8351-f0f0b7b1c106",
    "school_data_source": null
  },
  {
    "school_name": "Зага Маливук",
    "longitude": 20.51422119140625,
    "latitude": 44.83405685424805,
    "education_level": "Unknown",
    "country_iso3_code": "SRB",
    "giga_id_school": "fd8a7408-7098-3c8f-b451-9aa148dd5f54",
    "school_data_source": null
  },
  {
    "school_name": "Стеван Сремац",
    "longitude": 20.455556869506836,
    "latitude": 44.87273406982422,
    "education_level": "Unknown",
    "country_iso3_code": "SRB",
    "giga_id_school": "4761efbb-a4f6-3f5d-a0bd-6fa6f4dd58ec",
    "school_data_source": null
  },
  {
    "school_name": "Раде Драинац",
    "longitude": 20.448989868164062,
    "latitude": 44.87436294555664,
    "education_level": "Unknown",
    "country_iso3_code": "SRB",
    "giga_id_school": "c0b027cf-8fbd-37ce-b07f-c8fd64d8aa7a",
    "school_data_source": null
  },
  {
    "school_name": "Васа Пелагић",
    "longitude": 20.470964431762695,
    "latitude": 44.85037612915039,
    "education_level": "Unknown",
    "country_iso3_code": "SRB",
    "giga_id_school": "373e606f-fa87-3469-b9f6-fea71729f192",
    "school_data_source": null
  },
  {
    "school_name": "Олга Петров",
    "longitude": 20.42705726623535,
    "latitude": 44.94573211669922,
    "education_level": "Unknown",
    "country_iso3_code": "SRB",
    "giga_id_school": "44e6e520-448b-39b7-a76f-696d2a3ab96b",
    "school_data_source": null
  },
  {
    "school_name": "Иван Милутиновић",
    "longitude": 20.547693252563477,
    "latitude": 44.83073425292969,
    "education_level": "Unknown",
    "country_iso3_code": "SRB",
    "giga_id_school": "ae20b994-49d3-3f0b-b305-cdcfcb331593",
    "school_data_source": null
  },
  {
    "school_name": "Иван Милутиновић",
    "longitude": 20.568889617919922,
    "latitude": 44.80759811401367,
    "education_level": "Unknown",
    "country_iso3_code": "SRB",
    "giga_id_school": "77ab0349-fb7c-3d0e-bf4e-71090bd28859",
    "school_data_source": null
  },
  {
    "school_name": "Иван Милутиновић",
    "longitude": 20.597259521484375,
    "latitude": 44.81209182739258,
    "education_level": "Unknown",
    "country_iso3_code": "SRB",
    "giga_id_school": "a6cdd95d-e90f-39bf-ba72-e33c97a830c0",
    "school_data_source": null
  },
  {
    "school_name": "Никола Тесла",
    "longitude": 20.4840087890625,
    "latitude": 44.77793502807617,
    "education_level": "Unknown",
    "country_iso3_code": "SRB",
    "giga_id_school": "23db4a3a-a8c7-3024-b657-56ee1bbfe9d1",
    "school_data_source": null
  },
  {
    "school_name": "Ђура Јакшић",
    "longitude": 20.45001983642578,
    "latitude": 44.753204345703125,
    "education_level": "Unknown",
    "country_iso3_code": "SRB",
    "giga_id_school": "4a25c559-a4e9-3d3a-948a-4caa77e025a6",
    "school_data_source": null
  },
  {
    "school_name": "Коста Абрашевић",
    "longitude": 20.4400634765625,
    "latitude": 44.75843811035156,
    "education_level": "Unknown",
    "country_iso3_code": "SRB",
    "giga_id_school": "9deb7dde-4885-3bbf-95fe-d03ad5d710ab",
    "school_data_source": null
  },
  {
    "school_name": "Владимир Роловић",
    "longitude": 20.432151794433594,
    "latitude": 44.72286605834961,
    "education_level": "Unknown",
    "country_iso3_code": "SRB",
    "giga_id_school": "3ad64c31-aae2-3ded-bd21-ca99c08bc37f",
    "school_data_source": null
  },
  {
    "school_name": "Владимир Роловић",
    "longitude": 20.434011459350586,
    "latitude": 44.722328186035156,
    "education_level": "Unknown",
    "country_iso3_code": "SRB",
    "giga_id_school": "f8467492-d622-37e9-b064-a63b1f5c9ceb",
    "school_data_source": null
  },
  {
    "school_name": "Бранко Ћопић",
    "longitude": 20.42045021057129,
    "latitude": 44.741146087646484,
    "education_level": "Unknown",
    "country_iso3_code": "SRB",
    "giga_id_school": "569d2443-d1e6-3909-ae8d-110c7ce33d9b",
    "school_data_source": null
  },
  {
    "school_name": "14. октобар",
    "longitude": 20.422340393066406,
    "latitude": 44.72841262817383,
    "education_level": "Unknown",
    "country_iso3_code": "SRB",
    "giga_id_school": "e79ce291-9ab8-31a3-b8fa-d0e4f0097df2",
    "school_data_source": null
  },
  {
    "school_name": "14. октобар",
    "longitude": 20.427274703979492,
    "latitude": 44.73284912109375,
    "education_level": "Unknown",
    "country_iso3_code": "SRB",
    "giga_id_school": "0c67fcca-cf57-343d-b21c-68c8eaacd206",
    "school_data_source": null
  },
  {
    "school_name": "Франце Прешерн",
    "longitude": 20.373046875,
    "latitude": 45.49787521362305,
    "education_level": "Unknown",
    "country_iso3_code": "SRB",
    "giga_id_school": "2041a79f-513a-3b1d-9575-2235aeeb94bf",
    "school_data_source": null
  },
  {
    "school_name": "Иво Андрић",
    "longitude": 20.45672607421875,
    "latitude": 44.7504997253418,
    "education_level": "Unknown",
    "country_iso3_code": "SRB",
    "giga_id_school": "375cb39e-8213-3dfa-89b8-bcebc03d01cd",
    "school_data_source": null
  },
  {
    "school_name": "Стефан Немања",
    "longitude": 20.439891815185547,
    "latitude": 44.79127883911133,
    "education_level": "Unknown",
    "country_iso3_code": "SRB",
    "giga_id_school": "bab27be7-568c-322f-8234-158d84cb76a0",
    "school_data_source": null
  },
  {
    "school_name": "Петар Петровић Његош",
    "longitude": 20.460275650024414,
    "latitude": 44.802391052246094,
    "education_level": "Unknown",
    "country_iso3_code": "SRB",
    "giga_id_school": "9de725f4-119d-3585-a0bd-cc9146587e88",
    "school_data_source": null
  },
  {
    "school_name": "Исидора Секулић",
    "longitude": 20.454483032226562,
    "latitude": 44.80498123168945,
    "education_level": "Unknown",
    "country_iso3_code": "SRB",
    "giga_id_school": "511cff94-5ece-3d1c-87f6-642eea4d780a",
    "school_data_source": null
  },
  {
    "school_name": "Радојка Лакић",
    "longitude": 20.457365036010742,
    "latitude": 44.80669403076172,
    "education_level": "Unknown",
    "country_iso3_code": "SRB",
    "giga_id_school": "75500ccb-7b58-39c0-95fd-ea5caadd199a",
    "school_data_source": null
  },
  {
    "school_name": "Војвода Мишић",
    "longitude": 20.464269638061523,
    "latitude": 44.78815841674805,
    "education_level": "Unknown",
    "country_iso3_code": "SRB",
    "giga_id_school": "f1ccbc83-8082-301a-9b73-2c6fb5ee9eb7",
    "school_data_source": null
  },
  {
    "school_name": "Војвода Радомир Путник",
    "longitude": 20.4620361328125,
    "latitude": 44.77793502807617,
    "education_level": "Unknown",
    "country_iso3_code": "SRB",
    "giga_id_school": "d332bd88-d482-309c-834a-4b6ac94ab1c7",
    "school_data_source": null
  },
  {
    "school_name": "Јелица Миловановић",
    "longitude": 20.57439422607422,
    "latitude": 44.524391174316406,
    "education_level": "Unknown",
    "country_iso3_code": "SRB",
    "giga_id_school": "3a8af595-04b4-3cc5-bff0-7cd7223b6f8e",
    "school_data_source": null
  },
  {
    "school_name": "Јелица Миловановић",
    "longitude": 20.564678192138672,
    "latitude": 44.49645233154297,
    "education_level": "Unknown",
    "country_iso3_code": "SRB",
    "giga_id_school": "28f1726d-8712-37ee-a77d-ccbfd4a1e1bf",
    "school_data_source": null
  },
  {
    "school_name": "Јелица Миловановић",
    "longitude": 20.625347137451172,
    "latitude": 44.524017333984375,
    "education_level": "Unknown",
    "country_iso3_code": "SRB",
    "giga_id_school": "ffa6098a-bd61-38b3-ad70-c6d0c7f20779",
    "school_data_source": null
  },
  {
    "school_name": "Јелица Миловановић",
    "longitude": 20.61559295654297,
    "latitude": 44.49647903442383,
    "education_level": "Unknown",
    "country_iso3_code": "SRB",
    "giga_id_school": "6a487cd6-25c2-3786-a3b0-71ac697cadc6",
    "school_data_source": null
  },
  {
    "school_name": "Јелица Миловановић",
    "longitude": 20.588592529296875,
    "latitude": 44.4967155456543,
    "education_level": "Unknown",
    "country_iso3_code": "SRB",
    "giga_id_school": "65ca67ef-9c83-3fa0-9df3-27fcd06b57e5",
    "school_data_source": null
  },
  {
    "school_name": "Цана Марјановић",
    "longitude": 20.56085968017578,
    "latitude": 44.56999969482422,
    "education_level": "Unknown",
    "country_iso3_code": "SRB",
    "giga_id_school": "8deb74d8-058e-37aa-bd92-4926a4c4c9da",
    "school_data_source": null
  },
  {
    "school_name": "Цана Марјановић",
    "longitude": 20.597692489624023,
    "latitude": 44.562129974365234,
    "education_level": "Unknown",
    "country_iso3_code": "SRB",
    "giga_id_school": "9321dd30-2d1b-35fd-9b67-3b6a90202d2b",
    "school_data_source": null
  },
  {
    "school_name": "Цана Марјановић",
    "longitude": 20.49396514892578,
    "latitude": 44.512298583984375,
    "education_level": "Unknown",
    "country_iso3_code": "SRB",
    "giga_id_school": "6472e896-00d7-36d3-befe-97bec90a3139",
    "school_data_source": null
  },
  {
    "school_name": "Цана Марјановић",
    "longitude": 20.535551071166992,
    "latitude": 44.57313537597656,
    "education_level": "Unknown",
    "country_iso3_code": "SRB",
    "giga_id_school": "42ec91ab-b2d1-3170-8637-7441fb4c3d30",
    "school_data_source": null
  },
  {
    "school_name": "Цана Марјановић",
    "longitude": 20.522289276123047,
    "latitude": 44.53744888305664,
    "education_level": "Unknown",
    "country_iso3_code": "SRB",
    "giga_id_school": "7c672d36-388b-3551-bb85-1a20825a99b7",
    "school_data_source": null
  },
  {
    "school_name": "Милорад Мића Марковић",
    "longitude": 20.60740089416504,
    "latitude": 44.58468246459961,
    "education_level": "Unknown",
    "country_iso3_code": "SRB",
    "giga_id_school": "11635d81-65c8-3f45-8b0e-c7937608d931",
    "school_data_source": null
  },
  {
    "school_name": "Милорад Мића Марковић",
    "longitude": 20.605510711669922,
    "latitude": 44.56800842285156,
    "education_level": "Unknown",
    "country_iso3_code": "SRB",
    "giga_id_school": "07cb843a-6e38-3e23-a14f-db8021dbc750",
    "school_data_source": null
  },
  {
    "school_name": "Милорад Мића Марковић",
    "longitude": 20.657445907592773,
    "latitude": 44.56364059448242,
    "education_level": "Unknown",
    "country_iso3_code": "SRB",
    "giga_id_school": "743b23d5-d5df-39ff-968f-1396caf8c2ce",
    "school_data_source": null
  },
  {
    "school_name": "Јанко Катић",
    "longitude": 20.521472930908203,
    "latitude": 44.46205520629883,
    "education_level": "Unknown",
    "country_iso3_code": "SRB",
    "giga_id_school": "e486b5a5-a4f3-3530-8cc3-62a2188b2462",
    "school_data_source": null
  },
  {
    "school_name": "Јанко Катић",
    "longitude": 20.494983673095703,
    "latitude": 44.4539794921875,
    "education_level": "Unknown",
    "country_iso3_code": "SRB",
    "giga_id_school": "8cae01fd-6138-3f1e-8a94-f93ed8cd4d89",
    "school_data_source": null
  },
  {
    "school_name": "Јанко Катић",
    "longitude": 20.453996658325195,
    "latitude": 44.46146011352539,
    "education_level": "Unknown",
    "country_iso3_code": "SRB",
    "giga_id_school": "188cbe69-8380-39c8-a82f-44ba25d6c7aa",
    "school_data_source": null
  },
  {
    "school_name": "Јанко Катић",
    "longitude": 20.49745750427246,
    "latitude": 44.486263275146484,
    "education_level": "Unknown",
    "country_iso3_code": "SRB",
    "giga_id_school": "79330bb8-6a16-37e7-88d1-6cedc59dcbd5",
    "school_data_source": null
  },
  {
    "school_name": "Јанко Катић",
    "longitude": 20.45125389099121,
    "latitude": 44.493900299072266,
    "education_level": "Unknown",
    "country_iso3_code": "SRB",
    "giga_id_school": "a49fd9c5-c392-339b-807d-0222bf9b06c3",
    "school_data_source": null
  },
  {
    "school_name": "Вук Караџић",
    "longitude": 20.472150802612305,
    "latitude": 44.814388275146484,
    "education_level": "Unknown",
    "country_iso3_code": "SRB",
    "giga_id_school": "6df46b71-6218-35b9-863c-23b1a1a8cf03",
    "school_data_source": null
  },
  {
    "school_name": "Михаило Петровић Алас",
    "longitude": 20.2357177734375,
    "latitude": 45.42852783203125,
    "education_level": "Unknown",
    "country_iso3_code": "SRB",
    "giga_id_school": "44c315e1-839b-3106-b3f2-e8666b6fe6a4",
    "school_data_source": null
  },
  {
    "school_name": "Стари град",
    "longitude": 20.47015380859375,
    "latitude": 44.821022033691406,
    "education_level": "Unknown",
    "country_iso3_code": "SRB",
    "giga_id_school": "30107320-5070-3515-8feb-b96c1e7d22d4",
    "school_data_source": null
  },
  {
    "school_name": "Краљ Петар И",
    "longitude": 20.452852249145508,
    "latitude": 44.81843948364258,
    "education_level": "Unknown",
    "country_iso3_code": "SRB",
    "giga_id_school": "23dae6c1-cec6-3aa5-b658-c56eade43e06",
    "school_data_source": null
  },
  {
    "school_name": "Браћа Барух",
    "longitude": 20.459074020385742,
    "latitude": 44.82572937011719,
    "education_level": "Unknown",
    "country_iso3_code": "SRB",
    "giga_id_school": "000dd6f9-08f0-3b3d-a0e8-762d47cefc44",
    "school_data_source": null
  },
  {
    "school_name": "Скадарлија",
    "longitude": 20.464889526367188,
    "latitude": 44.81859588623047,
    "education_level": "Unknown",
    "country_iso3_code": "SRB",
    "giga_id_school": "06a32e15-cde6-3891-80e2-9c63e882b360",
    "school_data_source": null
  },
  {
    "school_name": "Дринка Павловић",
    "longitude": 20.465152740478516,
    "latitude": 44.81333923339844,
    "education_level": "Unknown",
    "country_iso3_code": "SRB",
    "giga_id_school": "dcb355b6-4d4c-3a4c-b08d-ef818d2f20c8",
    "school_data_source": null
  },
  {
    "school_name": "Јосиф Панчић",
    "longitude": 20.418691635131836,
    "latitude": 44.781166076660156,
    "education_level": "Unknown",
    "country_iso3_code": "SRB",
    "giga_id_school": "e70c8889-b8df-3840-b995-9c4dd81562fa",
    "school_data_source": null
  },
  {
    "school_name": "Бановић Страхиња",
    "longitude": 20.423625946044922,
    "latitude": 44.7794303894043,
    "education_level": "Unknown",
    "country_iso3_code": "SRB",
    "giga_id_school": "2edab649-6cc9-3325-991d-213acc1efc6e",
    "school_data_source": null
  },
  {
    "school_name": "Филип Кљајић Фића",
    "longitude": 20.41229820251465,
    "latitude": 44.77558135986328,
    "education_level": "Unknown",
    "country_iso3_code": "SRB",
    "giga_id_school": "bd634f52-fe06-3d5b-b3c5-e81611fa67b5",
    "school_data_source": null
  },
  {
    "school_name": "Мирослав Антић",
    "longitude": 20.407533645629883,
    "latitude": 44.75300979614258,
    "education_level": "Unknown",
    "country_iso3_code": "SRB",
    "giga_id_school": "55b62feb-37da-353e-870f-6898e95d48e0",
    "school_data_source": null
  },
  {
    "school_name": "Ђорђе Крстић",
    "longitude": 20.427978515625,
    "latitude": 44.82392883300781,
    "education_level": "Unknown",
    "country_iso3_code": "SRB",
    "giga_id_school": "b6b721a7-2536-3f85-ab16-40c831afb001",
    "school_data_source": null
  },
  {
    "school_name": "Љуба Ненадовић",
    "longitude": 20.419160842895508,
    "latitude": 44.75813293457031,
    "education_level": "Unknown",
    "country_iso3_code": "SRB",
    "giga_id_school": "6f3b1672-597f-3d5d-be0f-df77c5911c34",
    "school_data_source": null
  },
  {
    "school_name": "Милош Црњански",
    "longitude": 20.418460845947266,
    "latitude": 44.76441192626953,
    "education_level": "Unknown",
    "country_iso3_code": "SRB",
    "giga_id_school": "bafc4d9b-9e10-3ab1-ba15-ab863b6d1e39",
    "school_data_source": null
  },
  {
    "school_name": "Уједињене нације",
    "longitude": 20.47199249267578,
    "latitude": 44.74770736694336,
    "education_level": "Unknown",
    "country_iso3_code": "SRB",
    "giga_id_school": "f446f7de-cef2-34ac-838c-613890dd2084",
    "school_data_source": null
  },
  {
    "school_name": "Владимир Назор",
    "longitude": 20.419635772705078,
    "latitude": 44.73115921020508,
    "education_level": "Unknown",
    "country_iso3_code": "SRB",
    "giga_id_school": "0a8d6e67-97fb-3963-9257-a03f684bd75c",
    "school_data_source": null
  },
  {
    "school_name": "Браћа Јерковић",
    "longitude": 20.38520622253418,
    "latitude": 44.72999954223633,
    "education_level": "Unknown",
    "country_iso3_code": "SRB",
    "giga_id_school": "35475f04-71b0-3251-9667-bc170dfc702c",
    "school_data_source": null
  },
  {
    "school_name": "Доситеј Обрадовић",
    "longitude": 20.30612564086914,
    "latitude": 44.67728805541992,
    "education_level": "Unknown",
    "country_iso3_code": "SRB",
    "giga_id_school": "958af425-dfca-3737-be6c-23908801c56b",
    "school_data_source": null
  },
  {
    "school_name": "Карађорђе",
    "longitude": 20.319669723510742,
    "latitude": 44.7271728515625,
    "education_level": "Unknown",
    "country_iso3_code": "SRB",
    "giga_id_school": "a5ed21c7-f76c-3b90-a4d6-34aad6fd7d8a",
    "school_data_source": null
  },
  {
    "school_name": "Вук Караџић",
    "longitude": 20.39547348022461,
    "latitude": 44.67695236206055,
    "education_level": "Unknown",
    "country_iso3_code": "SRB",
    "giga_id_school": "7f9511c0-de91-3e71-b7ad-28ff82744698",
    "school_data_source": null
  },
  {
    "school_name": "Душко Радовић",
    "longitude": 20.383071899414062,
    "latitude": 44.69089889526367,
    "education_level": "Unknown",
    "country_iso3_code": "SRB",
    "giga_id_school": "8e2b7924-cc4c-3202-a42d-4fca43975b17",
    "school_data_source": null
  },
  {
    "school_name": "Аца Милосављевић",
    "longitude": 20.439054489135742,
    "latitude": 44.6837272644043,
    "education_level": "Unknown",
    "country_iso3_code": "SRB",
    "giga_id_school": "af1ab4ea-3083-30a0-81f9-18548fdc1d09",
    "school_data_source": null
  },
  {
    "school_name": "Бранко Радичевић",
    "longitude": 20.353975296020508,
    "latitude": 44.66805648803711,
    "education_level": "Unknown",
    "country_iso3_code": "SRB",
    "giga_id_school": "cd032714-5d4c-3207-87fe-939672d78d58",
    "school_data_source": null
  },
  {
    "school_name": "Душан Дугалић",
    "longitude": 20.485652923583984,
    "latitude": 44.79298782348633,
    "education_level": "Unknown",
    "country_iso3_code": "SRB",
    "giga_id_school": "a5692a4c-b162-382d-8209-708ccb00664d",
    "school_data_source": null
  },
  {
    "school_name": "Бошко Буха",
    "longitude": 20.493804931640625,
    "latitude": 44.802913665771484,
    "education_level": "Unknown",
    "country_iso3_code": "SRB",
    "giga_id_school": "f80201e7-db4e-3b15-988c-e794cf1186c6",
    "school_data_source": null
  },
  {
    "school_name": "Бошко Буха",
    "longitude": 20.471965789794922,
    "latitude": 44.81440734863281,
    "education_level": "Unknown",
    "country_iso3_code": "SRB",
    "giga_id_school": "92e53542-a1e5-375a-b0e9-fe9ddcb55cc0",
    "school_data_source": null
  },
  {
    "school_name": "Бошко Буха",
    "longitude": 20.482236862182617,
    "latitude": 44.80529022216797,
    "education_level": "Unknown",
    "country_iso3_code": "SRB",
    "giga_id_school": "6e593139-0bdc-3b41-8923-113f9c2af442",
    "school_data_source": null
  },
  {
    "school_name": "Бошко Буха",
    "longitude": 20.540908813476562,
    "latitude": 44.791988372802734,
    "education_level": "Unknown",
    "country_iso3_code": "SRB",
    "giga_id_school": "55a1448e-e71a-3920-bc19-02ccc06f0abf",
    "school_data_source": null
  },
  {
    "school_name": "Бошко Буха",
    "longitude": 20.477935791015625,
    "latitude": 44.809600830078125,
    "education_level": "Unknown",
    "country_iso3_code": "SRB",
    "giga_id_school": "87f66f15-7fef-3aa3-89ba-e37b553b8a2e",
    "school_data_source": null
  },
  {
    "school_name": "Бошко Буха",
    "longitude": 20.501638412475586,
    "latitude": 44.79741668701172,
    "education_level": "Unknown",
    "country_iso3_code": "SRB",
    "giga_id_school": "e60c8c55-cfaf-30e1-aae0-427ab85a5b61",
    "school_data_source": null
  },
  {
    "school_name": "Бошко Буха",
    "longitude": 20.528268814086914,
    "latitude": 44.79275131225586,
    "education_level": "Unknown",
    "country_iso3_code": "SRB",
    "giga_id_school": "0b19d6f5-5d9c-39d0-bd41-c7465b58b335",
    "school_data_source": null
  },
  {
    "school_name": "Бошко Буха",
    "longitude": 20.50690269470215,
    "latitude": 44.78047561645508,
    "education_level": "Unknown",
    "country_iso3_code": "SRB",
    "giga_id_school": "2fe9b88c-c562-35f3-ad6d-b8510d0f848c",
    "school_data_source": null
  },
  {
    "school_name": "Бошко Буха",
    "longitude": 20.498197555541992,
    "latitude": 44.804744720458984,
    "education_level": "Unknown",
    "country_iso3_code": "SRB",
    "giga_id_school": "e41a2d93-3281-394f-8081-54b8af5fab40",
    "school_data_source": null
  },
  {
    "school_name": "Бошко Буха",
    "longitude": 20.50998306274414,
    "latitude": 44.795570373535156,
    "education_level": "Unknown",
    "country_iso3_code": "SRB",
    "giga_id_school": "715dea21-df05-3e94-9639-2a37a578a270",
    "school_data_source": null
  },
  {
    "school_name": "Бошко Буха",
    "longitude": 20.52923011779785,
    "latitude": 44.758872985839844,
    "education_level": "Unknown",
    "country_iso3_code": "SRB",
    "giga_id_school": "7c464606-038b-3c41-87f1-6b9245278189",
    "school_data_source": null
  },
  {
    "school_name": "Бошко Буха",
    "longitude": 20.534818649291992,
    "latitude": 44.77610778808594,
    "education_level": "Unknown",
    "country_iso3_code": "SRB",
    "giga_id_school": "39acd2e8-3d12-3b99-af22-279c531e8452",
    "school_data_source": null
  },
  {
    "school_name": "Бошко Буха",
    "longitude": 20.71158790588379,
    "latitude": 44.67361068725586,
    "education_level": "Unknown",
    "country_iso3_code": "SRB",
    "giga_id_school": "99b1b2ac-c740-3c30-b46a-b4a81cf79514",
    "school_data_source": null
  },
  {
    "school_name": "Сава Шумановић",
    "longitude": 20.354877471923828,
    "latitude": 44.84552001953125,
    "education_level": "Unknown",
    "country_iso3_code": "SRB",
    "giga_id_school": "a79d5802-4507-320e-91a7-c8b4d1900676",
    "school_data_source": null
  },
  {
    "school_name": "Радивој Поповић",
    "longitude": 20.383028030395508,
    "latitude": 44.853816986083984,
    "education_level": "Unknown",
    "country_iso3_code": "SRB",
    "giga_id_school": "4201258c-748c-3df2-a9a1-690a8aed6aa4",
    "school_data_source": null
  },
  {
    "school_name": "Нови Београд",
    "longitude": 20.406755447387695,
    "latitude": 44.82516860961914,
    "education_level": "Unknown",
    "country_iso3_code": "SRB",
    "giga_id_school": "9cef4e56-a366-3441-a7c0-a972643c9edd",
    "school_data_source": null
  },
  {
    "school_name": "Нови Београд",
    "longitude": 20.395835876464844,
    "latitude": 44.800079345703125,
    "education_level": "Unknown",
    "country_iso3_code": "SRB",
    "giga_id_school": "028bfadf-d168-3cf6-b052-2f397964b009",
    "school_data_source": null
  },
  {
    "school_name": "Антон Скала",
    "longitude": 20.440507888793945,
    "latitude": 44.7861442565918,
    "education_level": "Unknown",
    "country_iso3_code": "SRB",
    "giga_id_school": "781eaeaa-a2cf-35ab-a12b-67613821f8a4",
    "school_data_source": null
  },
  {
    "school_name": "Др Драган Херцог",
    "longitude": 20.48126220703125,
    "latitude": 44.738929748535156,
    "education_level": "Unknown",
    "country_iso3_code": "SRB",
    "giga_id_school": "cc860bac-15e5-3c31-988f-5cb0c27dfc2e",
    "school_data_source": null
  },
  {
    "school_name": "Драган Ковачевић",
    "longitude": 20.466188430786133,
    "latitude": 44.8160400390625,
    "education_level": "Unknown",
    "country_iso3_code": "SRB",
    "giga_id_school": "bfb591f6-5387-3877-b153-e770c079f751",
    "school_data_source": null
  },
  {
    "school_name": "Милоје Павловић",
    "longitude": 20.4161434173584,
    "latitude": 44.77820587158203,
    "education_level": "Unknown",
    "country_iso3_code": "SRB",
    "giga_id_school": "a3ff9b3c-c1b0-301e-a03b-2fd21251ac41",
    "school_data_source": null
  },
  {
    "school_name": "Милоје Васић",
    "longitude": 20.559476852416992,
    "latitude": 44.756492614746094,
    "education_level": "Unknown",
    "country_iso3_code": "SRB",
    "giga_id_school": "80b61e98-42dd-3e2c-8b56-fa3b9e4e1b1e",
    "school_data_source": null
  },
  {
    "school_name": "Михајло Пупин",
    "longitude": 20.369531631469727,
    "latitude": 44.857540130615234,
    "education_level": "Unknown",
    "country_iso3_code": "SRB",
    "giga_id_school": "ec01bc14-5f03-37ba-96dd-645b43995b01",
    "school_data_source": null
  },
  {
    "school_name": "Школа за основно образовање одраслих",
    "longitude": 20.692750930786133,
    "latitude": 44.441078186035156,
    "education_level": "Unknown",
    "country_iso3_code": "SRB",
    "giga_id_school": "3dd64f66-941f-3659-b879-9a044a0963f3",
    "school_data_source": null
  },
  {
    "school_name": "Школа за основно образовање одраслих Обреновац",
    "longitude": 20.196990966796875,
    "latitude": 44.66132736206055,
    "education_level": "Unknown",
    "country_iso3_code": "SRB",
    "giga_id_school": "611f3506-e7ec-3ebd-ba29-b2762472cee0",
    "school_data_source": null
  },
  {
    "school_name": "Школа за основно образовање одраслих Ђуро Салај",
    "longitude": 20.460411071777344,
    "latitude": 44.80230712890625,
    "education_level": "Unknown",
    "country_iso3_code": "SRB",
    "giga_id_school": "8607e9fe-eca4-3194-b741-4571e5679808",
    "school_data_source": null
  },
  {
    "school_name": "Школа за основно образовање одраслих Ђуро Салај",
    "longitude": 20.49049949645996,
    "latitude": 44.81128692626953,
    "education_level": "Unknown",
    "country_iso3_code": "SRB",
    "giga_id_school": "b6644e3e-f7a6-3d27-9f55-8f7b9282dad0",
    "school_data_source": null
  },
  {
    "school_name": "Школа за основно образовање одраслих Ђуро Салај",
    "longitude": 20.44442367553711,
    "latitude": 44.810794830322266,
    "education_level": "Unknown",
    "country_iso3_code": "SRB",
    "giga_id_school": "f413829e-48f9-38e7-ac9b-587ce701c14e",
    "school_data_source": null
  },
  {
    "school_name": "Школа за основно образовање одраслих Ђуро Салај",
    "longitude": 20.40821075439453,
    "latitude": 44.760250091552734,
    "education_level": "Unknown",
    "country_iso3_code": "SRB",
    "giga_id_school": "04fe4e44-6f6f-39df-83b2-59d9a7c5b7e1",
    "school_data_source": null
  },
  {
    "school_name": "Школа за основно образовање одраслих Ђуро Салај",
    "longitude": 20.348621368408203,
    "latitude": 44.80488204956055,
    "education_level": "Unknown",
    "country_iso3_code": "SRB",
    "giga_id_school": "faa9bb00-af37-3c33-bd43-2f7df20e96ae",
    "school_data_source": null
  },
  {
    "school_name": "Школа за основно образовање одраслих Ђуро Салај",
    "longitude": 20.453256607055664,
    "latitude": 44.71367263793945,
    "education_level": "Unknown",
    "country_iso3_code": "SRB",
    "giga_id_school": "6d354f56-1387-3d25-a6a7-71c6ef088ad6",
    "school_data_source": null
  },
  {
    "school_name": "Школа за основно образовање одраслих Ђуро Салај",
    "longitude": 20.391071319580078,
    "latitude": 44.67687225341797,
    "education_level": "Unknown",
    "country_iso3_code": "SRB",
    "giga_id_school": "4154a9c3-2d0b-3da9-8035-d630a047a0ff",
    "school_data_source": null
  },
  {
    "school_name": "Школа за основно образовање одраслих Ђуро Салај",
    "longitude": 20.25844955444336,
    "latitude": 44.79086685180664,
    "education_level": "Unknown",
    "country_iso3_code": "SRB",
    "giga_id_school": "68ed02eb-d068-3e36-8269-5f6b69c08371",
    "school_data_source": null
  },
  {
    "school_name": "Школа за основно образовање одраслих Ђуро Салај",
    "longitude": 20.41704750061035,
    "latitude": 44.57746124267578,
    "education_level": "Unknown",
    "country_iso3_code": "SRB",
    "giga_id_school": "47659be0-4b2f-3428-ae55-b58f3afd15e0",
    "school_data_source": null
  },
  {
    "school_name": "Школа за основно образовање одраслих Ђуро Салај",
    "longitude": 20.262155532836914,
    "latitude": 44.38066101074219,
    "education_level": "Unknown",
    "country_iso3_code": "SRB",
    "giga_id_school": "9a0d7b5b-e765-3abd-875a-e8404d978e0c",
    "school_data_source": null
  },
  {
    "school_name": "Бранко Пешић",
    "longitude": 20.39668083190918,
    "latitude": 44.8504638671875,
    "education_level": "Unknown",
    "country_iso3_code": "SRB",
    "giga_id_school": "8896da33-e61a-302d-a637-0fb9c0178cea",
    "school_data_source": null
  },
  {
    "school_name": "Школа за основно образовање одраслих Браћа Стаменковић",
    "longitude": 20.46028709411621,
    "latitude": 44.802452087402344,
    "education_level": "Unknown",
    "country_iso3_code": "SRB",
    "giga_id_school": "9f796f8e-547f-302c-b52e-34c44d1b12d4",
    "school_data_source": null
  },
  {
    "school_name": "Школа за основно образовање одраслих Браћа Стаменковић",
    "longitude": 20.500450134277344,
    "latitude": 44.81690979003906,
    "education_level": "Unknown",
    "country_iso3_code": "SRB",
    "giga_id_school": "773f9aa7-b809-3802-b6e5-3133018cb4d5",
    "school_data_source": null
  },
  {
    "school_name": "Школа за основно образовање одраслих Браћа Стаменковић",
    "longitude": 20.51529884338379,
    "latitude": 44.81269836425781,
    "education_level": "Unknown",
    "country_iso3_code": "SRB",
    "giga_id_school": "bd2dd2e7-364f-3523-8618-eaedbc328051",
    "school_data_source": null
  },
  {
    "school_name": "Школа за основно образовање одраслих Браћа Стаменковић",
    "longitude": 20.514577865600586,
    "latitude": 44.81083679199219,
    "education_level": "Unknown",
    "country_iso3_code": "SRB",
    "giga_id_school": "1e47c978-ad25-363c-ac97-030ef200234a",
    "school_data_source": null
  },
  {
    "school_name": "Школа за основно образовање одраслих Браћа Стаменковић",
    "longitude": 20.52985191345215,
    "latitude": 44.79936599731445,
    "education_level": "Unknown",
    "country_iso3_code": "SRB",
    "giga_id_school": "ec4eb91e-63f1-3b18-a762-2f31f3702202",
    "school_data_source": null
  },
  {
    "school_name": "Школа за основно образовање одраслих Браћа Стаменковић",
    "longitude": 20.715408325195312,
    "latitude": 44.673744201660156,
    "education_level": "Unknown",
    "country_iso3_code": "SRB",
    "giga_id_school": "982fbe61-d7ec-3932-87a7-21dc86d8cbb3",
    "school_data_source": null
  },
  {
    "school_name": "Школа за основно образовање одраслих Браћа Стаменковић",
    "longitude": 20.471153259277344,
    "latitude": 44.84986877441406,
    "education_level": "Unknown",
    "country_iso3_code": "SRB",
    "giga_id_school": "f7d48e21-624e-3ec0-9e7d-0b40744001f1",
    "school_data_source": null
  },
  {
    "school_name": "Школа за основно образовање одраслих Браћа Стаменковић",
    "longitude": 20.45338249206543,
    "latitude": 44.88330078125,
    "education_level": "Unknown",
    "country_iso3_code": "SRB",
    "giga_id_school": "356c374e-6ea1-3cb2-b118-cc459266f684",
    "school_data_source": null
  },
  {
    "school_name": "Школа за основно образовање одраслих Браћа Стаменковић",
    "longitude": 20.51781463623047,
    "latitude": 44.8487663269043,
    "education_level": "Unknown",
    "country_iso3_code": "SRB",
    "giga_id_school": "e48d9e5b-85e2-3ea9-9c56-69fbb9fd3f8a",
    "school_data_source": null
  },
  {
    "school_name": "Школа за основно образовање одраслих Браћа Стаменковић",
    "longitude": 20.454299926757812,
    "latitude": 44.921119689941406,
    "education_level": "Unknown",
    "country_iso3_code": "SRB",
    "giga_id_school": "d921a59e-da05-39af-8290-625747cf8176",
    "school_data_source": null
  },
  {
    "school_name": "Чех Карољ",
    "longitude": 20.13469886779785,
    "latitude": 45.797569274902344,
    "education_level": "Unknown",
    "country_iso3_code": "SRB",
    "giga_id_school": "dd8c44a9-fe2c-3599-a8cb-01384eb659a1",
    "school_data_source": null
  },
  {
    "school_name": "Чех Карољ",
    "longitude": 20.020458221435547,
    "latitude": 45.80296325683594,
    "education_level": "Unknown",
    "country_iso3_code": "SRB",
    "giga_id_school": "d80f2827-96ff-3a83-8daf-843b4a7b3bca",
    "school_data_source": null
  },
  {
    "school_name": "Чех Карољ",
    "longitude": 20.121572494506836,
    "latitude": 45.80019760131836,
    "education_level": "Unknown",
    "country_iso3_code": "SRB",
    "giga_id_school": "99a2d0dc-aeae-3398-ab9b-cec35df2e149",
    "school_data_source": null
  },
  {
    "school_name": "Чех Карољ",
    "longitude": 19.900714874267578,
    "latitude": 45.81098556518555,
    "education_level": "Unknown",
    "country_iso3_code": "SRB",
    "giga_id_school": "dab4f2c8-b699-3592-8cc8-2bba0f368517",
    "school_data_source": null
  },
  {
    "school_name": "Чех Карољ",
    "longitude": 19.89105796813965,
    "latitude": 45.774444580078125,
    "education_level": "Unknown",
    "country_iso3_code": "SRB",
    "giga_id_school": "3184094d-b1d2-3b60-bca1-13109c35e897",
    "school_data_source": null
  },
  {
    "school_name": "Сечењи Иштван",
    "longitude": 19.644927978515625,
    "latitude": 46.10637283325195,
    "education_level": "Unknown",
    "country_iso3_code": "SRB",
    "giga_id_school": "f3eaa36b-d4bb-3916-ad3c-5c5c13bc53d8",
    "school_data_source": null
  },
  {
    "school_name": "Сечењи Иштван",
    "longitude": 19.630346298217773,
    "latitude": 46.10945129394531,
    "education_level": "Unknown",
    "country_iso3_code": "SRB",
    "giga_id_school": "3b09947c-0fb6-35ff-802f-8762afa97f71",
    "school_data_source": null
  },
  {
    "school_name": "Сечењи Иштван",
    "longitude": 19.61151885986328,
    "latitude": 46.12456130981445,
    "education_level": "Unknown",
    "country_iso3_code": "SRB",
    "giga_id_school": "5b134928-c5d0-3f92-8c22-e7995f91ff70",
    "school_data_source": null
  },
  {
    "school_name": "Сечењи Иштван",
    "longitude": 19.576261520385742,
    "latitude": 46.15081787109375,
    "education_level": "Unknown",
    "country_iso3_code": "SRB",
    "giga_id_school": "37592ab0-03ae-3704-8fa5-e264ce996061",
    "school_data_source": null
  },
  {
    "school_name": "Јован Јовановић Змај",
    "longitude": 19.659442901611328,
    "latitude": 46.1031494140625,
    "education_level": "Unknown",
    "country_iso3_code": "SRB",
    "giga_id_school": "a6724bf9-8afa-3905-b023-e5117866f554",
    "school_data_source": null
  },
  {
    "school_name": "Јован Микић",
    "longitude": 19.7039794921875,
    "latitude": 46.126556396484375,
    "education_level": "Unknown",
    "country_iso3_code": "SRB",
    "giga_id_school": "8bb6d64e-6ccc-3bfa-9762-11d0eab678ef",
    "school_data_source": null
  },
  {
    "school_name": "Кизур Иштван",
    "longitude": 19.665353775024414,
    "latitude": 46.10493469238281,
    "education_level": "Unknown",
    "country_iso3_code": "SRB",
    "giga_id_school": "9db3f819-b394-3967-8f1d-a3de4fdc5564",
    "school_data_source": null
  },
  {
    "school_name": "Матко Вуковић",
    "longitude": 19.65754508972168,
    "latitude": 46.09379959106445,
    "education_level": "Unknown",
    "country_iso3_code": "SRB",
    "giga_id_school": "3633e180-9910-3def-ae38-f485c9899929",
    "school_data_source": null
  },
  {
    "school_name": "Матко Вуковић",
    "longitude": 19.655452728271484,
    "latitude": 46.0926628112793,
    "education_level": "Unknown",
    "country_iso3_code": "SRB",
    "giga_id_school": "a440f5a1-6a70-3ec2-a58c-6215991551ac",
    "school_data_source": null
  },
  {
    "school_name": "Матко Вуковић",
    "longitude": 19.646751403808594,
    "latitude": 46.084468841552734,
    "education_level": "Unknown",
    "country_iso3_code": "SRB",
    "giga_id_school": "b883a759-aac4-3d2f-a9b2-4f5d08b48edb",
    "school_data_source": null
  },
  {
    "school_name": "Соња Маринковић",
    "longitude": 19.672222137451172,
    "latitude": 46.087242126464844,
    "education_level": "Unknown",
    "country_iso3_code": "SRB",
    "giga_id_school": "15b9adc7-c149-3ec9-9754-ffe2f1255958",
    "school_data_source": null
  },
  {
    "school_name": "Соња Маринковић",
    "longitude": 19.667383193969727,
    "latitude": 46.0927734375,
    "education_level": "Unknown",
    "country_iso3_code": "SRB",
    "giga_id_school": "a4e00f80-7521-3e7f-b318-7b4d24d5c5af",
    "school_data_source": null
  },
  {
    "school_name": "10. октобар",
    "longitude": 19.68463897705078,
    "latitude": 46.09710693359375,
    "education_level": "Unknown",
    "country_iso3_code": "SRB",
    "giga_id_school": "77ae1f43-d49d-3a49-bece-0b0d58294d6c",
    "school_data_source": null
  },
  {
    "school_name": "Мајшански пут",
    "longitude": 19.67284393310547,
    "latitude": 46.115089416503906,
    "education_level": "Unknown",
    "country_iso3_code": "SRB",
    "giga_id_school": "307161a7-e03b-37db-91e5-84b53f7de4c5",
    "school_data_source": null
  },
  {
    "school_name": "Свети Сава",
    "longitude": 19.680784225463867,
    "latitude": 46.073143005371094,
    "education_level": "Unknown",
    "country_iso3_code": "SRB",
    "giga_id_school": "fa234fe6-f1eb-34fe-a584-22c87eb45d35",
    "school_data_source": null
  },
  {
    "school_name": "Свети Сава",
    "longitude": 19.761089324951172,
    "latitude": 46.01902770996094,
    "education_level": "Unknown",
    "country_iso3_code": "SRB",
    "giga_id_school": "5e0caa95-916f-3bbd-b791-8b9b6cc26cdb",
    "school_data_source": null
  },
  {
    "school_name": "Петефи Шандор",
    "longitude": 19.512792587280273,
    "latitude": 46.07256317138672,
    "education_level": "Unknown",
    "country_iso3_code": "SRB",
    "giga_id_school": "005111e2-4756-3380-8081-254bc59e14aa",
    "school_data_source": null
  },
  {
    "school_name": "Пионир",
    "longitude": 19.62556266784668,
    "latitude": 45.948158264160156,
    "education_level": "Unknown",
    "country_iso3_code": "SRB",
    "giga_id_school": "1ab3a3b3-e878-3ce2-bb12-1c2b748778eb",
    "school_data_source": null
  },
  {
    "school_name": "Хуњади Јанош",
    "longitude": 19.767322540283203,
    "latitude": 45.91619873046875,
    "education_level": "Unknown",
    "country_iso3_code": "SRB",
    "giga_id_school": "7921669e-ec72-3ff6-907f-2e33892fc616",
    "school_data_source": null
  },
  {
    "school_name": "Хуњади Јанош",
    "longitude": 19.78396224975586,
    "latitude": 45.90483856201172,
    "education_level": "Unknown",
    "country_iso3_code": "SRB",
    "giga_id_school": "9407abd3-95e7-30e4-87ee-afe54c47a7f6",
    "school_data_source": null
  },
  {
    "school_name": "Хуњади Јанош",
    "longitude": 19.73968505859375,
    "latitude": 45.95073318481445,
    "education_level": "Unknown",
    "country_iso3_code": "SRB",
    "giga_id_school": "f3f2bf5f-e990-35d1-8fae-6f0327f84440",
    "school_data_source": null
  },
  {
    "school_name": "Матија Губец",
    "longitude": 19.49053955078125,
    "latitude": 46.04783630371094,
    "education_level": "Unknown",
    "country_iso3_code": "SRB",
    "giga_id_school": "666564f2-cdd3-368f-ba45-66571a8cbe3f",
    "school_data_source": null
  },
  {
    "school_name": "Матија Губец",
    "longitude": 19.45427703857422,
    "latitude": 46.0389404296875,
    "education_level": "Unknown",
    "country_iso3_code": "SRB",
    "giga_id_school": "dac69867-be1e-3c8d-990d-7247044e7eb9",
    "school_data_source": null
  },
  {
    "school_name": "Матија Губец",
    "longitude": 19.524330139160156,
    "latitude": 46.06504821777344,
    "education_level": "Unknown",
    "country_iso3_code": "SRB",
    "giga_id_school": "fa7e1833-d58f-32cb-9562-3a04bc8e9fe4",
    "school_data_source": null
  },
  {
    "school_name": "Жарко Зрењанин",
    "longitude": 18.98357391357422,
    "latitude": 45.67140579223633,
    "education_level": "Unknown",
    "country_iso3_code": "SRB",
    "giga_id_school": "c71ffa86-b9d5-3ae3-bd58-9ece28d6e5f4",
    "school_data_source": null
  },
  {
    "school_name": "Јожеф Атила",
    "longitude": 19.016239166259766,
    "latitude": 45.74085998535156,
    "education_level": "Unknown",
    "country_iso3_code": "SRB",
    "giga_id_school": "719f1e09-db31-3bbf-8ee6-dde619c3057c",
    "school_data_source": null
  },
  {
    "school_name": "Младост",
    "longitude": 19.3414306640625,
    "latitude": 45.606353759765625,
    "education_level": "Unknown",
    "country_iso3_code": "SRB",
    "giga_id_school": "c083f519-1d69-3202-ad98-e07d201a8ab6",
    "school_data_source": null
  },
  {
    "school_name": "Иван Горан Ковачић",
    "longitude": 19.061279296875,
    "latitude": 45.579444885253906,
    "education_level": "Unknown",
    "country_iso3_code": "SRB",
    "giga_id_school": "f439bc82-86e4-3d9d-ab68-2c25db55b445",
    "school_data_source": null
  },
  {
    "school_name": "Киш Ференц",
    "longitude": 19.065763473510742,
    "latitude": 45.647647857666016,
    "education_level": "Unknown",
    "country_iso3_code": "SRB",
    "giga_id_school": "c5eff3b3-8e10-3d05-9d39-4bc2cbab011b",
    "school_data_source": null
  },
  {
    "school_name": "Иса Бајић",
    "longitude": 19.527450561523438,
    "latitude": 45.6115837097168,
    "education_level": "Unknown",
    "country_iso3_code": "SRB",
    "giga_id_school": "5e101780-132e-3cde-a04f-8ca50d33ac4b",
    "school_data_source": null
  },
  {
    "school_name": "Петефи бригада",
    "longitude": 19.52570915222168,
    "latitude": 45.60478973388672,
    "education_level": "Unknown",
    "country_iso3_code": "SRB",
    "giga_id_school": "d2b47ed0-52b7-33b6-bca0-aa4c88ec5714",
    "school_data_source": null
  },
  {
    "school_name": "Вук Караџић",
    "longitude": 19.458473205566406,
    "latitude": 45.6583251953125,
    "education_level": "Unknown",
    "country_iso3_code": "SRB",
    "giga_id_school": "21dc3094-76f8-3a65-a9c7-8d1b1e454142",
    "school_data_source": null
  },
  {
    "school_name": "Вук Караџић",
    "longitude": 19.487289428710938,
    "latitude": 45.69593048095703,
    "education_level": "Unknown",
    "country_iso3_code": "SRB",
    "giga_id_school": "5cef35aa-68ac-3d60-a322-8391d7f27010",
    "school_data_source": null
  },
  {
    "school_name": "Вељко Влаховић",
    "longitude": 19.3743896484375,
    "latitude": 45.617401123046875,
    "education_level": "Unknown",
    "country_iso3_code": "SRB",
    "giga_id_school": "599341f5-4c39-3bbf-a969-35e492996451",
    "school_data_source": null
  },
  {
    "school_name": "Никола Тесла",
    "longitude": 19.554628372192383,
    "latitude": 45.70615768432617,
    "education_level": "Unknown",
    "country_iso3_code": "SRB",
    "giga_id_school": "ac15c5a8-c82b-3a42-9f74-65d9de52dc88",
    "school_data_source": null
  },
  {
    "school_name": "20. октобар",
    "longitude": 19.379066467285156,
    "latitude": 45.71135330200195,
    "education_level": "Unknown",
    "country_iso3_code": "SRB",
    "giga_id_school": "5184d47e-e88e-3db5-afd9-5788a30e8714",
    "school_data_source": null
  },
  {
    "school_name": "20. октобар",
    "longitude": 19.380762100219727,
    "latitude": 45.69819259643555,
    "education_level": "Unknown",
    "country_iso3_code": "SRB",
    "giga_id_school": "43628bf6-081e-38d4-9018-2fb6e117e319",
    "school_data_source": null
  },
  {
    "school_name": "Бранко Радичевић",
    "longitude": 19.276199340820312,
    "latitude": 45.50971603393555,
    "education_level": "Unknown",
    "country_iso3_code": "SRB",
    "giga_id_school": "93bcbded-a4e9-3c77-8d29-1c1d0875c226",
    "school_data_source": null
  },
  {
    "school_name": "Мирослав Антић",
    "longitude": 19.261259078979492,
    "latitude": 45.5057373046875,
    "education_level": "Unknown",
    "country_iso3_code": "SRB",
    "giga_id_school": "55ae00df-4e31-305e-9b7e-94c71eeb9546",
    "school_data_source": null
  },
  {
    "school_name": "Бора Станковић",
    "longitude": 19.195737838745117,
    "latitude": 45.49567413330078,
    "education_level": "Unknown",
    "country_iso3_code": "SRB",
    "giga_id_school": "d7baaf73-5efe-3da9-901a-3328bc71834e",
    "school_data_source": null
  },
  {
    "school_name": "Ратко Павловић Ћићко",
    "longitude": 19.340030670166016,
    "latitude": 45.45751190185547,
    "education_level": "Unknown",
    "country_iso3_code": "SRB",
    "giga_id_school": "fb4f0639-6a0a-3594-a42b-672282af29a3",
    "school_data_source": null
  },